timestamp,rollspeed,pitchspeed,yawspeed,rollspeed_integ,pitchspeed_integ,yawspeed_integ,additional_integ1
6569423,0.0041292924,-0.0028592215,0.0016055492,0.0,0.0,0.0,0.0
6573404,0.002482224,-0.002959236,0.0031634667,0.0,0.0,0.0,0.0
6605434,0.0038030592,-0.0038423117,0.0008205758,0.0,0.0,0.0,0.0
6637424,0.005072787,-0.0036919957,0.00024803533,0.0,0.0,0.0,0.0
6665424,0.0047412603,-0.0028367098,0.0033499482,0.0,0.0,0.0,0.0
6697422,0.004852752,-0.0028395886,0.0039024414,0.0,0.0,0.0,0.0
6729419,0.004471128,-0.0023591262,0.0044500995,0.0,0.0,0.0,0.0
6761424,0.0033944084,-0.0015590207,0.002105438,0.0,0.0,0.0,0.0
6793421,0.003654326,-0.002414548,0.0018932387,0.0,0.0,0.0,0.0
6825435,0.0041874363,-0.0031205153,0.0009515956,0.0,0.0,0.0,0.0
6857403,0.0034951973,-0.0026492765,-0.0027069557,0.0,0.0,0.0,0.0
6889428,0.004760023,-0.002709504,-0.0024956565,0.0,0.0,0.0,0.0
6917426,0.0036287443,-0.001894022,0.00398986,0.0,0.0,0.0,0.0
6949420,0.0027172964,-0.0028118202,0.0018668043,0.0,0.0,0.0,0.0
6981416,0.0039028672,-0.0024869107,0.0010175027,0.0,0.0,0.0,0.0
7013454,0.0030647074,-0.0023385526,-0.001184186,0.0,0.0,0.0,0.0
7045424,0.0044093905,-0.0030114648,-0.000780374,0.0,0.0,0.0,0.0
7077418,0.004393534,-0.003290364,-0.0031624294,0.0,0.0,0.0,0.0
7109407,0.003067634,-0.0036836872,-0.0041511483,0.0,0.0,0.0,0.0
7141425,0.005319217,-0.0027293295,-0.0030257637,0.0,0.0,0.0,0.0
7169432,0.0030272263,-0.003067767,0.0022264745,0.0,0.0,0.0,0.0
7201417,0.0043273093,-0.0028212594,0.0008424856,0.0,0.0,0.0,0.0
7233443,0.00467326,-0.0034495033,-0.002065816,0.0,0.0,0.0,0.0
7265420,0.003953799,-0.004361902,-0.0034384914,0.0,0.0,0.0,0.0
7298229,0.0038965761,-0.0041718385,-0.0041023907,0.0,0.0,0.0,0.0
7330206,0.0054543815,-0.0024366367,-0.0011538608,0.0,0.0,0.0,0.0
7358227,0.003092392,-0.0032686838,-0.00024362882,0.0,0.0,0.0,0.0
7390233,0.0034081177,-0.0034287057,-0.0025221633,0.0,0.0,0.0,0.0
7422231,0.004355759,-0.0036403511,-0.0038694467,0.0,0.0,0.0,0.0
7454247,0.0041813287,-0.003286223,-0.004242252,0.0,0.0,0.0,0.0
7486224,0.0040576905,-0.003104634,-0.0045967554,0.0,0.0,0.0,0.0
7518224,0.0046279454,-0.004234006,-0.0031937312,0.0,0.0,0.0,0.0
7550223,0.0039772326,-0.0021896458,-0.0007493948,0.0,0.0,0.0,0.0
7582219,0.004196877,-0.003092961,0.00035423928,0.0,0.0,0.0,0.0
7610225,0.0036300246,-0.0022865192,-0.0038242016,0.0,0.0,0.0,0.0
7642224,0.004377275,-0.0032244292,-0.0041808,0.0,0.0,0.0,0.0
7674227,0.005220844,-0.003067529,-0.0033009502,0.0,0.0,0.0,0.0
7706229,0.003346004,-0.0025258032,-0.001973901,0.0,0.0,0.0,0.0
7738228,0.0035415627,-0.0021288546,-0.0033405097,0.0,0.0,0.0,0.0
7770224,0.0047066696,-0.003353049,0.00018640747,0.0,0.0,0.0,0.0
7802229,0.0035813162,-0.001955564,0.0028700535,0.0,0.0,0.0,0.0
7834222,0.0055652,-0.0021570828,0.004058989,0.0,0.0,0.0,0.0
7862212,0.0050540566,-0.002944223,-0.002943481,0.0,0.0,0.0,0.0
7894225,0.004342864,-0.0027228238,-0.0035465723,0.0,0.0,0.0,0.0
7926231,0.005285069,-0.0033670354,-0.00070406013,0.0,0.0,0.0,0.0
7958234,0.0031198012,-0.0020825367,3.589948e-06,0.0,0.0,0.0,0.0
7990223,0.004758451,-0.002703035,0.002564088,0.0,0.0,0.0,0.0
8022219,0.004521376,-0.0018375631,0.0034834377,0.0,0.0,0.0,0.0
8054248,0.0035733911,-0.002444787,0.004862943,0.0,0.0,0.0,0.0
8086222,0.0050972053,-0.002060587,0.003863048,0.0,0.0,0.0,0.0
8114237,0.004069071,-0.002930071,0.00011731116,0.0,0.0,0.0,0.0
8146209,0.0054249475,-0.003819573,0.0009146313,0.0,0.0,0.0,0.0
8178233,0.0044551054,-0.0030939842,0.0029604991,0.0,0.0,0.0,0.0
8210243,0.0036535037,-0.0022143212,0.0042888215,0.0,0.0,0.0,0.0
8242217,0.005297414,-0.0014814114,0.0044971956,0.0,0.0,0.0,0.0
8274225,0.003924921,-0.0032594607,0.0048303134,0.0,0.0,0.0,0.0
8306216,0.0032074128,-0.0027024995,0.0038578918,0.0,0.0,0.0,0.0
8338224,0.0039238264,-0.005013807,0.0021327115,0.0,0.0,0.0,0.0
8366226,0.005563509,-0.0046057357,0.00382902,0.0,0.0,0.0,0.0
8399060,0.0038537881,-0.0026355577,0.005397895,0.0,0.0,0.0,0.0
8431057,0.004014029,-0.002673282,0.0032213568,0.0,0.0,0.0,0.0
8463068,0.004172425,-0.0022113544,0.0027847525,0.0,0.0,0.0,0.0
8495043,0.003624804,-0.004240779,-0.0005806179,0.0,0.0,0.0,0.0
8527066,0.0030682033,-0.0020403764,-0.00053942343,0.0,0.0,0.0,0.0
8555071,0.0043838597,-0.0031046667,0.006331709,0.0,0.0,0.0,0.0
8587048,0.0051595527,-0.0009156487,0.004446173,0.0,0.0,0.0,0.0
8619051,0.004287631,-0.0018939518,0.0046229763,0.0,0.0,0.0,0.0
8651064,0.0033025297,-0.0023320029,0.002094543,0.0,0.0,0.0,0.0
8683070,0.003662107,-0.0031498144,0.0003773397,0.0,0.0,0.0,0.0
8715067,0.0046221795,-0.0028796664,-0.0022181438,0.0,0.0,0.0,0.0
8747022,0.0045101955,-0.0042014727,-0.0032459674,0.0,0.0,0.0,0.0
8779061,0.004314156,-0.0020640765,-0.0029825347,0.0,0.0,0.0,0.0
8807059,0.0038587258,-0.0028006078,0.003033923,0.0,0.0,0.0,0.0
8839044,0.0036258546,-0.0020323896,0.00080339715,0.0,0.0,0.0,0.0
8871069,0.004536035,-0.0039028742,-0.00089299394,0.0,0.0,0.0,0.0
8903042,0.003705375,-0.002725099,-0.0030282622,0.0,0.0,0.0,0.0
8935044,0.0030691333,-0.0042418647,-0.003031483,0.0,0.0,0.0,0.0
8967074,0.0036267987,-0.0034325344,-0.005218579,0.0,0.0,0.0,0.0
8999059,0.0051428177,-0.0035494498,-0.004552533,0.0,0.0,0.0,0.0
9031057,0.005001943,-0.0016909481,-0.001724936,0.0,0.0,0.0,0.0
9059063,0.0038798738,-0.0040385323,-0.00064231845,0.0,0.0,0.0,0.0
9091052,0.0037429132,-0.0022914046,-0.001793078,0.0,0.0,0.0,0.0
9123061,0.0035842834,-0.003663413,-0.00456179,0.0,0.0,0.0,0.0
9155031,0.004857178,-0.0033457475,-0.002783942,0.0,0.0,0.0,0.0
9187053,0.0041087987,-0.0025780112,-0.0020266573,0.0,0.0,0.0,0.0
9219067,0.005149916,-0.0025445523,-0.001180705,0.0,0.0,0.0,0.0
9251068,0.0060745436,-0.0037869562,0.00070419785,0.0,0.0,0.0,0.0
9283060,0.0056116735,-0.0027849998,0.0024917212,0.0,0.0,0.0,0.0
9311090,0.0022506022,-0.003421805,-0.0036526544,0.0,0.0,0.0,0.0
9343058,0.004763075,-0.0049103913,-0.0026518977,0.0,0.0,0.0,0.0
9375053,0.0044470266,-0.00382954,-0.0024279088,0.0,0.0,0.0,0.0
9407062,0.005452012,-0.002840224,0.000105475854,0.0,0.0,0.0,0.0
9439051,0.0038890473,-0.0023433433,0.0001901608,0.0,0.0,0.0,0.0
9471048,0.006147218,-0.002133064,0.0023218023,0.0,0.0,0.0,0.0
9503824,0.005250606,-0.003549735,0.0058883145,0.0,0.0,0.0,0.0
9531841,0.0048260298,-0.0042887004,-0.00042803242,0.0,0.0,0.0,0.0
9563829,0.0048155426,-0.002742165,0.00028013336,0.0,0.0,0.0,0.0
9595822,0.0051089036,-0.0014328588,0.002330192,0.0,0.0,0.0,0.0
9627826,0.0048939497,-0.0020228208,0.005068156,0.0,0.0,0.0,0.0
9659808,0.004305361,-0.001773175,0.004551294,0.0,0.0,0.0,0.0
9691850,0.0031502575,-0.0015545266,0.0041270303,0.0,0.0,0.0,0.0
9723821,0.004557661,-0.0012665174,0.0040283483,0.0,0.0,0.0,0.0
9755828,0.0052124453,-0.0015863733,0.0010937473,0.0,0.0,0.0,0.0
9783828,0.0047535775,-0.00201753,0.0037158793,0.0,0.0,0.0,0.0
9815825,0.004285611,-0.0018259193,0.005391249,0.0,0.0,0.0,0.0
9847826,0.0044658305,-0.0033650766,0.003978885,0.0,0.0,0.0,0.0
9879826,0.005543933,-0.0024514005,0.0043916856,0.0,0.0,0.0,0.0
9911806,0.0018478733,-0.003066301,0.002220901,0.0,0.0,0.0,0.0
9943814,0.0044676047,-0.0018358149,0.0014324284,0.0,0.0,0.0,0.0
9975830,0.0038208552,-0.0030006536,-0.00023432882,0.0,0.0,0.0,0.0
10007824,0.0032628286,-0.0031392914,-0.0017412711,0.0,0.0,0.0,0.0
10035826,0.004035539,-0.0028472098,0.0053834096,0.0,0.0,0.0,0.0
10067826,0.0036021913,-0.002316543,0.004603326,0.0,0.0,0.0,0.0
10099829,0.003904859,-0.002890348,0.0017347179,0.0,0.0,0.0,0.0
10131865,0.0025069297,-0.0026366306,0.0014043641,0.0,0.0,0.0,0.0
10163824,0.003974002,-0.0033997307,-0.0007115591,0.0,0.0,0.0,0.0
10195809,0.004349663,-0.003601574,-0.0020612588,0.0,0.0,0.0,0.0
10227804,0.005544061,-0.001734411,-0.0044113533,0.0,0.0,0.0,0.0
10259830,0.004637923,-0.0036368635,-0.0031213649,0.0,0.0,0.0,0.0
10287827,0.0044972748,-0.001988628,0.0011731512,0.0,0.0,0.0,0.0
10319828,0.004353688,-0.0021747046,-0.00026166742,0.0,0.0,0.0,0.0
10352643,0.004623471,-0.0038914487,-0.002906295,0.0,0.0,0.0,0.0
10384621,0.004053882,-0.0024953934,-0.0029661614,0.0,0.0,0.0,0.0
10416598,0.004325234,-0.0023559185,-0.0023658874,0.0,0.0,0.0,0.0
10448613,0.004450558,-0.0027882329,-0.002081144,0.0,0.0,0.0,0.0
10476614,0.004319907,-0.0028178436,-0.0016677891,0.0,0.0,0.0,0.0
10508624,0.00321497,-0.0034380544,-0.0026919045,0.0,0.0,0.0,0.0
10540622,0.0031482896,-0.0031483234,-0.0027511122,0.0,0.0,0.0,0.0
10572655,0.0041671502,-0.0029779642,-0.0045527956,0.0,0.0,0.0,0.0
10604617,0.0029562756,-0.0035879104,-0.0021631336,0.0,0.0,0.0,0.0
10636616,0.0057028276,-0.002476577,-0.00030098017,0.0,0.0,0.0,0.0
10668615,0.003941106,-0.0031272802,0.0020503644,0.0,0.0,0.0,0.0
10700612,0.0035841125,-0.0021095944,0.0035739588,0.0,0.0,0.0,0.0
10728622,0.004929708,-0.0033702303,-0.00397514,0.0,0.0,0.0,0.0
10760622,0.004708232,-0.003138204,-0.0036647734,0.0,0.0,0.0,0.0
10792623,0.004771699,-0.0025534309,-8.098132e-05,0.0,0.0,0.0,0.0
10824624,0.006774909,-0.0030686941,-0.0006462126,0.0,0.0,0.0,0.0
10856620,0.0033406876,-0.0020133366,0.000892588,0.0,0.0,0.0,0.0
10888617,0.0049993065,-0.0023231676,0.0046728468,0.0,0.0,0.0,0.0
10920618,0.0037536747,-0.0023887195,0.0049314178,0.0,0.0,0.0,0.0
10952608,0.0052485685,-0.0026579082,0.005325143,0.0,0.0,0.0,0.0
10980626,0.0034165974,-0.0045465985,0.00019065091,0.0,0.0,0.0,0.0
11012623,0.0039534923,-0.0024870748,4.44259e-05,0.0,0.0,0.0,0.0
11044620,0.0042153304,-0.0021579328,0.0034073463,0.0,0.0,0.0,0.0
11076616,0.0043540867,-0.0018838372,0.004402865,0.0,0.0,0.0,0.0
11108615,0.005382079,-0.002489036,0.003324173,0.0,0.0,0.0,0.0
11140626,0.0038666006,-0.0015613387,0.0045985086,0.0,0.0,0.0,0.0
11172618,0.004968438,-0.0024750074,0.005354001,0.0,0.0,0.0,0.0
11204615,0.0028598458,-0.0014856014,0.0013391906,0.0,0.0,0.0,0.0
11232603,0.0047722566,-0.0026957737,0.002461618,0.0,0.0,0.0,0.0
11264637,0.005199992,-0.002956611,0.00391951,0.0,0.0,0.0,0.0
11296621,0.004821536,-0.0010243815,0.004034362,0.0,0.0,0.0,0.0
11328616,0.003573863,-0.002344958,0.0056183934,0.0,0.0,0.0,0.0
11360623,0.0056143207,-0.0025459158,0.0036736834,0.0,0.0,0.0,0.0
11392619,0.004501919,-0.0014609348,0.0031494952,0.0,0.0,0.0,0.0
11424618,0.004342013,-0.003806673,-0.0005927904,0.0,0.0,0.0,0.0
11456618,0.0032347387,-0.0038311377,-2.5735884e-05,0.0,0.0,0.0,0.0
11484601,0.0044509238,-0.0021291312,0.0054688663,0.0,0.0,0.0,0.0
11516627,0.0035796028,-0.0019503329,0.0043135765,0.0,0.0,0.0,0.0
11548628,0.0030994418,-0.002702795,0.0043049785,0.0,0.0,0.0,0.0
11580624,0.003860701,-0.0040083337,0.0033450555,0.0,0.0,0.0,0.0
11612642,0.0028419895,-0.0044271536,0.001695439,0.0,0.0,0.0,0.0
11644616,0.002808367,-0.0028549223,-0.00016682375,0.0,0.0,0.0,0.0
11676616,0.0046127276,-0.0028574022,-0.002753652,0.0,0.0,0.0,0.0
11704627,0.0036344666,-0.0021919655,0.0043440205,0.0,0.0,0.0,0.0
11737422,0.0034377072,-0.0034256382,0.0029411952,0.0,0.0,0.0,0.0
11769425,0.0033467878,-0.0035841123,0.00090030115,0.0,0.0,0.0,0.0
11801423,0.004541592,-0.003764232,-0.002542837,0.0,0.0,0.0,0.0
11833424,0.0037078653,-0.0027268422,-0.0029506837,0.0,0.0,0.0,0.0
11865422,0.00445025,-0.004004674,-0.004825076,0.0,0.0,0.0,0.0
11897420,0.0038386676,-0.0030257257,-0.005160218,0.0,0.0,0.0,0.0
11929423,0.0043511544,-0.0022373619,-0.0027465904,0.0,0.0,0.0,0.0
11957416,0.004998375,-0.0024171933,2.6796019e-05,0.0,0.0,0.0,0.0
11989404,0.0038300764,-0.0028399883,-0.0021445674,0.0,0.0,0.0,0.0
12021427,0.0051167803,-0.0033924156,-0.0020049568,0.0,0.0,0.0,0.0
12053447,0.0036156673,-0.003337713,-0.0039350325,0.0,0.0,0.0,0.0
12085417,0.004411775,-0.0028949212,-0.0027655324,0.0,0.0,0.0,0.0
12117420,0.0036703818,-0.0033110075,-0.0031729275,0.0,0.0,0.0,0.0
12149421,0.0040710475,-0.003888515,-0.0015014654,0.0,0.0,0.0,0.0
12181429,0.00460201,-0.0031603104,-0.0002477262,0.0,0.0,0.0,0.0
12209427,0.005228285,-0.0038987426,-0.0040517556,0.0,0.0,0.0,0.0
12241410,0.003033701,-0.003116549,-0.005192164,0.0,0.0,0.0,0.0
12273425,0.0036641774,-0.003015788,-0.0044365195,0.0,0.0,0.0,0.0
12305420,0.0050634663,-0.0032324675,-0.0032424363,0.0,0.0,0.0,0.0
12337424,0.0035140875,-0.0024822769,-0.0016288621,0.0,0.0,0.0,0.0
12369426,0.004554779,-0.0025773062,0.0009955768,0.0,0.0,0.0,0.0
12401420,0.0050024097,-0.0020405652,0.0011000977,0.0,0.0,0.0,0.0
12433455,0.004335739,-0.0024357934,0.0045490395,0.0,0.0,0.0,0.0
12461427,0.003480498,-0.0020067089,-0.00462835,0.0,0.0,0.0,0.0
12493428,0.0058227833,-0.0021472285,-0.0010981191,0.0,0.0,0.0,0.0
12525414,0.0042532883,-0.0037860626,-0.0012774384,0.0,0.0,0.0,0.0
12557422,0.004122576,-0.0026971144,-0.00015884385,0.0,0.0,0.0,0.0
12589424,0.0059800055,-0.0013870135,0.0024040323,0.0,0.0,0.0,0.0
12621419,0.005185591,-0.0031191173,0.0043061855,0.0,0.0,0.0,0.0
12653419,0.0055350196,-0.0031902199,0.0041400692,0.0,0.0,0.0,0.0
12685424,0.0042929677,-0.0025360773,0.004763548,0.0,0.0,0.0,0.0
12713452,0.0037533054,-0.0031524329,-0.0007931204,0.0,0.0,0.0,0.0
12745417,0.0038704057,-0.0032842811,0.001230611,0.0,0.0,0.0,0.0
12777410,0.004354594,-0.0030377314,0.0026566773,0.0,0.0,0.0,0.0
12809423,0.00402846,-0.0028733085,0.005292388,0.0,0.0,0.0,0.0
12842240,0.0044145784,-0.0026077586,0.00363948,0.0,0.0,0.0,0.0
12874221,0.0042612706,-0.0018153895,0.0025309988,0.0,0.0,0.0,0.0
12902223,0.004667227,-0.0024976525,0.0028359564,0.0,0.0,0.0,0.0
12934231,0.004002808,-0.0039603077,0.0051954137,0.0,0.0,0.0,0.0
12966231,0.004532407,-0.003618226,0.0044993153,0.0,0.0,0.0,0.0
12998206,0.0045379354,-0.00039393277,0.004255923,0.0,0.0,0.0,0.0
13030225,0.0032801223,-0.0022083123,0.0031388912,0.0,0.0,0.0,0.0
13062223,0.0035768186,-0.003305952,0.0014383652,0.0,0.0,0.0,0.0
13094231,0.004553088,-0.0028008984,0.0011597781,0.0,0.0,0.0,0.0
13126227,0.003627648,-0.0037099035,-0.0014365186,0.0,0.0,0.0,0.0
13154252,0.005705295,-0.002177853,0.004450134,0.0,0.0,0.0,0.0
13186230,0.0052495487,-0.0006217573,0.0037213932,0.0,0.0,0.0,0.0
13218224,0.0038689035,-0.0013601516,0.0047119893,0.0,0.0,0.0,0.0
13250215,0.0032198043,-0.0027607593,0.0017867874,0.0,0.0,0.0,0.0
13282207,0.0049924236,-0.0031480978,-0.0006794156,0.0,0.0,0.0,0.0
13314247,0.004360263,-0.004061414,-0.003115271,0.0,0.0,0.0,0.0
13346229,0.0042038495,-0.0037753512,-0.00240641,0.0,0.0,0.0,0.0
13378219,0.005094371,-0.00280629,-0.004142739,0.0,0.0,0.0,0.0
13406228,0.0045817248,-0.0033368366,0.0020532338,0.0,0.0,0.0,0.0
13438221,0.004422316,-0.0038538359,0.00021792043,0.0,0.0,0.0,0.0
13470224,0.0040377304,-0.0028877398,-0.0012133562,0.0,0.0,0.0,0.0
13502222,0.0043957573,-0.0041888626,-0.0025391057,0.0,0.0,0.0,0.0
13534207,0.0045360154,-0.0034534633,-0.004628121,0.0,0.0,0.0,0.0
13566228,0.004480692,-0.002674932,-0.0027237325,0.0,0.0,0.0,0.0
13598223,0.0041708453,-0.0041368473,-0.003134371,0.0,0.0,0.0,0.0
13630223,0.0058418084,-0.0027298336,-0.0018433743,0.0,0.0,0.0,0.0
13658232,0.004646207,-0.0024813688,-0.0025546607,0.0,0.0,0.0,0.0
13690226,0.004789728,-0.003973912,-0.0028154715,0.0,0.0,0.0,0.0
13722230,0.0043926477,-0.0023098805,-0.0037042494,0.0,0.0,0.0,0.0
13754227,0.0045369947,-0.0034393861,-0.0028860304,0.0,0.0,0.0,0.0
13786207,0.0047892984,-0.0019961083,-0.0038385314,0.0,0.0,0.0,0.0
13818216,0.006244995,-0.0031373103,-0.0016140759,0.0,0.0,0.0,0.0
13850222,0.0047159577,-0.0035531693,0.0007247884,0.0,0.0,0.0,0.0
13882231,0.004280786,-0.0021412526,0.0029829224,0.0,0.0,0.0,0.0
13910224,0.0049905903,-0.004068349,-0.0037052045,0.0,0.0,0.0,0.0
13943054,0.005966703,-0.004052327,-0.0009048886,0.0,0.0,0.0,0.0
13975041,0.0055615897,-0.0030308699,0.002353064,0.0,0.0,0.0,0.0
14007040,0.006248577,-0.0020442342,0.0025977541,0.0,0.0,0.0,0.0
14039048,0.003237665,-0.0025224325,0.003549729,0.0,0.0,0.0,0.0
14071057,0.0056426395,-0.0025493174,0.004351091,0.0,0.0,0.0,0.0
14099061,0.005247353,-0.0019534833,-0.0009889955,0.0,0.0,0.0,0.0
14131053,0.005129516,-0.0045232805,0.00077950355,0.0,0.0,0.0,0.0
14163070,0.0056128292,-0.0029317513,0.003087496,0.0,0.0,0.0,0.0
14195042,0.0038238016,-0.0015559334,0.0034543062,0.0,0.0,0.0,0.0
14227060,0.0038424244,-0.0023185355,0.0046449667,0.0,0.0,0.0,0.0
14259059,0.0035861242,-0.0020306422,0.004189091,0.0,0.0,0.0,0.0
14291040,0.00483002,-0.0027105107,0.004324559,0.0,0.0,0.0,0.0
14323012,0.005019005,-0.0028779316,0.0027686318,0.0,0.0,0.0,0.0
14351069,0.0061806454,-0.002889731,0.0014267308,0.0,0.0,0.0,0.0
14383056,0.005644644,-0.0027865127,0.0043620025,0.0,0.0,0.0,0.0
14415048,0.003753824,-0.002343371,0.0047300262,0.0,0.0,0.0,0.0
14447056,0.0040067453,-0.0028588474,0.004153422,0.0,0.0,0.0,0.0
14479060,0.004207075,-0.0027450335,0.0023731757,0.0,0.0,0.0,0.0
14511086,0.0048063765,-0.0028454051,-0.00015155094,0.0,0.0,0.0,0.0
14543059,0.0041220495,-0.0032488052,-0.00038645996,0.0,0.0,0.0,0.0
14575051,0.0026314298,-0.0027318252,-0.0031446503,0.0,0.0,0.0,0.0
14603062,0.003893447,-0.0032281484,0.00401986,0.0,0.0,0.0,0.0
14635058,0.005546653,-0.00345005,0.0027487609,0.0,0.0,0.0,0.0
14667065,0.003607154,-0.002831734,0.0010575607,0.0,0.0,0.0,0.0
14699061,0.0050314385,-0.0031494987,-0.00068522204,0.0,0.0,0.0,0.0
14731064,0.0042267917,-0.0033099058,-0.002676736,0.0,0.0,0.0,0.0
14763070,0.004343936,-0.0034322417,-0.0026076755,0.0,0.0,0.0,0.0
14795052,0.0038652262,-0.0031950339,-0.0042084213,0.0,0.0,0.0,0.0
14827061,0.0058698226,-0.0024439432,-0.00400637,0.0,0.0,0.0,0.0
14855050,0.0045638103,-0.0028925347,-0.00088978495,0.0,0.0,0.0,0.0
14887060,0.0030952415,-0.003254939,-0.0010525408,0.0,0.0,0.0,0.0
14919063,0.0039306437,-0.00298699,-0.0035334113,0.0,0.0,0.0,0.0
14951061,0.0048574368,-0.0031741802,-0.0037550323,0.0,0.0,0.0,0.0
14983064,0.004271906,-0.0028670062,-0.005004513,0.0,0.0,0.0,0.0
15015058,0.005527746,-0.0030322296,-0.0026325523,0.0,0.0,0.0,0.0
15047810,0.004804177,-0.0042224154,0.002240192,0.0,0.0,0.0,0.0
15075828,0.004978656,-0.004226926,-0.0030752572,0.0,0.0,0.0,0.0
15107832,0.0038843018,-0.0036229752,-0.0040278574,0.0,0.0,0.0,0.0
15139829,0.005031662,-0.0031364535,-0.0028276306,0.0,0.0,0.0,0.0
15171832,0.005578129,-0.0034488742,-0.0013884014,0.0,0.0,0.0,0.0
15203838,0.0049655787,-0.0028990812,0.0009681047,0.0,0.0,0.0,0.0
15235822,0.0053057815,-0.002832887,0.0040351,0.0,0.0,0.0,0.0
15267822,0.0041113603,-0.0029741686,0.0054685683,0.0,0.0,0.0,0.0
15299827,0.004156584,-0.0014208653,0.0043821423,0.0,0.0,0.0,0.0
15327827,0.0060682003,-0.0028448552,-0.0015222827,0.0,0.0,0.0,0.0
15359838,0.0040006232,-0.0029648084,-0.00011592905,0.0,0.0,0.0,0.0
15391832,0.0050359266,-0.0029362564,0.001975539,0.0,0.0,0.0,0.0
15423838,0.0038846957,-0.0024436167,0.003690501,0.0,0.0,0.0,0.0
15455824,0.0040574907,-0.0023363524,0.004977474,0.0,0.0,0.0,0.0
15487822,0.0048690103,-0.002922704,0.004032737,0.0,0.0,0.0,0.0
15519842,0.0026435591,-0.0018419828,0.004274133,0.0,0.0,0.0,0.0
15551829,0.003968201,-0.0026600084,0.0025499505,0.0,0.0,0.0,0.0
15579812,0.0043184115,-0.0025259485,0.0046470915,0.0,0.0,0.0,0.0
15611830,0.0048611346,-0.0030141117,0.0056376955,0.0,0.0,0.0,0.0
15643825,0.0040605087,-0.0022504653,0.0051341592,0.0,0.0,0.0,0.0
15675825,0.005175116,-0.0023880508,0.002557995,0.0,0.0,0.0,0.0
15707819,0.004359964,-0.0021839063,0.0022531725,0.0,0.0,0.0,0.0
15739828,0.0047364924,-0.0033327888,-0.0009431085,0.0,0.0,0.0,0.0
15771851,0.0036219943,-0.003581125,-0.00045621497,0.0,0.0,0.0,0.0
15803826,0.004746966,-0.0032684344,-0.003669175,0.0,0.0,0.0,0.0
15831836,0.0036273426,-0.0024675122,0.0034913577,0.0,0.0,0.0,0.0
15863810,0.00422312,-0.0022445596,0.003319286,0.0,0.0,0.0,0.0
15895835,0.0050242087,-0.002346809,0.0012950551,0.0,0.0,0.0,0.0
15928624,0.003050279,-0.0039369185,-0.0015169218,0.0,0.0,0.0,0.0
15960619,0.0035078442,-0.003993608,-0.0037641535,0.0,0.0,0.0,0.0
15992648,0.004763593,-0.0013673599,-0.004740407,0.0,0.0,0.0,0.0
16020624,0.003943447,-0.0032058246,0.0016443579,0.0,0.0,0.0,0.0
16052635,0.0046436405,-0.004086183,-0.0013373644,0.0,0.0,0.0,0.0
16084602,0.0040548877,-0.0033044731,-0.002720957,0.0,0.0,0.0,0.0
16116624,0.0043618996,-0.003704805,-0.003450735,0.0,0.0,0.0,0.0
16148629,0.005316976,-0.0033934987,-0.003665513,0.0,0.0,0.0,0.0
16180622,0.005094036,-0.0026133289,-0.0015790933,0.0,0.0,0.0,0.0
16212615,0.004656777,-0.0025269622,-0.0019038952,0.0,0.0,0.0,0.0
16244621,0.0047070542,-0.0033923297,0.00022638858,0.0,0.0,0.0,0.0
16272623,0.004740303,-0.0023138272,-0.003497831,0.0,0.0,0.0,0.0
16304624,0.0033538977,-0.0016555805,-0.0038880734,0.0,0.0,0.0,0.0
16336608,0.0043676305,-0.0031591512,-0.0029759083,0.0,0.0,0.0,0.0
16368612,0.0056427233,-0.0021489218,-0.0028448491,0.0,0.0,0.0,0.0
16400629,0.0055861813,-0.0029923532,0.00052744313,0.0,0.0,0.0,0.0
16432641,0.005006706,-0.0031494168,0.0011431016,0.0,0.0,0.0,0.0
16464613,0.005258043,-0.002454892,0.0032489481,0.0,0.0,0.0,0.0
16496616,0.0033688135,-0.0024947037,0.003701341,0.0,0.0,0.0,0.0
16524621,0.005392918,-0.0024938586,-0.0025519012,0.0,0.0,0.0,0.0
16556628,0.00393986,-0.004013526,-0.002451042,0.0,0.0,0.0,0.0
16588624,0.0039551035,-0.0024499788,2.6607278e-05,0.0,0.0,0.0,0.0
16620602,0.0038794156,-0.00259215,0.0010001218,0.0,0.0,0.0,0.0
16652653,0.005589929,-0.003130143,0.003551633,0.0,0.0,0.0,0.0
16684626,0.0056060147,-0.001312992,0.0054162564,0.0,0.0,0.0,0.0
16716642,0.005025529,-0.0032056214,0.0037990832,0.0,0.0,0.0,0.0
16748619,0.0048468844,-0.0033161067,0.0032831589,0.0,0.0,0.0,0.0
16776618,0.0047362573,-0.0025860195,0.0004513964,0.0,0.0,0.0,0.0
16808623,0.005981315,-0.0011793902,0.0041314275,0.0,0.0,0.0,0.0
16840618,0.0048297527,-0.0024066106,0.0028202434,0.0,0.0,0.0,0.0
16872602,0.0042290124,-0.0012168601,0.0043536574,0.0,0.0,0.0,0.0
16904604,0.003978549,-0.0016905708,0.0043909973,0.0,0.0,0.0,0.0
16936623,0.0034400853,-0.003063239,0.0026246265,0.0,0.0,0.0,0.0
16968627,0.0042182175,-0.0025684233,0.002020812,0.0,0.0,0.0,0.0
17000622,0.0041209003,-0.002894805,-0.0006257372,0.0,0.0,0.0,0.0
17028617,0.0050368994,-0.0026583823,0.0036597578,0.0,0.0,0.0,0.0
17060629,0.0029537084,-0.0035047187,0.005146504,0.0,0.0,0.0,0.0
17092641,0.0030287355,-0.0035756717,0.0046911314,0.0,0.0,0.0,0.0
17124615,0.0054918537,-0.0018562803,0.00081350957,0.0,0.0,0.0,0.0
17156611,0.003828486,-0.002395091,0.0009442176,0.0,0.0,0.0,0.0
17188601,0.0041000918,-0.0035649266,-0.0010881186,0.0,0.0,0.0,0.0
17220618,0.0032064295,-0.0027151795,-0.0012285167,0.0,0.0,0.0,0.0
17249428,0.003908896,-0.002775051,0.0023035002,0.0,0.0,0.0,0.0
17281422,0.0037477047,-0.0032469006,-6.2162195e-05,0.0,0.0,0.0,0.0
17313451,0.0040036836,-0.0032699069,-0.0014047377,0.0,0.0,0.0,0.0
17345424,0.0042994455,-0.003396376,-0.002142865,0.0,0.0,0.0,0.0
17377409,0.0038878785,-0.002887182,-0.004121115,0.0,0.0,0.0,0.0
17409406,0.004128626,-0.0035551798,-0.0024858334,0.0,0.0,0.0,0.0
17441415,0.004982205,-0.0028756661,-0.003400598,0.0,0.0,0.0,0.0
17473432,0.004792851,-0.0044116247,-0.0022654443,0.0,0.0,0.0,0.0
17501428,0.003860939,-0.0028813453,-0.0022247406,0.0,0.0,0.0,0.0
17533421,0.0044222283,-0.0029442664,-0.0033292642,0.0,0.0,0.0,0.0
17565425,0.0034845378,-0.0019145356,-0.003773789,0.0,0.0,0.0,0.0
17597423,0.0052701626,-0.0017439595,-0.002796624,0.0,0.0,0.0,0.0
17629416,0.005464086,-0.00151285,-0.0023902124,0.0,0.0,0.0,0.0
17661406,0.004798433,-0.0027877872,-0.00063527445,0.0,0.0,0.0,0.0
17693404,0.005684458,-0.0036223421,0.0019878063,0.0,0.0,0.0,0.0
17725427,0.0036488096,-0.004083719,0.002025661,0.0,0.0,0.0,0.0
17753449,0.0019760155,-0.003903758,-0.0030042941,0.0,0.0,0.0,0.0
17785419,0.0043578204,-0.003949082,-0.0019371628,0.0,0.0,0.0,0.0
17817418,0.004664121,-0.002688449,0.00027725298,0.0,0.0,0.0,0.0
17849420,0.0035550229,-0.0037773345,0.00092804106,0.0,0.0,0.0,0.0
17881375,0.004673375,-0.0032426,0.0024908814,0.0,0.0,0.0,0.0
17913444,0.0044063255,-0.0028507332,0.0039556324,0.0,0.0,0.0,0.0
17945402,0.0047286316,-0.0021890218,0.005816093,0.0,0.0,0.0,0.0
17977429,0.004581462,-0.0027195362,0.004918079,0.0,0.0,0.0,0.0
18005428,0.0042756055,-0.0024596914,0.001664887,0.0,0.0,0.0,0.0
18037418,0.005646344,-0.003109653,0.004455007,0.0,0.0,0.0,0.0
18069423,0.005721213,-0.0014646655,0.003664884,0.0,0.0,0.0,0.0
18101415,0.004484564,-0.0014108977,0.005785859,0.0,0.0,0.0,0.0
18133422,0.0038256976,-0.0027484933,0.0036373509,0.0,0.0,0.0,0.0
18165428,0.0031730135,-0.0023942718,0.0027710667,0.0,0.0,0.0,0.0
18197418,0.003256085,-0.0031442393,0.0008118953,0.0,0.0,0.0,0.0
18229411,0.0033668638,-0.0037217163,-0.00018102738,0.0,0.0,0.0,0.0
18257430,0.0027772232,-0.0034953905,0.0049919463,0.0,0.0,0.0,0.0
18289419,0.0046098833,-0.001288644,0.0033955798,0.0,0.0,0.0,0.0
18321424,0.003011947,-0.0030140693,0.003492986,0.0,0.0,0.0,0.0
18353449,0.0035205272,-0.003042272,0.0010076042,0.0,0.0,0.0,0.0
18385420,0.0042036707,-0.0040364605,-0.000114150535,0.0,0.0,0.0,0.0
18418219,0.0032330207,-0.0033872337,-0.002550278,0.0,0.0,0.0,0.0
18446230,0.004025054,-0.0034219378,0.002356946,0.0,0.0,0.0,0.0
18478230,0.003226173,-0.0031362295,0.0016290098,0.0,0.0,0.0,0.0
18510224,0.0036736801,-0.0037739112,-0.00057745597,0.0,0.0,0.0,0.0
18542225,0.004693719,-0.0037242107,-0.0023105624,0.0,0.0,0.0,0.0
18574250,0.005068804,-0.0025587643,-0.0037131186,0.0,0.0,0.0,0.0
18606222,0.0041511683,-0.0030761384,-0.0037547995,0.0,0.0,0.0,0.0
18638224,0.0054079616,-0.0030244093,-0.0025001096,0.0,0.0,0.0,0.0
18670226,0.006244354,-0.0028756089,-0.0025292393,0.0,0.0,0.0,0.0
18698215,0.0033469861,-0.002973599,-0.0025537845,0.0,0.0,0.0,0.0
18730223,0.003674389,-0.003536388,-0.0027951722,0.0,0.0,0.0,0.0
18762233,0.0056693456,-0.0038595393,-0.005101596,0.0,0.0,0.0,0.0
18794223,0.0053949514,-0.004214043,-0.0041150725,0.0,0.0,0.0,0.0
18826228,0.0030182588,-0.00331984,-0.0011244842,0.0,0.0,0.0,0.0
18858221,0.0054854644,-0.0022595876,8.134348e-05,0.0,0.0,0.0,0.0
18890220,0.0038630115,-0.0026003632,0.0017637867,0.0,0.0,0.0,0.0
18922233,0.004672436,-0.0030612212,0.0023532098,0.0,0.0,0.0,0.0
18950213,0.0038090062,-0.0030692436,-0.0027034741,0.0,0.0,0.0,0.0
18982206,0.004817913,-0.0024109608,-0.0020112311,0.0,0.0,0.0,0.0
19014229,0.004482027,-0.003544907,-0.0012611742,0.0,0.0,0.0,0.0
19046221,0.0048619793,-0.0022795866,0.0013761778,0.0,0.0,0.0,0.0
19078225,0.0052127587,-0.0037012608,0.003264087,0.0,0.0,0.0,0.0
19110250,0.004458027,-0.0032437823,0.005925814,0.0,0.0,0.0,0.0
19142222,0.0052198935,-0.0017728336,0.005182655,0.0,0.0,0.0,0.0
19174224,0.0036158082,-0.0033211522,0.004712848,0.0,0.0,0.0,0.0
19202224,0.0055157123,-0.0024304304,0.001609798,0.0,0.0,0.0,0.0
19234209,0.004829266,-0.003332633,0.003150857,0.0,0.0,0.0,0.0
19266207,0.0040610707,-0.0028382433,0.0051397923,0.0,0.0,0.0,0.0
19298226,0.004546741,-0.0018217176,0.0046886015,0.0,0.0,0.0,0.0
19330227,0.004626594,-0.00213494,0.00416389,0.0,0.0,0.0,0.0
19362224,0.0041082394,-0.0043701525,0.0028469756,0.0,0.0,0.0,0.0
19394245,0.003541544,-0.0028123637,0.0021888865,0.0,0.0,0.0,0.0
19426225,0.003925237,-0.0026978534,-0.00112485,0.0,0.0,0.0,0.0
19454224,0.0041567367,-0.0028729057,0.0043862616,0.0,0.0,0.0,0.0
19486226,0.004523216,-0.0029399837,0.003968971,0.0,0.0,0.0,0.0
19518212,0.0043748994,-0.002403962,0.0032291533,0.0,0.0,0.0,0.0
19551087,0.003274748,-0.0033539631,5.1503765e-05,0.0,0.0,0.0,0.0
19583063,0.004357162,-0.003328802,-0.002340291,0.0,0.0,0.0,0.0
19615068,0.0037424879,-0.003964702,-0.0031025666,0.0,0.0,0.0,0.0
19643067,0.0043515274,-0.0018616727,0.0023000939,0.0,0.0,0.0,0.0
19675052,0.0036191312,-0.0033905117,0.0014245762,0.0,0.0,0.0,0.0
19707066,0.0039515076,-0.0022949667,-0.0013485504,0.0,0.0,0.0,0.0
19739004,0.0052586445,-0.0035650583,-0.0009553049,0.0,0.0,0.0,0.0
19771066,0.004789224,-0.0031911721,-0.0032295994,0.0,0.0,0.0,0.0
19803066,0.003963115,-0.0036332437,-0.0033880922,0.0,0.0,0.0,0.0
19835045,0.00385184,-0.0038528102,-0.0030602177,0.0,0.0,0.0,0.0
19867058,0.0050582825,-0.0038730924,-0.0018902827,0.0,0.0,0.0,0.0
19895071,0.004966269,-0.0031837192,-0.0022484106,0.0,0.0,0.0,0.0
19927058,0.00401133,-0.0040763337,-0.0040655932,0.0,0.0,0.0,0.0
19959060,0.0043706317,-0.0033581487,-0.004379163,0.0,0.0,0.0,0.0
19991069,0.004879906,-0.0031579207,-0.0031804584,0.0,0.0,0.0,0.0
20023046,0.006116524,-0.004113949,-0.001567881,0.0,0.0,0.0,0.0
20055070,0.0038028986,-0.0020729804,-0.0009620621,0.0,0.0,0.0,0.0
20087070,0.0059008123,-0.0018779947,0.0020420551,0.0,0.0,0.0,0.0
20119055,0.005182647,-0.0024861959,0.0045580757,0.0,0.0,0.0,0.0
20147066,0.0053018336,-0.0031438388,-0.004277022,0.0,0.0,0.0,0.0
20179053,0.0061186682,-0.0031068786,-0.002069849,0.0,0.0,0.0,0.0
20211071,0.0050966283,-0.003891594,0.00053383934,0.0,0.0,0.0,0.0
20243067,0.004919557,-0.004419684,0.001168194,0.0,0.0,0.0,0.0
20275028,0.005044994,-0.0037921509,0.0035731634,0.0,0.0,0.0,0.0
20307044,0.004320215,-0.0022541205,0.0043492694,0.0,0.0,0.0,0.0
20339070,0.003944292,-0.002582718,0.0041433186,0.0,0.0,0.0,0.0
20371065,0.005071959,-0.0028433828,0.0045085456,0.0,0.0,0.0,0.0
20399060,0.004806432,-0.002685764,0.00033633912,0.0,0.0,0.0,0.0
20431057,0.004110389,-0.0032911072,0.0027593353,0.0,0.0,0.0,0.0
20463061,0.0040074326,-0.0019232008,0.0042229607,0.0,0.0,0.0,0.0
20495041,0.004490105,-0.0024046572,0.0044219275,0.0,0.0,0.0,0.0
20527066,0.0051390314,-0.0016692904,0.003365938,0.0,0.0,0.0,0.0
20559047,0.005069904,-0.002694277,0.0027852582,0.0,0.0,0.0,0.0
20591049,0.005288545,-0.0034537893,0.0007853398,0.0,0.0,0.0,0.0
20623084,0.004925373,-0.003056571,-0.0015960289,0.0,0.0,0.0,0.0
20651067,0.005252542,-0.002026088,0.004440911,0.0,0.0,0.0,0.0
20683825,0.0035374647,-0.003356324,0.0034839942,0.0,0.0,0.0,0.0
20715851,0.004424597,-0.0031007333,0.0010759945,0.0,0.0,0.0,0.0
20747826,0.0041839574,-0.0031360167,-0.0019280107,0.0,0.0,0.0,0.0
20779809,0.003591709,-0.0038224682,-0.0022157219,0.0,0.0,0.0,0.0
20811810,0.004929681,-0.0038069729,-0.0021234206,0.0,0.0,0.0,0.0
20843827,0.0043571247,-0.0034573197,-0.0041301865,0.0,0.0,0.0,0.0
20871823,0.0043770317,-0.0017259285,0.00026751583,0.0,0.0,0.0,0.0
20903823,0.0033749938,-0.0025409139,-0.0013186185,0.0,0.0,0.0,0.0
20935840,0.0045595192,-0.0026862442,-0.0029894977,0.0,0.0,0.0,0.0
20967825,0.004563379,-0.0044455626,-0.0042321836,0.0,0.0,0.0,0.0
20999821,0.004971206,-0.0025516658,-0.003232517,0.0,0.0,0.0,0.0
21031819,0.0038712942,-0.003689432,-0.0015256769,0.0,0.0,0.0,0.0
21063801,0.0042529386,-0.0036718398,-0.0018180708,0.0,0.0,0.0,0.0
21095829,0.004547961,-0.002915384,0.0010271838,0.0,0.0,0.0,0.0
21123861,0.0047563887,-0.0037935686,-0.0020730186,0.0,0.0,0.0,0.0
21155832,0.0049818265,-0.004220634,-0.0038212806,0.0,0.0,0.0,0.0
21187821,0.004326284,-0.0036578535,-0.003116832,0.0,0.0,0.0,0.0
21219828,0.003690079,-0.003994228,-0.0017304752,0.0,0.0,0.0,0.0
21251821,0.004814573,-0.0014878154,0.0011679648,0.0,0.0,0.0,0.0
21283829,0.0047477693,-0.0021535717,0.002581641,0.0,0.0,0.0,0.0
21315828,0.0044168965,-0.0039784703,0.0029361385,0.0,0.0,0.0,0.0
21347812,0.0039482187,-0.0027414782,0.004544373,0.0,0.0,0.0,0.0
21375832,0.004318995,-0.0032671385,-0.0003339006,0.0,0.0,0.0,0.0
21407824,0.0045130407,-0.0026414373,0.000489777,0.0,0.0,0.0,0.0
21439825,0.0060650217,-0.0023921432,0.002396354,0.0,0.0,0.0,0.0
21471822,0.004785543,-0.003211472,0.0032545768,0.0,0.0,0.0,0.0
21503826,0.0048315763,-0.0009737328,0.0049427673,0.0,0.0,0.0,0.0
21536601,0.0040981956,-0.0020542631,0.0012841241,0.0,0.0,0.0,0.0
21564621,0.0060031884,-0.003067177,0.0036251422,0.0,0.0,0.0,0.0
21596622,0.0047687315,-0.0027381605,0.004964192,0.0,0.0,0.0,0.0
21628627,0.004167817,-0.0021603869,0.0038810729,0.0,0.0,0.0,0.0
21660617,0.0036908078,-0.002874201,0.0050564082,0.0,0.0,0.0,0.0
21692619,0.003945393,-0.0029137232,0.004516664,0.0,0.0,0.0,0.0
21724619,0.0050623356,-0.002790905,0.0018919375,0.0,0.0,0.0,0.0
21756618,0.0044107544,-0.0025658254,4.731896e-05,0.0,0.0,0.0,0.0
21788630,0.004112321,-0.003682867,-0.0011424093,0.0,0.0,0.0,0.0
21816600,0.0042124013,-0.0022673286,0.0045202062,0.0,0.0,0.0,0.0
21848627,0.0035730386,-0.003098733,0.003298637,0.0,0.0,0.0,0.0
21880621,0.0041722725,-0.0027349459,0.0019107481,0.0,0.0,0.0,0.0
21912640,0.003699854,-0.0041988073,0.000882158,0.0,0.0,0.0,0.0
21944633,0.004938688,-0.0038579693,-0.0026514758,0.0,0.0,0.0,0.0
21976618,0.004349113,-0.0042854026,-0.0026007162,0.0,0.0,0.0,0.0
22008617,0.0047414163,-0.003918755,-0.003515962,0.0,0.0,0.0,0.0
22040630,0.0048507126,-0.0032294868,-0.0038258445,0.0,0.0,0.0,0.0
22068602,0.004261014,-0.0032376098,0.0017277474,0.0,0.0,0.0,0.0
22100606,0.004348176,-0.0028077394,-0.00031161399,0.0,0.0,0.0,0.0
22132619,0.0047135265,-0.0027598431,-0.0035933065,0.0,0.0,0.0,0.0
22164629,0.0043674256,-0.004124083,-0.0022993141,0.0,0.0,0.0,0.0
22196618,0.0052190605,-0.0031673636,-0.0037855066,0.0,0.0,0.0,0.0
22228620,0.005426585,-0.0036171835,-0.0023472526,0.0,0.0,0.0,0.0
22260620,0.004556,-0.002532042,-0.0013871789,0.0,0.0,0.0,0.0
22292647,0.0047864886,-0.00267762,0.0001612355,0.0,0.0,0.0,0.0
22320619,0.004777576,-0.0039220275,-0.0031169732,0.0,0.0,0.0,0.0
22352632,0.0040520453,-0.0038102951,-0.003816923,0.0,0.0,0.0,0.0
22384608,0.0053727473,-0.0023840645,-0.0033013225,0.0,0.0,0.0,0.0
22416624,0.00452863,-0.002967785,-0.0009572545,0.0,0.0,0.0,0.0
22448620,0.005309438,-0.0022213098,1.6111042e-05,0.0,0.0,0.0,0.0
22480622,0.004188869,-0.0029174837,0.0022960035,0.0,0.0,0.0,0.0
22512637,0.0038125068,-0.0032259515,0.0043776073,0.0,0.0,0.0,0.0
22544618,0.0045690536,-0.0027692139,0.004256194,0.0,0.0,0.0,0.0
22572624,0.0033438413,-0.0033015064,-0.0023232554,0.0,0.0,0.0,0.0
22604624,0.0053692576,-0.0033985632,0.000582326,0.0,0.0,0.0,0.0
22636605,0.0053402446,-0.001709496,0.0020040998,0.0,0.0,0.0,0.0
22668613,0.004618378,-0.002871449,0.004073065,0.0,0.0,0.0,0.0
22700626,0.005682895,-0.0019519478,0.0032808266,0.0,0.0,0.0,0.0
22732618,0.0054502347,-0.0018261614,0.0041908803,0.0,0.0,0.0,0.0
22764619,0.0034065347,-0.0026574803,0.004897526,0.0,0.0,0.0,0.0
22796622,0.0038833222,-0.0026285362,0.003271215,0.0,0.0,0.0,0.0
22824617,0.0036867086,-0.003262203,0.003527253,0.0,0.0,0.0,0.0
22856621,0.0056445133,-0.002882008,0.0035353308,0.0,0.0,0.0,0.0
22888622,0.0056741745,-0.0030482425,0.0044274083,0.0,0.0,0.0,0.0
22921445,0.004205377,-0.0030420402,0.0014948904,0.0,0.0,0.0,0.0
22953429,0.0027562862,-0.004022506,0.0014149424,0.0,0.0,0.0,0.0
22985420,0.004125317,-0.0035037624,-0.001327094,0.0,0.0,0.0,0.0
23017429,0.0035170033,-0.0027255197,-0.0020577793,0.0,0.0,0.0,0.0
23045428,0.0056382203,-0.0013826616,0.005630718,0.0,0.0,0.0,0.0
23077423,0.004239289,-0.0029440897,0.002705152,0.0,0.0,0.0,0.0
23109417,0.004294323,-0.003513087,0.0015629389,0.0,0.0,0.0,0.0
23141409,0.0041967854,-0.003256113,0.0001562924,0.0,0.0,0.0,0.0
23173434,0.0036218236,-0.003001364,-0.0018969234,0.0,0.0,0.0,0.0
23205435,0.004746041,-0.0035097788,-0.003623868,0.0,0.0,0.0,0.0
23237414,0.004810273,-0.0033454709,-0.0030027432,0.0,0.0,0.0,0.0
23269426,0.004983185,-0.004159288,-0.0011683487,0.0,0.0,0.0,0.0
23297420,0.0037189499,-0.004270453,-0.00075298763,0.0,0.0,0.0,0.0
23329423,0.0044891643,-0.003509067,-0.0024111536,0.0,0.0,0.0,0.0
23361434,0.0039743204,-0.003584761,-0.0024168738,0.0,0.0,0.0,0.0
23393441,0.004997977,-0.0028559898,-0.0030651344,0.0,0.0,0.0,0.0
23425409,0.005416688,-0.003702142,-0.0038331312,0.0,0.0,0.0,0.0
23457425,0.00488987,-0.0038660627,-0.0049846037,0.0,0.0,0.0,0.0
23489423,0.005875874,-0.0025012286,-0.0015465034,0.0,0.0,0.0,0.0
23521424,0.0050421734,-0.001681224,0.0005630834,0.0,0.0,0.0,0.0
23549422,0.0057565407,-0.003276898,-0.0038987638,0.0,0.0,0.0,0.0
23581431,0.004920407,-0.003912803,-0.00414989,0.0,0.0,0.0,0.0
23613449,0.004869354,-0.0035273086,-0.0035249868,0.0,0.0,0.0,0.0
23645420,0.0042140004,-0.0027913454,-0.0026751452,0.0,0.0,0.0,0.0
23677385,0.003996609,-0.0023726367,-0.00046389544,0.0,0.0,0.0,0.0
23709406,0.0048337276,-0.0034298887,0.0027527816,0.0,0.0,0.0,0.0
23741427,0.004596299,-0.003695669,0.0038760498,0.0,0.0,0.0,0.0
23773453,0.0046945326,-0.0018925712,0.003983418,0.0,0.0,0.0,0.0
23801431,0.0062982533,-0.0034697342,-0.0038160207,0.0,0.0,0.0,0.0
23833444,0.0037525445,-0.0029446231,-0.0009622325,0.0,0.0,0.0,0.0
23865420,0.005351847,-0.003293399,0.0016961043,0.0,0.0,0.0,0.0
23897420,0.0051710987,-0.0016325631,0.0022838486,0.0,0.0,0.0,0.0
23929424,0.0043497533,-0.0030613136,0.004244233,0.0,0.0,0.0,0.0
23961402,0.005170149,-0.0030451112,0.005279869,0.0,0.0,0.0,0.0
23993402,0.004757673,-0.0041819457,0.003934921,0.0,0.0,0.0,0.0
24025448,0.0040073395,-0.0023490505,0.0031055554,0.0,0.0,0.0,0.0
24054226,0.0041097007,-0.003176707,0.004804278,0.0,0.0,0.0,0.0
24086222,0.004181781,-0.003052422,0.0040834453,0.0,0.0,0.0,0.0
24118231,0.003458473,-0.0041567613,0.004837541,0.0,0.0,0.0,0.0
24150223,0.0038906443,-0.0024453988,0.003474923,0.0,0.0,0.0,0.0
24182208,0.004407902,-0.0022040335,0.0022707998,0.0,0.0,0.0,0.0
24214229,0.0040693465,-0.0030027633,0.0006135655,0.0,0.0,0.0,0.0
24242229,0.0045417,-0.002514772,0.003988496,0.0,0.0,0.0,0.0
24274226,0.0037726723,-0.0028721935,0.0041840593,0.0,0.0,0.0,0.0
24306228,0.0048023164,-0.003268672,0.0036733611,0.0,0.0,0.0,0.0
24338231,0.003514158,-0.001764484,0.0012246687,0.0,0.0,0.0,0.0
24370221,0.0045590517,-0.0038261367,0.00048111522,0.0,0.0,0.0,0.0
24402224,0.0018971192,-0.004302886,-0.00087701844,0.0,0.0,0.0,0.0
24434220,0.0041081016,-0.0035509025,-0.0031984658,0.0,0.0,0.0,0.0
24466202,0.00381745,-0.004635051,-0.0036371406,0.0,0.0,0.0,0.0
24494231,0.0040217573,-0.0031569907,0.0021679804,0.0,0.0,0.0,0.0
24526222,0.0036114638,-0.002935015,0.001566088,0.0,0.0,0.0,0.0
24558237,0.0050433157,-0.0037429596,0.00066611846,0.0,0.0,0.0,0.0
24590242,0.0045799366,-0.003265418,-0.0021654766,0.0,0.0,0.0,0.0
24622220,0.004316383,-0.004627851,-0.0042782566,0.0,0.0,0.0,0.0
24654222,0.0038754912,-0.0024082684,-0.0025026898,0.0,0.0,0.0,0.0
24686226,0.004822161,-0.0032382328,-0.0014454073,0.0,0.0,0.0,0.0
24718224,0.0051007015,-0.0034408672,-0.002474849,0.0,0.0,0.0,0.0
24746229,0.0029571706,-0.0018376866,-0.0013070611,0.0,0.0,0.0,0.0
24778233,0.003928999,-0.0035182587,-0.0037195324,0.0,0.0,0.0,0.0
24810240,0.0049309405,-0.003077424,-0.0027075482,0.0,0.0,0.0,0.0
24842224,0.004575247,-0.0032071779,-0.0026759708,0.0,0.0,0.0,0.0
24874241,0.00533365,-0.0024553926,-0.001958037,0.0,0.0,0.0,0.0
24906221,0.004845785,-0.0026090618,0.00014494041,0.0,0.0,0.0,0.0
24938233,0.005265285,-0.0026698075,-8.17115e-05,0.0,0.0,0.0,0.0
24970225,0.0047880355,-0.0021126731,0.0027460272,0.0,0.0,0.0,0.0
24998223,0.0043020756,-0.0024822669,-0.003234915,0.0,0.0,0.0,0.0
25030226,0.004886261,-0.0025260348,-0.0033118038,0.0,0.0,0.0,0.0
25062226,0.0053827437,-0.0024684055,-0.00094431604,0.0,0.0,0.0,0.0
25094245,0.0052538314,-0.0028937217,0.00032313977,0.0,0.0,0.0,0.0
25126217,0.0062003443,-0.0014941785,0.0022072499,0.0,0.0,0.0,0.0
25158228,0.0051949876,-0.0026482488,0.002991198,0.0,0.0,0.0,0.0
25187071,0.0048958263,-0.002785369,-0.0021269284,0.0,0.0,0.0,0.0
25219037,0.0041905637,-0.0037538207,0.000273532,0.0,0.0,0.0,0.0
25251076,0.005707553,-0.0025637315,0.001137883,0.0,0.0,0.0,0.0
25283056,0.0038759033,-0.0027723599,0.0035929943,0.0,0.0,0.0,0.0
25315067,0.0039253295,-0.002421939,0.0040204623,0.0,0.0,0.0,0.0
25346982,0.00340787,-0.0029055565,0.0048273723,0.0,0.0,0.0,0.0
25379060,0.0052623125,-0.0012396445,0.0039522313,0.0,0.0,0.0,0.0
25411085,0.0042959177,-0.0025808036,0.002552738,0.0,0.0,0.0,0.0
25439058,0.0057919202,-0.0027508757,0.0031140912,0.0,0.0,0.0,0.0
25471057,0.005819348,-0.0022693956,0.0048346184,0.0,0.0,0.0,0.0
25503050,0.0035755772,-0.0032371478,0.0039159553,0.0,0.0,0.0,0.0
25535075,0.0040807747,-0.0017181393,0.0029132317,0.0,0.0,0.0,0.0
25567063,0.0047551584,-0.0027586424,0.0016524028,0.0,0.0,0.0,0.0
25599055,0.00362304,-0.003589056,0.0010433968,0.0,0.0,0.0,0.0
25631067,0.00424918,-0.0046357606,-0.00076624716,0.0,0.0,0.0,0.0
25663058,0.004523454,-0.0035851598,-0.002700143,0.0,0.0,0.0,0.0
25691074,0.0057378206,-0.0006249744,0.004840339,0.0,0.0,0.0,0.0
25723053,0.0047672843,-0.002236214,0.0035184189,0.0,0.0,0.0,0.0
25755032,0.0040254053,-0.002900832,0.0020105368,0.0,0.0,0.0,0.0
25787063,0.0036537508,-0.0036608176,0.00057597086,0.0,0.0,0.0,0.0
25819059,0.005321477,-0.0026247767,-0.0023136057,0.0,0.0,0.0,0.0
25851063,0.004169864,-0.0032055557,-0.0015724206,0.0,0.0,0.0,0.0
25883054,0.0046349945,-0.003344855,-0.0040440336,0.0,0.0,0.0,0.0
25915063,0.0052523515,-0.0013264755,-0.0029399714,0.0,0.0,0.0,0.0
25943063,0.004115898,-0.004218548,0.0012647365,0.0,0.0,0.0,0.0
25975060,0.004001629,-0.003129828,-0.0009645114,0.0,0.0,0.0,0.0
26007064,0.0043896423,-0.0038332029,-0.00368144,0.0,0.0,0.0,0.0
26039050,0.0053905407,-0.004901235,-0.0035694048,0.0,0.0,0.0,0.0
26071071,0.005750005,-0.002448018,-0.0029407658,0.0,0.0,0.0,0.0
26103067,0.0050102654,-0.0024850685,-0.0032493374,0.0,0.0,0.0,0.0
26135044,0.004385912,-0.002241597,-0.0013938053,0.0,0.0,0.0,0.0
26167065,0.004610955,-0.0025029823,-0.00015138288,0.0,0.0,0.0,0.0
26195053,0.004878413,-0.0034242442,-0.002033434,0.0,0.0,0.0,0.0
26227042,0.0042717387,-0.0037742883,-0.0022844647,0.0,0.0,0.0,0.0
26259074,0.0036395516,-0.0038942224,-0.0032710482,0.0,0.0,0.0,0.0
26291049,0.003266066,-0.0031810894,-0.00068029895,0.0,0.0,0.0,0.0
26323833,0.0057121124,-0.0019425224,0.0033879958,0.0,0.0,0.0,0.0
26355830,0.005265862,-0.003717208,0.0032919482,0.0,0.0,0.0,0.0
26387825,0.0047881026,-0.0019013818,0.0040222383,0.0,0.0,0.0,0.0
26415830,0.0060997177,-0.002523164,-0.0019715533,0.0,0.0,0.0,0.0
26447824,0.0054186545,-0.0008884878,-0.0010506763,0.0,0.0,0.0,0.0
26479804,0.0039002646,-0.0034552119,0.0021361066,0.0,0.0,0.0,0.0
26511810,0.005018102,-0.002113531,0.0028151073,0.0,0.0,0.0,0.0
26543827,0.003981294,-0.0024078044,0.005534733,0.0,0.0,0.0,0.0
26575827,0.004116101,-0.0025088703,0.00475059,0.0,0.0,0.0,0.0
26607827,0.0038668483,-0.0017151751,0.004448855,0.0,0.0,0.0,0.0
26639827,0.004102747,-0.0015018146,0.0032224972,0.0,0.0,0.0,0.0
26667827,0.00439623,-0.0031360788,0.0015108009,0.0,0.0,0.0,0.0
26699832,0.0051161125,-0.0029974987,0.004165661,0.0,0.0,0.0,0.0
26731865,0.0049575525,-0.0027724472,0.0041305055,0.0,0.0,0.0,0.0
26763813,0.0043642474,-0.0023949132,0.0055711535,0.0,0.0,0.0,0.0
26795828,0.0039377618,-0.002233429,0.004611416,0.0,0.0,0.0,0.0
26827821,0.003650186,-0.0027768153,0.003147051,0.0,0.0,0.0,0.0
26859819,0.004269129,-0.002002186,0.0006120147,0.0,0.0,0.0,0.0
26891827,0.00404437,-0.0034499282,-0.00086983555,0.0,0.0,0.0,0.0
26919826,0.0044560833,-0.0031972323,0.0052387165,0.0,0.0,0.0,0.0
26951831,0.0042055985,-0.0029015513,0.00597621,0.0,0.0,0.0,0.0
26983825,0.003904858,-0.0039937566,0.004013431,0.0,0.0,0.0,0.0
27015810,0.0033435803,-0.0033683598,0.001639994,0.0,0.0,0.0,0.0
27047805,0.003593677,-0.003498427,-7.1930786e-05,0.0,0.0,0.0,0.0
27079823,0.004557073,-0.0031611426,-0.001234254,0.0,0.0,0.0,0.0
27111829,0.003584071,-0.003555956,-0.002762568,0.0,0.0,0.0,0.0
27143836,0.0038134914,-0.0026654687,-0.004785652,0.0,0.0,0.0,0.0
27171834,0.004026976,-0.002875071,0.001956057,0.0,0.0,0.0,0.0
27203831,0.0038356802,-0.0035193807,0.00036994726,0.0,0.0,0.0,0.0
27236600,0.003603765,-0.0035543425,-0.0024018805,0.0,0.0,0.0,0.0
27268602,0.004688323,-0.0033044084,-0.0039670444,0.0,0.0,0.0,0.0
27300619,0.004395017,-0.002758347,-0.0026538235,0.0,0.0,0.0,0.0
27332622,0.004527073,-0.0027200198,-0.002614119,0.0,0.0,0.0,0.0
27360618,0.0045333006,-0.0028133634,-0.0018077745,0.0,0.0,0.0,0.0
27392621,0.0053700465,-0.0036143817,-0.0037891597,0.0,0.0,0.0,0.0
27424621,0.004556759,-0.003910648,-0.0036006384,0.0,0.0,0.0,0.0
27456621,0.005362861,-0.0028800217,-0.0029400676,0.0,0.0,0.0,0.0
27488619,0.0043084635,-0.003277653,-0.0024463106,0.0,0.0,0.0,0.0
27520608,0.005134615,-0.003339486,-0.0019991957,0.0,0.0,0.0,0.0
27552625,0.0044418816,-0.0027106116,0.0008976062,0.0,0.0,0.0,0.0
27584621,0.0046393564,-0.0019319719,0.001975114,0.0,0.0,0.0,0.0
27612622,0.0047906344,-0.0030967826,-0.005052116,0.0,0.0,0.0,0.0
27644622,0.004558363,-0.0033290926,-0.003220021,0.0,0.0,0.0,0.0
27676622,0.0049621663,-0.0015960096,-0.0014107329,0.0,0.0,0.0,0.0
27708618,0.0033013162,-0.0036251356,-0.001904533,0.0,0.0,0.0,0.0
27740617,0.0037994948,-0.0017947104,0.00030443913,0.0,0.0,0.0,0.0
27772621,0.0064106234,-0.0043574986,0.0029322992,0.0,0.0,0.0,0.0
27804600,0.0045724963,-0.0021828802,0.0041485685,0.0,0.0,0.0,0.0
27836624,0.0049421783,-0.002862374,0.0047320877,0.0,0.0,0.0,0.0
27864615,0.005130955,-0.0040521636,-0.0018713294,0.0,0.0,0.0,0.0
27896619,0.006269844,-0.0031306199,-0.0006674321,0.0,0.0,0.0,0.0
27928621,0.0052518565,-0.0031549318,0.0017742006,0.0,0.0,0.0,0.0
27960624,0.0051290737,-0.0042023505,0.002977286,0.0,0.0,0.0,0.0
27992622,0.0038470107,-0.0031586727,0.0035561477,0.0,0.0,0.0,0.0
28024621,0.004784719,-0.002413319,0.00506387,0.0,0.0,0.0,0.0
28056603,0.004284631,-0.0021328842,0.00430782,0.0,0.0,0.0,0.0
28088598,0.004389833,-0.0025109905,0.0023405475,0.0,0.0,0.0,0.0
28116622,0.004678837,-0.0021660826,0.003880847,0.0,0.0,0.0,0.0
28148631,0.0055254013,-0.0021036991,0.0034477545,0.0,0.0,0.0,0.0
28180625,0.004206188,-0.0026962326,0.004060224,0.0,0.0,0.0,0.0
28212648,0.0037751545,-0.002245231,0.0044406173,0.0,0.0,0.0,0.0
28244615,0.0048260083,-0.0022453093,0.0028009648,0.0,0.0,0.0,0.0
28276619,0.0050660064,-0.0032824303,0.0021688566,0.0,0.0,0.0,0.0
28308616,0.0049359286,-0.004566319,-0.00038434943,0.0,0.0,0.0,0.0
28340604,0.003616723,-0.003247422,-0.0019213797,0.0,0.0,0.0,0.0
28368625,0.0058357,-0.0015042829,0.004649831,0.0,0.0,0.0,0.0
28400630,0.003973959,-0.0028251742,0.003026949,0.0,0.0,0.0,0.0
28432623,0.0037404078,-0.0021639268,0.0041873413,0.0,0.0,0.0,0.0
28464621,0.0031518925,-0.0035625717,0.0015003973,0.0,0.0,0.0,0.0
28496614,0.0034765417,-0.0030396914,-0.0011148903,0.0,0.0,0.0,0.0
28528624,0.0046236934,-0.0024338402,-0.0034769075,0.0,0.0,0.0,0.0
28560623,0.004219686,-0.0041342177,-0.0026032573,0.0,0.0,0.0,0.0
28589426,0.0050222212,-0.003275606,0.0008353302,0.0,0.0,0.0,0.0
28621445,0.004052374,-0.0043429853,-0.0003999928,0.0,0.0,0.0,0.0
28653424,0.0035400533,-0.0022855017,-0.0017332943,0.0,0.0,0.0,0.0
28685420,0.0034842684,-0.0022766504,-0.0019596326,0.0,0.0,0.0,0.0
28717421,0.00441152,-0.0035796633,-0.0027938478,0.0,0.0,0.0,0.0
28749422,0.004489718,-0.0041989093,-0.0040308665,0.0,0.0,0.0,0.0
28781422,0.004857756,-0.0035008076,-0.0023301963,0.0,0.0,0.0,0.0
28813430,0.004944211,-0.0037787121,-0.002108593,0.0,0.0,0.0,0.0
28841429,0.0035619668,-0.003979229,-0.0013356284,0.0,0.0,0.0,0.0
28873424,0.0045180903,-0.0045950813,-0.0022748532,0.0,0.0,0.0,0.0
28905423,0.00512098,-0.0032298835,-0.0036349967,0.0,0.0,0.0,0.0
28937430,0.0047996063,-0.0033381584,-0.0033210195,0.0,0.0,0.0,0.0
28969427,0.003905907,-0.0038299,-0.002933546,0.0,0.0,0.0,0.0
29001413,0.0031641074,-0.0024729774,-0.0013112322,0.0,0.0,0.0,0.0
29033448,0.004940761,-0.0021787353,0.00063106377,0.0,0.0,0.0,0.0
29065425,0.0036752955,-0.0029441894,0.0015306595,0.0,0.0,0.0,0.0
29093453,0.004065688,-0.0033458327,-0.0041116127,0.0,0.0,0.0,0.0
29125429,0.0037783806,-0.0020239975,-0.003426908,0.0,0.0,0.0,0.0
29157423,0.005662035,-0.002774397,-0.0014978955,0.0,0.0,0.0,0.0
29189422,0.005102054,-0.0028807663,-0.00061644416,0.0,0.0,0.0,0.0
29221420,0.0050224694,-0.003312217,0.000568389,0.0,0.0,0.0,0.0
29253417,0.0033636563,-0.002020339,0.0023126884,0.0,0.0,0.0,0.0
29285423,0.0039670514,-0.002228421,0.0048843734,0.0,0.0,0.0,0.0
29317422,0.0031219923,-0.0034657102,0.004701889,0.0,0.0,0.0,0.0
29345415,0.0041454914,-0.003350561,-0.00056357135,0.0,0.0,0.0,0.0
29377424,0.0056021656,-0.0041154055,0.0013066413,0.0,0.0,0.0,0.0
29409421,0.0037889087,-0.0027690579,0.0026996622,0.0,0.0,0.0,0.0
29441420,0.004353955,-0.0024219314,0.0037375956,0.0,0.0,0.0,0.0
29473417,0.0034236435,-0.0020369852,0.005546207,0.0,0.0,0.0,0.0
29505423,0.003916366,-0.0028883065,0.0052961693,0.0,0.0,0.0,0.0
29537420,0.00418752,-0.0014087129,0.0037327209,0.0,0.0,0.0,0.0
29569426,0.0048064627,-0.0029401453,0.00302144,0.0,0.0,0.0,0.0
29597413,0.005212436,-0.0023840107,0.003316086,0.0,0.0,0.0,0.0
29629406,0.006236723,-0.0025528264,0.0041720923,0.0,0.0,0.0,0.0
29661422,0.0042809607,-0.0017143086,0.005783638,0.0,0.0,0.0,0.0
29693446,0.0039725536,-0.0033889965,0.006525101,0.0,0.0,0.0,0.0
29726222,0.0049189655,-0.0031196924,0.0021443677,0.0,0.0,0.0,0.0
29758224,0.0041702427,-0.003490413,7.266291e-05,0.0,0.0,0.0,0.0
29786227,0.0054789996,-0.0028156629,0.0044713696,0.0,0.0,0.0,0.0
29818214,0.0037087465,-9.6487965e-05,0.004690786,0.0,0.0,0.0,0.0
29850210,0.0047718156,-0.0024400426,0.004307528,0.0,0.0,0.0,0.0
29882227,0.0035643573,-0.0027266254,0.0042670565,0.0,0.0,0.0,0.0
29914247,0.0045730234,-0.002765655,0.003532944,0.0,0.0,0.0,0.0
29946228,0.005969763,-0.002868523,0.0012034787,0.0,0.0,0.0,0.0
29978222,0.0038326264,-0.0037074503,-0.0015683039,0.0,0.0,0.0,0.0
30010243,0.0041766176,-0.003053098,-0.00237603,0.0,0.0,0.0,0.0
30038225,0.0044064596,-0.0016458066,0.0044852574,0.0,0.0,0.0,0.0
30070222,0.0056092986,-0.0018289412,0.004108405,0.0,0.0,0.0,0.0
30102215,0.0036373406,-0.0022643826,0.00096027914,0.0,0.0,0.0,0.0
30134235,0.0034015393,-0.0020595226,0.0014215885,0.0,0.0,0.0,0.0
30166224,0.0035330015,-0.003430358,-0.000762483,0.0,0.0,0.0,0.0
30198223,0.0043153423,-0.0035111203,-0.0017663381,0.0,0.0,0.0,0.0
30230222,0.003441151,-0.0027643084,-0.0037171186,0.0,0.0,0.0,0.0
30262222,0.0045972094,-0.004596333,-0.0039460314,0.0,0.0,0.0,0.0
30290216,0.004284826,-0.0030708322,0.00241664,0.0,0.0,0.0,0.0
30322223,0.002081491,-0.0033698583,0.0022870232,0.0,0.0,0.0,0.0
30354212,0.004484031,-0.0029387628,-7.432865e-07,0.0,0.0,0.0,0.0
30386217,0.0061192303,-0.004155362,-0.0011741816,0.0,0.0,0.0,0.0
30418226,0.0032626311,-0.0027920788,-0.0033523703,0.0,0.0,0.0,0.0
30450221,0.0048884135,-0.0051026493,-0.0033455133,0.0,0.0,0.0,0.0
30482221,0.004026322,-0.0041981945,-0.0041692113,0.0,0.0,0.0,0.0
30514244,0.005720057,-0.0041413796,-0.004329694,0.0,0.0,0.0,0.0
30542224,0.00489131,-0.0033946706,-0.00096636283,0.0,0.0,0.0,0.0
30574245,0.004025272,-0.0031806808,-0.0024139604,0.0,0.0,0.0,0.0
30606225,0.0049255127,-0.0042994977,-0.0046756496,0.0,0.0,0.0,0.0
30638207,0.0051291664,-0.0039578686,-0.0043934253,0.0,0.0,0.0,0.0
30670214,0.0053916406,-0.0021294644,-0.003689979,0.0,0.0,0.0,0.0
30702232,0.004187291,-0.00398587,-0.0019152917,0.0,0.0,0.0,0.0
30734244,0.0049981093,-0.0035576865,-0.0026898852,0.0,0.0,0.0,0.0
30766221,0.0048685633,-0.0041806856,0.0016995779,0.0,0.0,0.0,0.0
30794230,0.0051906053,-0.0036984163,-0.0029232067,0.0,0.0,0.0,0.0
30826223,0.006141682,-0.0044580605,-0.0053363955,0.0,0.0,0.0,0.0
30858228,0.004932428,-0.0026076932,-0.0036734776,0.0,0.0,0.0,0.0
30891050,0.0038526114,-0.0029919671,-0.00076493213,0.0,0.0,0.0,0.0
30923066,0.004283312,-0.0018323889,0.0015051491,0.0,0.0,0.0,0.0
30955058,0.0055563874,-0.0026954017,0.0025969031,0.0,0.0,0.0,0.0
30983065,0.0050895675,-0.0034891907,-0.0029191857,0.0,0.0,0.0,0.0
31015050,0.0051311846,-0.0028588045,-0.00306684,0.0,0.0,0.0,0.0
31047062,0.00570908,-0.0022945176,-0.0020581346,0.0,0.0,0.0,0.0
31079058,0.0045687403,-0.0022250102,-0.00036397492,0.0,0.0,0.0,0.0
31111057,0.004825332,-0.0040773833,0.0011504105,0.0,0.0,0.0,0.0
31143049,0.0054164017,-0.001849471,0.0036760585,0.0,0.0,0.0,0.0
31175053,0.0040769726,-0.002839021,0.0038965356,0.0,0.0,0.0,0.0
31207061,0.0036004034,-0.0020062139,0.0051332163,0.0,0.0,0.0,0.0
31239047,0.0059797685,-0.0023825476,0.0044449624,0.0,0.0,0.0,0.0
31267054,0.006247501,-0.0027195434,-0.0008873195,0.0,0.0,0.0,0.0
31299074,0.0064290594,-0.0032361145,0.001478604,0.0,0.0,0.0,0.0
31331077,0.005475981,-0.001989205,0.0034077626,0.0,0.0,0.0,0.0
31363058,0.0059095896,-0.002847521,0.0047095832,0.0,0.0,0.0,0.0
31395050,0.004355853,-0.0022438962,0.006060842,0.0,0.0,0.0,0.0
31427043,0.0042922734,-0.002878421,0.0041562845,0.0,0.0,0.0,0.0
31459062,0.0036955131,-0.0018923957,0.0031252448,0.0,0.0,0.0,0.0
31487060,0.0040897736,-0.0023919186,0.0011553193,0.0,0.0,0.0,0.0
31519055,0.0038323752,-0.004361467,0.0050478694,0.0,0.0,0.0,0.0
31551021,0.0043349825,-0.0022797915,0.0042438502,0.0,0.0,0.0,0.0
31583062,0.0049950737,-0.0021528453,0.005468041,0.0,0.0,0.0,0.0
31615049,0.0050493916,-0.0035337405,0.004651789,0.0,0.0,0.0,0.0
31647057,0.005277201,-0.002894429,0.0027768423,0.0,0.0,0.0,0.0
31679041,0.00416996,-0.004334317,0.0024430756,0.0,0.0,0.0,0.0
31711088,0.0026684508,-0.003540949,-7.041792e-05,0.0,0.0,0.0,0.0
31739019,0.0035088945,-0.0019630361,0.004601808,0.0,0.0,0.0,0.0
31771059,0.005586033,-0.0014919025,0.005218112,0.0,0.0,0.0,0.0
31803062,0.0059256917,-0.0023046893,0.0031689692,0.0,0.0,0.0,0.0
31835053,0.004965816,-0.0018679525,0.004436762,0.0,0.0,0.0,0.0
31867060,0.0036932137,-0.002604746,0.00094707974,0.0,0.0,0.0,0.0
31899056,0.0035771462,-0.0033477976,-0.00029118732,0.0,0.0,0.0,0.0
31931038,0.0045448756,-0.0046099676,-0.002496968,0.0,0.0,0.0,0.0
31963060,0.0036688661,-0.002400126,-0.0020220035,0.0,0.0,0.0,0.0
31991067,0.004090547,-0.0029302232,0.004026525,0.0,0.0,0.0,0.0
32023851,0.0030827136,-0.0039926646,-0.00025400604,0.0,0.0,0.0,0.0
32055825,0.004640608,-0.0026299125,-0.0014499722,0.0,0.0,0.0,0.0
32087821,0.0047874385,-0.0037332524,-0.0031424004,0.0,0.0,0.0,0.0
32119827,0.0045985878,-0.0026866032,-0.0044541312,0.0,0.0,0.0,0.0
32151828,0.0046388335,-0.0041950215,-0.0027747652,0.0,0.0,0.0,0.0
32183817,0.0052698934,-0.0019595057,-0.0035440973,0.0,0.0,0.0,0.0
32211830,0.0040084245,-0.0032442512,-0.0003297618,0.0,0.0,0.0,0.0
32243823,0.0029693309,-0.0038602257,-0.001998803,0.0,0.0,0.0,0.0
32275825,0.005287057,-0.0031828678,-0.0033337525,0.0,0.0,0.0,0.0
32307826,0.005960231,-0.0037587732,-0.002851347,0.0,0.0,0.0,0.0
32339831,0.003536016,-0.0028761309,-0.0033879278,0.0,0.0,0.0,0.0
32371826,0.0043401523,-0.0027258561,-0.0031082467,0.0,0.0,0.0,0.0
32403802,0.005615709,-0.0024064782,-0.0012822854,0.0,0.0,0.0,0.0
32435816,0.004015545,-0.0028146245,0.000316657,0.0,0.0,0.0,0.0
32463825,0.0055332026,-0.002370817,-0.0035047017,0.0,0.0,0.0,0.0
32495831,0.004054531,-0.0051649595,-0.004428654,0.0,0.0,0.0,0.0
32527841,0.004493125,-0.0034420346,-0.003278547,0.0,0.0,0.0,0.0
32559831,0.004840963,-0.0037763824,-0.0015320943,0.0,0.0,0.0,0.0
32591838,0.0051043206,-0.0033226502,0.000970132,0.0,0.0,0.0,0.0
32623846,0.0044823047,-0.0018312676,0.0011834708,0.0,0.0,0.0,0.0
32655822,0.004474391,-0.0029808793,0.0035071005,0.0,0.0,0.0,0.0
32687810,0.0037937309,-0.0034995403,0.00571428,0.0,0.0,0.0,0.0
32715856,0.0047314507,-0.0038087238,-0.0041555315,0.0,0.0,0.0,0.0
32747827,0.0042229337,-0.0029420275,-0.002555422,0.0,0.0,0.0,0.0
32779829,0.004487089,-0.0027144877,-0.0013876124,0.0,0.0,0.0,0.0
32811847,0.0053758775,-0.0024742668,0.00060170423,0.0,0.0,0.0,0.0
32843818,0.0055320333,-0.0022586042,0.002332044,0.0,0.0,0.0,0.0
32875825,0.004713807,-0.0015428334,0.004851662,0.0,0.0,0.0,0.0
32907821,0.00561611,-0.0022779168,0.004452852,0.0,0.0,0.0,0.0
32936626,0.004058961,-0.002622953,0.0012306693,0.0,0.0,0.0,0.0
32968630,0.0030894983,-0.0017650352,0.0027887197,0.0,0.0,0.0,0.0
33000615,0.0051412005,-0.0020191344,0.002762944,0.0,0.0,0.0,0.0
33032645,0.0037343483,-0.0018115917,0.0039191665,0.0,0.0,0.0,0.0
33064616,0.0053487667,-0.002462688,0.00466637,0.0,0.0,0.0,0.0
33096617,0.0036429255,-0.0026080355,0.00297515,0.0,0.0,0.0,0.0
33128633,0.0037553695,-0.0037416823,0.0014211367,0.0,0.0,0.0,0.0
33156611,0.0052634547,-0.0035705778,0.0032837717,0.0,0.0,0.0,0.0
33188633,0.0051306095,-0.002751043,0.0021460233,0.0,0.0,0.0,0.0
33220619,0.004022569,-0.0017021542,0.005303519,0.0,0.0,0.0,0.0
33252643,0.003994301,-0.00260486,0.005027068,0.0,0.0,0.0,0.0
33284616,0.0038909474,-0.0037013397,0.0039546336,0.0,0.0,0.0,0.0
33316617,0.003989119,-0.0019168991,0.0016610291,0.0,0.0,0.0,0.0
33348614,0.004201107,-0.0044725765,0.0009093957,0.0,0.0,0.0,0.0
33380622,0.0048339516,-0.0030763112,-0.0014588833,0.0,0.0,0.0,0.0
33408602,0.0047806394,-0.0011044249,0.0052923765,0.0,0.0,0.0,0.0
33440610,0.004302227,-0.0033593636,0.0035569514,0.0,0.0,0.0,0.0
33472623,0.0045913663,-0.0027131683,0.002775613,0.0,0.0,0.0,0.0
33504621,0.004233122,-0.0029923304,0.0027951167,0.0,0.0,0.0,0.0
33536626,0.0036203864,-0.0037440094,-0.0011683708,0.0,0.0,0.0,0.0
33568632,0.003509599,-0.0034125934,-0.0026076483,0.0,0.0,0.0,0.0
33600616,0.0050151357,-0.00418686,-0.0036741234,0.0,0.0,0.0,0.0
33632641,0.0050109737,-0.003552652,-0.0045528067,0.0,0.0,0.0,0.0
33660613,0.0037288056,-0.0033319169,0.0017880639,0.0,0.0,0.0,0.0
33692634,0.005075035,-0.0043694754,0.0012202557,0.0,0.0,0.0,0.0
33724616,0.00529066,-0.0032730135,-4.039518e-05,0.0,0.0,0.0,0.0
33756631,0.004094991,-0.0029405893,-0.0027879092,0.0,0.0,0.0,0.0
33788623,0.004898666,-0.004470206,-0.002618454,0.0,0.0,0.0,0.0
33820614,0.0046934998,-0.0032256264,-0.00481203,0.0,0.0,0.0,0.0
33852644,0.0046004136,-0.0035507523,-0.0038539434,0.0,0.0,0.0,0.0
33884619,0.005727818,-0.001803674,-0.0011388597,0.0,0.0,0.0,0.0
33912642,0.0041160374,-0.0028519614,-0.0008668162,0.0,0.0,0.0,0.0
33944612,0.0041605206,-0.003368931,-0.0023032143,0.0,0.0,0.0,0.0
33976606,0.004012296,-0.002810438,-0.0041216454,0.0,0.0,0.0,0.0
34008620,0.004091611,-0.0030261895,-0.0019009097,0.0,0.0,0.0,0.0
34040619,0.004469111,-0.0030772635,-0.0021562881,0.0,0.0,0.0,0.0
34072643,0.0034329675,-0.003874955,-0.0008070292,0.0,0.0,0.0,0.0
34104620,0.006019072,-0.0036632076,0.0009835087,0.0,0.0,0.0,0.0
34136618,0.004238658,-0.0025307701,0.0023359293,0.0,0.0,0.0,0.0
34164618,0.0041438374,-0.0029259757,-0.0030315167,0.0,0.0,0.0,0.0
34196627,0.0041006985,-0.0035025897,-0.0031686085,0.0,0.0,0.0,0.0
34228611,0.005143505,-0.0027849807,-0.0024807618,0.0,0.0,0.0,0.0
34260605,0.006102182,-0.0033920628,-0.0009976486,0.0,0.0,0.0,0.0
34292647,0.004738858,-0.0024710002,0.00015030663,0.0,0.0,0.0,0.0
34325429,0.0050405283,-0.0027302592,0.0030636652,0.0,0.0,0.0,0.0
34357422,0.005040063,-0.0027294343,0.0052936156,0.0,0.0,0.0,0.0
34385427,0.0044994783,-0.0035926453,-0.001270886,0.0,0.0,0.0,0.0
34417420,0.004516305,-0.0035995038,0.00048560323,0.0,0.0,0.0,0.0
34449412,0.0053383075,-0.0031920902,0.0006194054,0.0,0.0,0.0,0.0
34481402,0.004838809,-0.002507214,0.0019800568,0.0,0.0,0.0,0.0
34513453,0.0060826484,-0.0029402003,0.00409693,0.0,0.0,0.0,0.0
34545422,0.0048578912,-0.0025936645,0.0046765646,0.0,0.0,0.0,0.0
34577426,0.0038130998,-0.002382716,0.0036603126,0.0,0.0,0.0,0.0
34609424,0.004565772,-0.001957968,0.003724294,0.0,0.0,0.0,0.0
34637429,0.0045215297,-0.0023797727,0.0016735931,0.0,0.0,0.0,0.0
34669416,0.0046597915,-0.0020615666,0.0034517215,0.0,0.0,0.0,0.0
34701407,0.0045724898,-0.0020824517,0.0048741526,0.0,0.0,0.0,0.0
34733401,0.0050504208,-0.0025763768,0.0039070672,0.0,0.0,0.0,0.0
34765386,0.0033849212,-0.0030627905,0.0044150813,0.0,0.0,0.0,0.0
34797417,0.0050681112,-0.0029508001,0.0027717748,0.0,0.0,0.0,0.0
34829416,0.0040554833,-0.0035458372,0.00087517616,0.0,0.0,0.0,0.0
34861427,0.004859355,-0.002416313,0.000514552,0.0,0.0,0.0,0.0
34889426,0.003586448,-0.0027627503,0.0040213224,0.0,0.0,0.0,0.0
34921444,0.0040823976,-0.0021026721,0.005252156,0.0,0.0,0.0,0.0
34953422,0.004268135,-0.0020824221,0.0042753867,0.0,0.0,0.0,0.0
34985411,0.005396389,-0.003781067,0.0033875073,0.0,0.0,0.0,0.0
35017405,0.0032851882,-0.003791717,0.0017714456,0.0,0.0,0.0,0.0
35049420,0.0036126727,-0.0030301597,-0.00023369689,0.0,0.0,0.0,0.0
35081421,0.004233511,-0.0040338505,-0.0031477946,0.0,0.0,0.0,0.0
35113449,0.0046593226,-0.003756411,-0.0020815053,0.0,0.0,0.0,0.0
35141429,0.0049513737,-0.002618014,0.0035254126,0.0,0.0,0.0,0.0
35173425,0.004566288,-0.0029630337,0.0029272684,0.0,0.0,0.0,0.0
35205422,0.0045555783,-0.0036098573,0.0023075491,0.0,0.0,0.0,0.0
35237423,0.0036368673,-0.0027093485,-0.00074226083,0.0,0.0,0.0,0.0
35269406,0.0032433795,-0.0040537547,-0.0030019968,0.0,0.0,0.0,0.0
35301411,0.0045504365,-0.0032353906,-0.004505799,0.0,0.0,0.0,0.0
35333425,0.003929662,-0.0031124707,-0.0034898133,0.0,0.0,0.0,0.0
35365428,0.0041365214,-0.003517927,-0.00261658,0.0,0.0,0.0,0.0
35393439,0.0039614183,-0.0042340434,0.00068379554,0.0,0.0,0.0,0.0
35425442,0.0039063916,-0.004042817,-0.00072499196,0.0,0.0,0.0,0.0
35458224,0.005802347,-0.0037660135,-0.004624053,0.0,0.0,0.0,0.0
35490204,0.004853107,-0.0029409428,-0.003981453,0.0,0.0,0.0,0.0
35522206,0.0046409704,-0.0018510872,-0.002387918,0.0,0.0,0.0,0.0
35554229,0.0053006224,-0.0032386999,-0.001684814,0.0,0.0,0.0,0.0
35582230,0.005186145,-0.0043000905,-0.0025099353,0.0,0.0,0.0,0.0
35614242,0.0049707475,-0.003628918,-0.0034999615,0.0,0.0,0.0,0.0
35646223,0.003945722,-0.00288622,-0.003235012,0.0,0.0,0.0,0.0
35678222,0.0058455653,-0.0026735154,-0.0041857813,0.0,0.0,0.0,0.0
35710219,0.0046644323,-0.0034334145,-0.0031397913,0.0,0.0,0.0,0.0
35742222,0.0047269943,-0.0029992794,-0.00029154145,0.0,0.0,0.0,0.0
35774221,0.0047915527,-0.0021140738,2.412384e-05,0.0,0.0,0.0,0.0
35806229,0.0053386367,-0.0029708834,0.0019402798,0.0,0.0,0.0,0.0
