timestamp,roll_body,pitch_body,yaw_body,yaw_sp_move_rate,q_d[0],q_d[1],q_d[2],q_d[3],thrust,landing_gear,q_d_valid,roll_reset_integral,pitch_reset_integral,yaw_reset_integral,fw_control_yaw,disable_mc_yaw_control,apply_flaps
6578753,0.0,-0.0,0.0,0.0,1.0,0.0,0.0,0.0,0.0,-1.0,1,0,0,0,0,0,0
6599740,0.0,-0.0,0.0,0.0,1.0,0.0,0.0,0.0,0.0,-1.0,1,0,0,0,0,0,0
6683744,0.0,-0.0,0.0,0.0,1.0,0.0,0.0,0.0,0.0,-1.0,1,0,0,0,0,0,0
6788706,0.0,-0.0,0.0,0.0,1.0,0.0,0.0,0.0,0.0,-1.0,1,0,0,0,0,0,0
6893739,0.0,-0.0,0.0,0.0,1.0,0.0,0.0,0.0,0.0,-1.0,1,0,0,0,0,0,0
6998708,0.0,-0.0,0.0,0.0,1.0,0.0,0.0,0.0,0.0,-1.0,1,0,0,0,0,0,0
7103735,0.0,-0.0,0.0,0.0,1.0,0.0,0.0,0.0,0.0,-1.0,1,0,0,0,0,0,0
7208706,0.0,-0.0,0.0,0.0,1.0,0.0,0.0,0.0,0.0,-1.0,1,0,0,0,0,0,0
7292710,0.0,-0.0,0.0,0.0,1.0,0.0,0.0,0.0,0.0,-1.0,1,0,0,0,0,0,0
7397711,0.0,-0.0,0.0,0.0,1.0,0.0,0.0,0.0,0.0,-1.0,1,0,0,0,0,0,0
7502707,0.0,-0.0,0.0,0.0,1.0,0.0,0.0,0.0,0.0,-1.0,1,0,0,0,0,0,0
7607739,0.0,-0.0,0.0,0.0,1.0,0.0,0.0,0.0,0.0,-1.0,1,0,0,0,0,0,0
7712721,0.0,-0.0,0.0,0.0,1.0,0.0,0.0,0.0,0.0,-1.0,1,0,0,0,0,0,0
7817706,0.0,-0.0,0.0,0.0,1.0,0.0,0.0,0.0,0.0,-1.0,1,0,0,0,0,0,0
7901706,0.0,-0.0,0.0,0.0,1.0,0.0,0.0,0.0,0.0,-1.0,1,0,0,0,0,0,0
8006704,0.0,-0.0,0.0,0.0,1.0,0.0,0.0,0.0,0.0,-1.0,1,0,0,0,0,0,0
8111749,0.0,-0.0,0.0,0.0,1.0,0.0,0.0,0.0,0.0,-1.0,1,0,0,0,0,0,0
8216711,0.0,-0.0,0.0,0.0,1.0,0.0,0.0,0.0,0.0,-1.0,1,0,0,0,0,0,0
8321706,0.0,-0.0,0.0,0.0,1.0,0.0,0.0,0.0,0.0,-1.0,1,0,0,0,0,0,0
8426707,0.0,-0.0,0.0,0.0,1.0,0.0,0.0,0.0,0.0,-1.0,1,0,0,0,0,0,0
8510706,0.0,-0.0,0.0,0.0,1.0,0.0,0.0,0.0,0.0,-1.0,1,0,0,0,0,0,0
8615830,0.0,-0.0,0.0,0.0,1.0,0.0,0.0,0.0,0.0,-1.0,1,0,0,0,0,0,0
8720705,0.0,-0.0,0.0,0.0,1.0,0.0,0.0,0.0,0.0,-1.0,1,0,0,0,0,0,0
8825705,0.0,-0.0,0.0,0.0,1.0,0.0,0.0,0.0,0.0,-1.0,1,0,0,0,0,0,0
8930707,0.0,-0.0,0.0,0.0,1.0,0.0,0.0,0.0,0.0,-1.0,1,0,0,0,0,0,0
9035742,0.0,-0.0,0.0,0.0,1.0,0.0,0.0,0.0,0.0,-1.0,1,0,0,0,0,0,0
9119740,0.0,-0.0,0.0,0.0,1.0,0.0,0.0,0.0,0.0,-1.0,1,0,0,0,0,0,0
9224707,0.0,-0.0,0.0,0.0,1.0,0.0,0.0,0.0,0.0,-1.0,1,0,0,0,0,0,0
9329712,0.0,-0.0,0.0,0.0,1.0,0.0,0.0,0.0,0.0,-1.0,1,0,0,0,0,0,0
9434705,0.0,-0.0,0.0,0.0,1.0,0.0,0.0,0.0,0.0,-1.0,1,0,0,0,0,0,0
9539928,0.0,-0.0,0.0,0.0,1.0,0.0,0.0,0.0,0.0,-1.0,1,0,0,0,0,0,0
9644707,0.0,-0.0,0.0,0.0,1.0,0.0,0.0,0.0,0.0,-1.0,1,0,0,0,0,0,0
9728706,0.0,-0.0,0.0,0.0,1.0,0.0,0.0,0.0,0.0,-1.0,1,0,0,0,0,0,0
9833706,0.0,-0.0,0.0,0.0,1.0,0.0,0.0,0.0,0.0,-1.0,1,0,0,0,0,0,0
9938706,0.0,-0.0,0.0,0.0,1.0,0.0,0.0,0.0,0.0,-1.0,1,0,0,0,0,0,0
10043913,0.0,-0.0,0.0,0.0,1.0,0.0,0.0,0.0,0.0,-1.0,1,0,0,0,0,0,0
10148715,0.0,-0.0,0.0,0.0,1.0,0.0,0.0,0.0,0.0,-1.0,1,0,0,0,0,0,0
10253708,0.0,-0.0,0.0,0.0,1.0,0.0,0.0,0.0,0.0,-1.0,1,0,0,0,0,0,0
10337711,0.0,-0.0,0.0,0.0,1.0,0.0,0.0,0.0,0.0,-1.0,1,0,0,0,0,0,0
10442709,0.0,-0.0,0.0,0.0,1.0,0.0,0.0,0.0,0.0,-1.0,1,0,0,0,0,0,0
10547721,0.0,-0.0,0.0,0.0,1.0,0.0,0.0,0.0,0.0,-1.0,1,0,0,0,0,0,0
10652713,0.0,-0.0,0.0,0.0,1.0,0.0,0.0,0.0,0.0,-1.0,1,0,0,0,0,0,0
10757706,0.0,-0.0,0.0,0.0,1.0,0.0,0.0,0.0,0.0,-1.0,1,0,0,0,0,0,0
10862708,0.0,-0.0,0.0,0.0,1.0,0.0,0.0,0.0,0.0,-1.0,1,0,0,0,0,0,0
10946710,0.0,-0.0,0.0,0.0,1.0,0.0,0.0,0.0,0.0,-1.0,1,0,0,0,0,0,0
11051720,0.0,-0.0,0.0,0.0,1.0,0.0,0.0,0.0,0.0,-1.0,1,0,0,0,0,0,0
11156718,0.0,-0.0,0.0,0.0,1.0,0.0,0.0,0.0,0.0,-1.0,1,0,0,0,0,0,0
11261722,0.0,-0.0,0.0,0.0,1.0,0.0,0.0,0.0,0.0,-1.0,1,0,0,0,0,0,0
11366706,0.0,-0.0,0.0,0.0,1.0,0.0,0.0,0.0,0.0,-1.0,1,0,0,0,0,0,0
11471719,0.0,-0.0,0.0,0.0,1.0,0.0,0.0,0.0,0.0,-1.0,1,0,0,0,0,0,0
11555725,0.0,-0.0,0.0,0.0,1.0,0.0,0.0,0.0,0.0,-1.0,1,0,0,0,0,0,0
11660705,0.0,-0.0,0.0,0.0,1.0,0.0,0.0,0.0,0.0,-1.0,1,0,0,0,0,0,0
11765739,0.0,-0.0,0.0,0.0,1.0,0.0,0.0,0.0,0.0,-1.0,1,0,0,0,0,0,0
11870709,0.0,-0.0,0.0,0.0,1.0,0.0,0.0,0.0,0.0,-1.0,1,0,0,0,0,0,0
11975740,0.0,-0.0,0.0,0.0,1.0,0.0,0.0,0.0,0.0,-1.0,1,0,0,0,0,0,0
12080706,0.0,-0.0,0.0,0.0,1.0,0.0,0.0,0.0,0.0,-1.0,1,0,0,0,0,0,0
12164710,0.0,-0.0,0.0,0.0,1.0,0.0,0.0,0.0,0.0,-1.0,1,0,0,0,0,0,0
12269756,0.0,-0.0,0.0,0.0,1.0,0.0,0.0,0.0,0.0,-1.0,1,0,0,0,0,0,0
12374801,0.0,-0.0,0.0,0.0,1.0,0.0,0.0,0.0,0.0,-1.0,1,0,0,0,0,0,0
12479733,0.0,-0.0,0.0,0.0,1.0,0.0,0.0,0.0,0.0,-1.0,1,0,0,0,0,0,0
12584708,0.0,-0.0,0.0,0.0,1.0,0.0,0.0,0.0,0.0,-1.0,1,0,0,0,0,0,0
12689741,0.0,-0.0,0.0,0.0,1.0,0.0,0.0,0.0,0.0,-1.0,1,0,0,0,0,0,0
12773845,0.0,-0.0,0.0,0.0,1.0,0.0,0.0,0.0,0.0,-1.0,1,0,0,0,0,0,0
12878702,0.0,-0.0,0.0,0.0,1.0,0.0,0.0,0.0,0.0,-1.0,1,0,0,0,0,0,0
12983740,0.0,-0.0,0.0,0.0,1.0,0.0,0.0,0.0,0.0,-1.0,1,0,0,0,0,0,0
13088707,0.0,-0.0,0.0,0.0,1.0,0.0,0.0,0.0,0.0,-1.0,1,0,0,0,0,0,0
13193716,0.0,-0.0,0.0,0.0,1.0,0.0,0.0,0.0,0.0,-1.0,1,0,0,0,0,0,0
13298711,0.0,-0.0,0.0,0.0,1.0,0.0,0.0,0.0,0.0,-1.0,1,0,0,0,0,0,0
13382702,0.0,-0.0,0.0,0.0,1.0,0.0,0.0,0.0,0.0,-1.0,1,0,0,0,0,0,0
13487738,0.0,-0.0,0.0,0.0,1.0,0.0,0.0,0.0,0.0,-1.0,1,0,0,0,0,0,0
13592706,0.0,-0.0,0.0,0.0,1.0,0.0,0.0,0.0,0.0,-1.0,1,0,0,0,0,0,0
13697705,0.0,-0.0,0.0,0.0,1.0,0.0,0.0,0.0,0.0,-1.0,1,0,0,0,0,0,0
13802705,0.0,-0.0,0.0,0.0,1.0,0.0,0.0,0.0,0.0,-1.0,1,0,0,0,0,0,0
13907735,0.0,-0.0,0.0,0.0,1.0,0.0,0.0,0.0,0.0,-1.0,1,0,0,0,0,0,0
13991741,0.0,-0.0,0.0,0.0,1.0,0.0,0.0,0.0,0.0,-1.0,1,0,0,0,0,0,0
14096707,0.0,-0.0,0.0,0.0,1.0,0.0,0.0,0.0,0.0,-1.0,1,0,0,0,0,0,0
14201708,0.0,-0.0,0.0,0.0,1.0,0.0,0.0,0.0,0.0,-1.0,1,0,0,0,0,0,0
14306705,0.0,-0.0,0.0,0.0,1.0,0.0,0.0,0.0,0.0,-1.0,1,0,0,0,0,0,0
14411741,0.0,-0.0,0.0,0.0,1.0,0.0,0.0,0.0,0.0,-1.0,1,0,0,0,0,0,0
14516708,0.0,-0.0,0.0,0.0,1.0,0.0,0.0,0.0,0.0,-1.0,1,0,0,0,0,0,0
14600708,0.0,-0.0,0.0,0.0,1.0,0.0,0.0,0.0,0.0,-1.0,1,0,0,0,0,0,0
14705706,0.0,-0.0,0.0,0.0,1.0,0.0,0.0,0.0,0.0,-1.0,1,0,0,0,0,0,0
14810707,0.0,-0.0,0.0,0.0,1.0,0.0,0.0,0.0,0.0,-1.0,1,0,0,0,0,0,0
14915743,0.0,-0.0,0.0,0.0,1.0,0.0,0.0,0.0,0.0,-1.0,1,0,0,0,0,0,0
15020708,0.0,-0.0,0.0,0.0,1.0,0.0,0.0,0.0,0.0,-1.0,1,0,0,0,0,0,0
15125707,0.0,-0.0,0.0,0.0,1.0,0.0,0.0,0.0,0.0,-1.0,1,0,0,0,0,0,0
15209705,0.0,-0.0,0.0,0.0,1.0,0.0,0.0,0.0,0.0,-1.0,1,0,0,0,0,0,0
15314773,0.0,-0.0,0.0,0.0,1.0,0.0,0.0,0.0,0.0,-1.0,1,0,0,0,0,0,0
15419907,0.0,-0.0,0.0,0.0,1.0,0.0,0.0,0.0,0.0,-1.0,1,0,0,0,0,0,0
15524710,0.0,-0.0,0.0,0.0,1.0,0.0,0.0,0.0,0.0,-1.0,1,0,0,0,0,0,0
15629705,0.0,-0.0,0.0,0.0,1.0,0.0,0.0,0.0,0.0,-1.0,1,0,0,0,0,0,0
15734707,0.0,-0.0,0.0,0.0,1.0,0.0,0.0,0.0,0.0,-1.0,1,0,0,0,0,0,0
15818707,0.0,-0.0,0.0,0.0,1.0,0.0,0.0,0.0,0.0,-1.0,1,0,0,0,0,0,0
15923736,0.0,-0.0,0.0,0.0,1.0,0.0,0.0,0.0,0.0,-1.0,1,0,0,0,0,0,0
16028713,0.0,-0.0,0.0,0.0,1.0,0.0,0.0,0.0,0.0,-1.0,1,0,0,0,0,0,0
16133706,0.0,-0.0,0.0,0.0,1.0,0.0,0.0,0.0,0.0,-1.0,1,0,0,0,0,0,0
16238705,0.0,-0.0,0.0,0.0,1.0,0.0,0.0,0.0,0.0,-1.0,1,0,0,0,0,0,0
16343716,0.0,-0.0,0.0,0.0,1.0,0.0,0.0,0.0,0.0,-1.0,1,0,0,0,0,0,0
16427716,0.0,-0.0,0.0,0.0,1.0,0.0,0.0,0.0,0.0,-1.0,1,0,0,0,0,0,0
16532715,0.0,-0.0,0.0,0.0,1.0,0.0,0.0,0.0,0.0,-1.0,1,0,0,0,0,0,0
16637705,0.0,-0.0,0.0,0.0,1.0,0.0,0.0,0.0,0.0,-1.0,1,0,0,0,0,0,0
16742707,0.0,-0.0,0.0,0.0,1.0,0.0,0.0,0.0,0.0,-1.0,1,0,0,0,0,0,0
16847719,0.0,-0.0,0.0,0.0,1.0,0.0,0.0,0.0,0.0,-1.0,1,0,0,0,0,0,0
16952723,0.0,-0.0,0.0,0.0,1.0,0.0,0.0,0.0,0.0,-1.0,1,0,0,0,0,0,0
17036713,0.0,-0.0,0.0,0.0,1.0,0.0,0.0,0.0,0.0,-1.0,1,0,0,0,0,0,0
17141708,0.0,-0.0,0.0,0.0,1.0,0.0,0.0,0.0,0.0,-1.0,1,0,0,0,0,0,0
17246707,0.0,-0.0,0.0,0.0,1.0,0.0,0.0,0.0,0.0,-1.0,1,0,0,0,0,0,0
17351742,0.0,-0.0,0.0,0.0,1.0,0.0,0.0,0.0,0.0,-1.0,1,0,0,0,0,0,0
17456708,0.0,-0.0,0.0,0.0,1.0,0.0,0.0,0.0,0.0,-1.0,1,0,0,0,0,0,0
17561824,0.0,-0.0,0.0,0.0,1.0,0.0,0.0,0.0,0.0,-1.0,1,0,0,0,0,0,0
17645743,0.0,-0.0,0.0,0.0,1.0,0.0,0.0,0.0,0.0,-1.0,1,0,0,0,0,0,0
17750709,0.0,-0.0,0.0,0.0,1.0,0.0,0.0,0.0,0.0,-1.0,1,0,0,0,0,0,0
17855738,0.0,-0.0,0.0,0.0,1.0,0.0,0.0,0.0,0.0,-1.0,1,0,0,0,0,0,0
17960705,0.0,-0.0,0.0,0.0,1.0,0.0,0.0,0.0,0.0,-1.0,1,0,0,0,0,0,0
18065749,0.0,-0.0,0.0,0.0,1.0,0.0,0.0,0.0,0.0,-1.0,1,0,0,0,0,0,0
18170707,0.0,-0.0,0.0,0.0,1.0,0.0,0.0,0.0,0.0,-1.0,1,0,0,0,0,0,0
18254798,0.0,-0.0,0.0,0.0,1.0,0.0,0.0,0.0,0.0,-1.0,1,0,0,0,0,0,0
18359740,0.0,-0.0,0.0,0.0,1.0,0.0,0.0,0.0,0.0,-1.0,1,0,0,0,0,0,0
18464706,0.0,-0.0,0.0,0.0,1.0,0.0,0.0,0.0,0.0,-1.0,1,0,0,0,0,0,0
18569706,0.0,-0.0,0.0,0.0,1.0,0.0,0.0,0.0,0.0,-1.0,1,0,0,0,0,0,0
18674703,0.0,-0.0,0.0,0.0,1.0,0.0,0.0,0.0,0.0,-1.0,1,0,0,0,0,0,0
18779741,0.0,-0.0,0.0,0.0,1.0,0.0,0.0,0.0,0.0,-1.0,1,0,0,0,0,0,0
18863735,0.0,-0.0,0.0,0.0,1.0,0.0,0.0,0.0,0.0,-1.0,1,0,0,0,0,0,0
18968706,0.0,-0.0,0.0,0.0,1.0,0.0,0.0,0.0,0.0,-1.0,1,0,0,0,0,0,0
19073706,0.0,-0.0,0.0,0.0,1.0,0.0,0.0,0.0,0.0,-1.0,1,0,0,0,0,0,0
19178707,0.0,-0.0,0.0,0.0,1.0,0.0,0.0,0.0,0.0,-1.0,1,0,0,0,0,0,0
19283744,0.0,-0.0,0.0,0.0,1.0,0.0,0.0,0.0,0.0,-1.0,1,0,0,0,0,0,0
19388716,0.0,-0.0,0.0,0.0,1.0,0.0,0.0,0.0,0.0,-1.0,1,0,0,0,0,0,0
19472707,0.0,-0.0,0.0,0.0,1.0,0.0,0.0,0.0,0.0,-1.0,1,0,0,0,0,0,0
19577709,0.0,-0.0,0.0,0.0,1.0,0.0,0.0,0.0,0.0,-1.0,1,0,0,0,0,0,0
19682706,0.0,-0.0,0.0,0.0,1.0,0.0,0.0,0.0,0.0,-1.0,1,0,0,0,0,0,0
19787750,0.0,-0.0,0.0,0.0,1.0,0.0,0.0,0.0,0.0,-1.0,1,0,0,0,0,0,0
19892710,0.0,-0.0,0.0,0.0,1.0,0.0,0.0,0.0,0.0,-1.0,1,0,0,0,0,0,0
19997706,0.0,-0.0,0.0,0.0,1.0,0.0,0.0,0.0,0.0,-1.0,1,0,0,0,0,0,0
20081706,0.0,-0.0,0.0,0.0,1.0,0.0,0.0,0.0,0.0,-1.0,1,0,0,0,0,0,0
20186711,0.0,-0.0,0.0,0.0,1.0,0.0,0.0,0.0,0.0,-1.0,1,0,0,0,0,0,0
20291856,0.0,-0.0,0.0,0.0,1.0,0.0,0.0,0.0,0.0,-1.0,1,0,0,0,0,0,0
20396706,0.0,-0.0,0.0,0.0,1.0,0.0,0.0,0.0,0.0,-1.0,1,0,0,0,0,0,0
20501707,0.0,-0.0,0.0,0.0,1.0,0.0,0.0,0.0,0.0,-1.0,1,0,0,0,0,0,0
20606712,0.0,-0.0,0.0,0.0,1.0,0.0,0.0,0.0,0.0,-1.0,1,0,0,0,0,0,0
20690705,0.0,-0.0,0.0,0.0,1.0,0.0,0.0,0.0,0.0,-1.0,1,0,0,0,0,0,0
20795912,0.0,-0.0,0.0,0.0,1.0,0.0,0.0,0.0,0.0,-1.0,1,0,0,0,0,0,0
20900705,0.0,-0.0,0.0,0.0,1.0,0.0,0.0,0.0,0.0,-1.0,1,0,0,0,0,0,0
21005706,0.0,-0.0,0.0,0.0,1.0,0.0,0.0,0.0,0.0,-1.0,1,0,0,0,0,0,0
21110706,0.0,-0.0,0.0,0.0,1.0,0.0,0.0,0.0,0.0,-1.0,1,0,0,0,0,0,0
21215915,0.0,-0.0,0.0,0.0,1.0,0.0,0.0,0.0,0.0,-1.0,1,0,0,0,0,0,0
21299910,0.0,-0.0,0.0,0.0,1.0,0.0,0.0,0.0,0.0,-1.0,1,0,0,0,0,0,0
21404705,0.0,-0.0,0.0,0.0,1.0,0.0,0.0,0.0,0.0,-1.0,1,0,0,0,0,0,0
21509708,0.0,-0.0,0.0,0.0,1.0,0.0,0.0,0.0,0.0,-1.0,1,0,0,0,0,0,0
21614775,0.0,-0.0,0.0,0.0,1.0,0.0,0.0,0.0,0.0,-1.0,1,0,0,0,0,0,0
21719721,0.0,-0.0,0.0,0.0,1.0,0.0,0.0,0.0,0.0,-1.0,1,0,0,0,0,0,0
21824801,0.0,-0.0,0.0,0.0,1.0,0.0,0.0,0.0,0.0,-1.0,1,0,0,0,0,0,0
21908712,0.0,-0.0,0.0,0.0,1.0,0.0,0.0,0.0,0.0,-1.0,1,0,0,0,0,0,0
22013716,0.0,-0.0,0.0,0.0,1.0,0.0,0.0,0.0,0.0,-1.0,1,0,0,0,0,0,0
22118706,0.0,-0.0,0.0,0.0,1.0,0.0,0.0,0.0,0.0,-1.0,1,0,0,0,0,0,0
22223734,0.0,-0.0,0.0,0.0,1.0,0.0,0.0,0.0,0.0,-1.0,1,0,0,0,0,0,0
22328711,0.0,-0.0,0.0,0.0,1.0,0.0,0.0,0.0,0.0,-1.0,1,0,0,0,0,0,0
22433720,0.0,-0.0,0.0,0.0,1.0,0.0,0.0,0.0,0.0,-1.0,1,0,0,0,0,0,0
22517706,0.0,-0.0,0.0,0.0,1.0,0.0,0.0,0.0,0.0,-1.0,1,0,0,0,0,0,0
22622716,0.0,-0.0,0.0,0.0,1.0,0.0,0.0,0.0,0.0,-1.0,1,0,0,0,0,0,0
22727718,0.0,-0.0,0.0,0.0,1.0,0.0,0.0,0.0,0.0,-1.0,1,0,0,0,0,0,0
22832715,0.0,-0.0,0.0,0.0,1.0,0.0,0.0,0.0,0.0,-1.0,1,0,0,0,0,0,0
22937739,0.0,-0.0,0.0,0.0,1.0,0.0,0.0,0.0,0.0,-1.0,1,0,0,0,0,0,0
23042704,0.0,-0.0,0.0,0.0,1.0,0.0,0.0,0.0,0.0,-1.0,1,0,0,0,0,0,0
23126707,0.0,-0.0,0.0,0.0,1.0,0.0,0.0,0.0,0.0,-1.0,1,0,0,0,0,0,0
23231733,0.0,-0.0,0.0,0.0,1.0,0.0,0.0,0.0,0.0,-1.0,1,0,0,0,0,0,0
23336708,0.0,-0.0,0.0,0.0,1.0,0.0,0.0,0.0,0.0,-1.0,1,0,0,0,0,0,0
23441742,0.0,-0.0,0.0,0.0,1.0,0.0,0.0,0.0,0.0,-1.0,1,0,0,0,0,0,0
23546706,0.0,-0.0,0.0,0.0,1.0,0.0,0.0,0.0,0.0,-1.0,1,0,0,0,0,0,0
23651733,0.0,-0.0,0.0,0.0,1.0,0.0,0.0,0.0,0.0,-1.0,1,0,0,0,0,0,0
23735743,0.0,-0.0,0.0,0.0,1.0,0.0,0.0,0.0,0.0,-1.0,1,0,0,0,0,0,0
23840705,0.0,-0.0,0.0,0.0,1.0,0.0,0.0,0.0,0.0,-1.0,1,0,0,0,0,0,0
23945742,0.0,-0.0,0.0,0.0,1.0,0.0,0.0,0.0,0.0,-1.0,1,0,0,0,0,0,0
24050702,0.0,-0.0,0.0,0.0,1.0,0.0,0.0,0.0,0.0,-1.0,1,0,0,0,0,0,0
24155748,0.0,-0.0,0.0,0.0,1.0,0.0,0.0,0.0,0.0,-1.0,1,0,0,0,0,0,0
24260710,0.0,-0.0,0.0,0.0,1.0,0.0,0.0,0.0,0.0,-1.0,1,0,0,0,0,0,0
24344706,0.0,-0.0,0.0,0.0,1.0,0.0,0.0,0.0,0.0,-1.0,1,0,0,0,0,0,0
24449708,0.0,-0.0,0.0,0.0,1.0,0.0,0.0,0.0,0.0,-1.0,1,0,0,0,0,0,0
24554706,0.0,-0.0,0.0,0.0,1.0,0.0,0.0,0.0,0.0,-1.0,1,0,0,0,0,0,0
24659738,0.0,-0.0,0.0,0.0,1.0,0.0,0.0,0.0,0.0,-1.0,1,0,0,0,0,0,0
24764709,0.0,-0.0,0.0,0.0,1.0,0.0,0.0,0.0,0.0,-1.0,1,0,0,0,0,0,0
24869705,0.0,-0.0,0.0,0.0,1.0,0.0,0.0,0.0,0.0,-1.0,1,0,0,0,0,0,0
24953720,0.0,-0.0,0.0,0.0,1.0,0.0,0.0,0.0,0.0,-1.0,1,0,0,0,0,0,0
25058705,0.0,-0.0,0.0,0.0,1.0,0.0,0.0,0.0,0.0,-1.0,1,0,0,0,0,0,0
25163741,0.0,-0.0,0.0,0.0,1.0,0.0,0.0,0.0,0.0,-1.0,1,0,0,0,0,0,0
25268707,0.0,-0.0,0.0,0.0,1.0,0.0,0.0,0.0,0.0,-1.0,1,0,0,0,0,0,0
25373706,0.0,-0.0,0.0,0.0,1.0,0.0,0.0,0.0,0.0,-1.0,1,0,0,0,0,0,0
25478707,0.0,-0.0,0.0,0.0,1.0,0.0,0.0,0.0,0.0,-1.0,1,0,0,0,0,0,0
25562704,0.0,-0.0,0.0,0.0,1.0,0.0,0.0,0.0,0.0,-1.0,1,0,0,0,0,0,0
25667739,0.0,-0.0,0.0,0.0,1.0,0.0,0.0,0.0,0.0,-1.0,1,0,0,0,0,0,0
25772706,0.0,-0.0,0.0,0.0,1.0,0.0,0.0,0.0,0.0,-1.0,1,0,0,0,0,0,0
25877711,0.0,-0.0,0.0,0.0,1.0,0.0,0.0,0.0,0.0,-1.0,1,0,0,0,0,0,0
25982706,0.0,-0.0,0.0,0.0,1.0,0.0,0.0,0.0,0.0,-1.0,1,0,0,0,0,0,0
26087743,0.0,-0.0,0.0,0.0,1.0,0.0,0.0,0.0,0.0,-1.0,1,0,0,0,0,0,0
26171739,0.0,-0.0,0.0,0.0,1.0,0.0,0.0,0.0,0.0,-1.0,1,0,0,0,0,0,0
26276714,0.0,-0.0,0.0,0.0,1.0,0.0,0.0,0.0,0.0,-1.0,1,0,0,0,0,0,0
26381709,0.0,-0.0,0.0,0.0,1.0,0.0,0.0,0.0,0.0,-1.0,1,0,0,0,0,0,0
26486705,0.0,-0.0,0.0,0.0,1.0,0.0,0.0,0.0,0.0,-1.0,1,0,0,0,0,0,0
26591919,0.0,-0.0,0.0,0.0,1.0,0.0,0.0,0.0,0.0,-1.0,1,0,0,0,0,0,0
26696707,0.0,-0.0,0.0,0.0,1.0,0.0,0.0,0.0,0.0,-1.0,1,0,0,0,0,0,0
26780709,0.0,-0.0,0.0,0.0,1.0,0.0,0.0,0.0,0.0,-1.0,1,0,0,0,0,0,0
26885708,0.0,-0.0,0.0,0.0,1.0,0.0,0.0,0.0,0.0,-1.0,1,0,0,0,0,0,0
26990708,0.0,-0.0,0.0,0.0,1.0,0.0,0.0,0.0,0.0,-1.0,1,0,0,0,0,0,0
27095916,0.0,-0.0,0.0,0.0,1.0,0.0,0.0,0.0,0.0,-1.0,1,0,0,0,0,0,0
27200708,0.0,-0.0,0.0,0.0,1.0,0.0,0.0,0.0,0.0,-1.0,1,0,0,0,0,0,0
27305709,0.0,-0.0,0.0,0.0,1.0,0.0,0.0,0.0,0.0,-1.0,1,0,0,0,0,0,0
27389707,0.0,-0.0,0.0,0.0,1.0,0.0,0.0,0.0,0.0,-1.0,1,0,0,0,0,0,0
27494707,0.0,-0.0,0.0,0.0,1.0,0.0,0.0,0.0,0.0,-1.0,1,0,0,0,0,0,0
27599730,0.0,-0.0,0.0,0.0,1.0,0.0,0.0,0.0,0.0,-1.0,1,0,0,0,0,0,0
27704770,0.0,-0.0,0.0,0.0,1.0,0.0,0.0,0.0,0.0,-1.0,1,0,0,0,0,0,0
27809718,0.0,-0.0,0.0,0.0,1.0,0.0,0.0,0.0,0.0,-1.0,1,0,0,0,0,0,0
27914770,0.0,-0.0,0.0,0.0,1.0,0.0,0.0,0.0,0.0,-1.0,1,0,0,0,0,0,0
27998710,0.0,-0.0,0.0,0.0,1.0,0.0,0.0,0.0,0.0,-1.0,1,0,0,0,0,0,0
28103723,0.0,-0.0,0.0,0.0,1.0,0.0,0.0,0.0,0.0,-1.0,1,0,0,0,0,0,0
28208713,0.0,-0.0,0.0,0.0,1.0,0.0,0.0,0.0,0.0,-1.0,1,0,0,0,0,0,0
28313718,0.0,-0.0,0.0,0.0,1.0,0.0,0.0,0.0,0.0,-1.0,1,0,0,0,0,0,0
28418706,0.0,-0.0,0.0,0.0,1.0,0.0,0.0,0.0,0.0,-1.0,1,0,0,0,0,0,0
28523718,0.0,-0.0,0.0,0.0,1.0,0.0,0.0,0.0,0.0,-1.0,1,0,0,0,0,0,0
28607740,0.0,-0.0,0.0,0.0,1.0,0.0,0.0,0.0,0.0,-1.0,1,0,0,0,0,0,0
28712716,0.0,-0.0,0.0,0.0,1.0,0.0,0.0,0.0,0.0,-1.0,1,0,0,0,0,0,0
28817749,0.0,-0.0,0.0,0.0,1.0,0.0,0.0,0.0,0.0,-1.0,1,0,0,0,0,0,0
28922714,0.0,-0.0,0.0,0.0,1.0,0.0,0.0,0.0,0.0,-1.0,1,0,0,0,0,0,0
29027737,0.0,-0.0,0.0,0.0,1.0,0.0,0.0,0.0,0.0,-1.0,1,0,0,0,0,0,0
29132716,0.0,-0.0,0.0,0.0,1.0,0.0,0.0,0.0,0.0,-1.0,1,0,0,0,0,0,0
29216707,0.0,-0.0,0.0,0.0,1.0,0.0,0.0,0.0,0.0,-1.0,1,0,0,0,0,0,0
29321746,0.0,-0.0,0.0,0.0,1.0,0.0,0.0,0.0,0.0,-1.0,1,0,0,0,0,0,0
29426707,0.0,-0.0,0.0,0.0,1.0,0.0,0.0,0.0,0.0,-1.0,1,0,0,0,0,0,0
29531749,0.0,-0.0,0.0,0.0,1.0,0.0,0.0,0.0,0.0,-1.0,1,0,0,0,0,0,0
29636706,0.0,-0.0,0.0,0.0,1.0,0.0,0.0,0.0,0.0,-1.0,1,0,0,0,0,0,0
29741710,0.0,-0.0,0.0,0.0,1.0,0.0,0.0,0.0,0.0,-1.0,1,0,0,0,0,0,0
29825706,0.0,-0.0,0.0,0.0,1.0,0.0,0.0,0.0,0.0,-1.0,1,0,0,0,0,0,0
29930704,0.0,-0.0,0.0,0.0,1.0,0.0,0.0,0.0,0.0,-1.0,1,0,0,0,0,0,0
30035734,0.0,-0.0,0.0,0.0,1.0,0.0,0.0,0.0,0.0,-1.0,1,0,0,0,0,0,0
30140706,0.0,-0.0,0.0,0.0,1.0,0.0,0.0,0.0,0.0,-1.0,1,0,0,0,0,0,0
30245706,0.0,-0.0,0.0,0.0,1.0,0.0,0.0,0.0,0.0,-1.0,1,0,0,0,0,0,0
30350704,0.0,-0.0,0.0,0.0,1.0,0.0,0.0,0.0,0.0,-1.0,1,0,0,0,0,0,0
30434703,0.0,-0.0,0.0,0.0,1.0,0.0,0.0,0.0,0.0,-1.0,1,0,0,0,0,0,0
30539736,0.0,-0.0,0.0,0.0,1.0,0.0,0.0,0.0,0.0,-1.0,1,0,0,0,0,0,0
30644708,0.0,-0.0,0.0,0.0,1.0,0.0,0.0,0.0,0.0,-1.0,1,0,0,0,0,0,0
30749708,0.0,-0.0,0.0,0.0,1.0,0.0,0.0,0.0,0.0,-1.0,1,0,0,0,0,0,0
30854777,0.0,-0.0,0.0,0.0,1.0,0.0,0.0,0.0,0.0,-1.0,1,0,0,0,0,0,0
30959831,0.0,-0.0,0.0,0.0,1.0,0.0,0.0,0.0,0.0,-1.0,1,0,0,0,0,0,0
31043742,0.0,-0.0,0.0,0.0,1.0,0.0,0.0,0.0,0.0,-1.0,1,0,0,0,0,0,0
31148711,0.0,-0.0,0.0,0.0,1.0,0.0,0.0,0.0,0.0,-1.0,1,0,0,0,0,0,0
31253706,0.0,-0.0,0.0,0.0,1.0,0.0,0.0,0.0,0.0,-1.0,1,0,0,0,0,0,0
31358706,0.0,-0.0,0.0,0.0,1.0,0.0,0.0,0.0,0.0,-1.0,1,0,0,0,0,0,0
31463741,0.0,-0.0,0.0,0.0,1.0,0.0,0.0,0.0,0.0,-1.0,1,0,0,0,0,0,0
31568713,0.0,-0.0,0.0,0.0,1.0,0.0,0.0,0.0,0.0,-1.0,1,0,0,0,0,0,0
31652708,0.0,-0.0,0.0,0.0,1.0,0.0,0.0,0.0,0.0,-1.0,1,0,0,0,0,0,0
31757708,0.0,-0.0,0.0,0.0,1.0,0.0,0.0,0.0,0.0,-1.0,1,0,0,0,0,0,0
31862707,0.0,-0.0,0.0,0.0,1.0,0.0,0.0,0.0,0.0,-1.0,1,0,0,0,0,0,0
31967740,0.0,-0.0,0.0,0.0,1.0,0.0,0.0,0.0,0.0,-1.0,1,0,0,0,0,0,0
32072709,0.0,-0.0,0.0,0.0,1.0,0.0,0.0,0.0,0.0,-1.0,1,0,0,0,0,0,0
32177708,0.0,-0.0,0.0,0.0,1.0,0.0,0.0,0.0,0.0,-1.0,1,0,0,0,0,0,0
32261705,0.0,-0.0,0.0,0.0,1.0,0.0,0.0,0.0,0.0,-1.0,1,0,0,0,0,0,0
32366706,0.0,-0.0,0.0,0.0,1.0,0.0,0.0,0.0,0.0,-1.0,1,0,0,0,0,0,0
32471893,0.0,-0.0,0.0,0.0,1.0,0.0,0.0,0.0,0.0,-1.0,1,0,0,0,0,0,0
32576706,0.0,-0.0,0.0,0.0,1.0,0.0,0.0,0.0,0.0,-1.0,1,0,0,0,0,0,0
32681707,0.0,-0.0,0.0,0.0,1.0,0.0,0.0,0.0,0.0,-1.0,1,0,0,0,0,0,0
32786707,0.0,-0.0,0.0,0.0,1.0,0.0,0.0,0.0,0.0,-1.0,1,0,0,0,0,0,0
32870705,0.0,-0.0,0.0,0.0,1.0,0.0,0.0,0.0,0.0,-1.0,1,0,0,0,0,0,0
32975724,0.0,-0.0,0.0,0.0,1.0,0.0,0.0,0.0,0.0,-1.0,1,0,0,0,0,0,0
33080720,0.0,-0.0,0.0,0.0,1.0,0.0,0.0,0.0,0.0,-1.0,1,0,0,0,0,0,0
33185705,0.0,-0.0,0.0,0.0,1.0,0.0,0.0,0.0,0.0,-1.0,1,0,0,0,0,0,0
33290706,0.0,-0.0,0.0,0.0,1.0,0.0,0.0,0.0,0.0,-1.0,1,0,0,0,0,0,0
33395723,0.0,-0.0,0.0,0.0,1.0,0.0,0.0,0.0,0.0,-1.0,1,0,0,0,0,0,0
33479720,0.0,-0.0,0.0,0.0,1.0,0.0,0.0,0.0,0.0,-1.0,1,0,0,0,0,0,0
33584710,0.0,-0.0,0.0,0.0,1.0,0.0,0.0,0.0,0.0,-1.0,1,0,0,0,0,0,0
33689707,0.0,-0.0,0.0,0.0,1.0,0.0,0.0,0.0,0.0,-1.0,1,0,0,0,0,0,0
33794708,0.0,-0.0,0.0,0.0,1.0,0.0,0.0,0.0,0.0,-1.0,1,0,0,0,0,0,0
33899718,0.0,-0.0,0.0,0.0,1.0,0.0,0.0,0.0,0.0,-1.0,1,0,0,0,0,0,0
34004779,0.0,-0.0,0.0,0.0,1.0,0.0,0.0,0.0,0.0,-1.0,1,0,0,0,0,0,0
34088713,0.0,-0.0,0.0,0.0,1.0,0.0,0.0,0.0,0.0,-1.0,1,0,0,0,0,0,0
34193727,0.0,-0.0,0.0,0.0,1.0,0.0,0.0,0.0,0.0,-1.0,1,0,0,0,0,0,0
34298709,0.0,-0.0,0.0,0.0,1.0,0.0,0.0,0.0,0.0,-1.0,1,0,0,0,0,0,0
34403734,0.0,-0.0,0.0,0.0,1.0,0.0,0.0,0.0,0.0,-1.0,1,0,0,0,0,0,0
34508709,0.0,-0.0,0.0,0.0,1.0,0.0,0.0,0.0,0.0,-1.0,1,0,0,0,0,0,0
34613828,0.0,-0.0,0.0,0.0,1.0,0.0,0.0,0.0,0.0,-1.0,1,0,0,0,0,0,0
34697737,0.0,-0.0,0.0,0.0,1.0,0.0,0.0,0.0,0.0,-1.0,1,0,0,0,0,0,0
34802706,0.0,-0.0,0.0,0.0,1.0,0.0,0.0,0.0,0.0,-1.0,1,0,0,0,0,0,0
34907735,0.0,-0.0,0.0,0.0,1.0,0.0,0.0,0.0,0.0,-1.0,1,0,0,0,0,0,0
35012708,0.0,-0.0,0.0,0.0,1.0,0.0,0.0,0.0,0.0,-1.0,1,0,0,0,0,0,0
35117741,0.0,-0.0,0.0,0.0,1.0,0.0,0.0,0.0,0.0,-1.0,1,0,0,0,0,0,0
35222710,0.0,-0.0,0.0,0.0,1.0,0.0,0.0,0.0,0.0,-1.0,1,0,0,0,0,0,0
35306750,0.0,-0.0,0.0,0.0,1.0,0.0,0.0,0.0,0.0,-1.0,1,0,0,0,0,0,0
35411740,0.0,-0.0,0.0,0.0,1.0,0.0,0.0,0.0,0.0,-1.0,1,0,0,0,0,0,0
35516708,0.0,-0.0,0.0,0.0,1.0,0.0,0.0,0.0,0.0,-1.0,1,0,0,0,0,0,0
35621707,0.0,-0.0,0.0,0.0,1.0,0.0,0.0,0.0,0.0,-1.0,1,0,0,0,0,0,0
35726704,0.0,-0.0,0.0,0.0,1.0,0.0,0.0,0.0,0.0,-1.0,1,0,0,0,0,0,0
35831753,0.0,-0.0,0.0,0.0,1.0,0.0,0.0,0.0,0.0,-1.0,1,0,0,0,0,0,0
35915740,0.0,-0.0,0.0,0.0,1.0,0.0,0.0,0.0,0.0,-1.0,1,0,0,0,0,0,0
36020706,0.0,-0.0,0.0,0.0,1.0,0.0,0.0,0.0,0.0,-1.0,1,0,0,0,0,0,0
36125716,0.0,-0.0,0.0,0.0,1.0,0.0,0.0,0.0,0.0,-1.0,1,0,0,0,0,0,0
36230703,0.0,-0.0,0.0,0.0,1.0,0.0,0.0,0.0,0.0,-1.0,1,0,0,0,0,0,0
36335739,0.0,-0.0,0.0,0.0,1.0,0.0,0.0,0.0,0.0,-1.0,1,0,0,0,0,0,0
36440707,0.0,-0.0,0.0,0.0,1.0,0.0,0.0,0.0,0.0,-1.0,1,0,0,0,0,0,0
36524780,0.0,-0.0,0.0,0.0,1.0,0.0,0.0,0.0,0.0,-1.0,1,0,0,0,0,0,0
36629706,0.0,-0.0,0.0,0.0,1.0,0.0,0.0,0.0,0.0,-1.0,1,0,0,0,0,0,0
36734705,0.0,-0.0,0.0,0.0,1.0,0.0,0.0,0.0,0.0,-1.0,1,0,0,0,0,0,0
36839829,0.0,-0.0,0.0,0.0,1.0,0.0,0.0,0.0,0.0,-1.0,1,0,0,0,0,0,0
36944707,0.0,-0.0,0.0,0.0,1.0,0.0,0.0,0.0,0.0,-1.0,1,0,0,0,0,0,0
37049706,0.0,-0.0,0.0,0.0,1.0,0.0,0.0,0.0,0.0,-1.0,1,0,0,0,0,0,0
37133706,0.0,-0.0,0.0,0.0,1.0,0.0,0.0,0.0,0.0,-1.0,1,0,0,0,0,0,0
37238706,0.0,-0.0,0.0,0.0,1.0,0.0,0.0,0.0,0.0,-1.0,1,0,0,0,0,0,0
37343739,0.0,-0.0,0.0,0.0,1.0,0.0,0.0,0.0,0.0,-1.0,1,0,0,0,0,0,0
37448707,0.0,-0.0,0.0,0.0,1.0,0.0,0.0,0.0,0.0,-1.0,1,0,0,0,0,0,0
37553712,0.0,-0.0,0.0,0.0,1.0,0.0,0.0,0.0,0.0,-1.0,1,0,0,0,0,0,0
37658711,0.0,-0.0,0.0,0.0,1.0,0.0,0.0,0.0,0.0,-1.0,1,0,0,0,0,0,0
37742711,0.0,-0.0,0.0,0.0,1.0,0.0,0.0,0.0,0.0,-1.0,1,0,0,0,0,0,0
37847909,0.0,-0.0,0.0,0.0,1.0,0.0,0.0,0.0,0.0,-1.0,1,0,0,0,0,0,0
37952724,0.0,-0.0,0.0,0.0,1.0,0.0,0.0,0.0,0.0,-1.0,1,0,0,0,0,0,0
38057705,0.0,-0.0,0.0,0.0,1.0,0.0,0.0,0.0,0.0,-1.0,1,0,0,0,0,0,0
38162707,0.0,-0.0,0.0,0.0,1.0,0.0,0.0,0.0,0.0,-1.0,1,0,0,0,0,0,0
38267909,0.0,-0.0,0.0,0.0,1.0,0.0,0.0,0.0,0.0,-1.0,1,0,0,0,0,0,0
38351961,0.0,-0.0,0.0,0.0,1.0,0.0,0.0,0.0,0.0,-1.0,1,0,0,0,0,0,0
38456705,0.0,-0.0,0.0,0.0,1.0,0.0,0.0,0.0,0.0,-1.0,1,0,0,0,0,0,0
38561706,0.0,-0.0,0.0,0.0,1.0,0.0,0.0,0.0,0.0,-1.0,1,0,0,0,0,0,0
38666705,0.0,-0.0,0.0,0.0,1.0,0.0,0.0,0.0,0.0,-1.0,1,0,0,0,0,0,0
38771729,0.0,-0.0,0.0,0.0,1.0,0.0,0.0,0.0,0.0,-1.0,1,0,0,0,0,0,0
38876712,0.0,-0.0,0.0,0.0,1.0,0.0,0.0,0.0,0.0,-1.0,1,0,0,0,0,0,0
38960715,0.0,-0.0,0.0,0.0,1.0,0.0,0.0,0.0,0.0,-1.0,1,0,0,0,0,0,0
39065708,0.0,-0.0,0.0,0.0,1.0,0.0,0.0,0.0,0.0,-1.0,1,0,0,0,0,0,0
39170707,0.0,-0.0,0.0,0.0,1.0,0.0,0.0,0.0,0.0,-1.0,1,0,0,0,0,0,0
39275718,0.0,-0.0,0.0,0.0,1.0,0.0,0.0,0.0,0.0,-1.0,1,0,0,0,0,0,0
39380719,0.0,-0.0,0.0,0.0,1.0,0.0,0.0,0.0,0.0,-1.0,1,0,0,0,0,0,0
39485708,0.0,-0.0,0.0,0.0,1.0,0.0,0.0,0.0,0.0,-1.0,1,0,0,0,0,0,0
39569708,0.0,-0.0,0.0,0.0,1.0,0.0,0.0,0.0,0.0,-1.0,1,0,0,0,0,0,0
39674705,0.0,-0.0,0.0,0.0,1.0,0.0,0.0,0.0,0.0,-1.0,1,0,0,0,0,0,0
39779725,0.0,-0.0,0.0,0.0,1.0,0.0,0.0,0.0,0.0,-1.0,1,0,0,0,0,0,0
39884713,0.0,-0.0,0.0,0.0,1.0,0.0,0.0,0.0,0.0,-1.0,1,0,0,0,0,0,0
39989704,0.0,-0.0,0.0,0.0,1.0,0.0,0.0,0.0,0.0,-1.0,1,0,0,0,0,0,0
40094704,0.0,-0.0,0.0,0.0,1.0,0.0,0.0,0.0,0.0,-1.0,1,0,0,0,0,0,0
40178707,0.0,-0.0,0.0,0.0,1.0,0.0,0.0,0.0,0.0,-1.0,1,0,0,0,0,0,0
40283735,0.0,-0.0,0.0,0.0,1.0,0.0,0.0,0.0,0.0,-1.0,1,0,0,0,0,0,0
40388709,0.0,-0.0,0.0,0.0,1.0,0.0,0.0,0.0,0.0,-1.0,1,0,0,0,0,0,0
40493708,0.0,-0.0,0.0,0.0,1.0,0.0,0.0,0.0,0.0,-1.0,1,0,0,0,0,0,0
40598706,0.0,-0.0,0.0,0.0,1.0,0.0,0.0,0.0,0.0,-1.0,1,0,0,0,0,0,0
40703736,0.0,-0.0,0.0,0.0,1.0,0.0,0.0,0.0,0.0,-1.0,1,0,0,0,0,0,0
40787733,0.0,-0.0,0.0,0.0,1.0,0.0,0.0,0.0,0.0,-1.0,1,0,0,0,0,0,0
40892707,0.0,-0.0,0.0,0.0,1.0,0.0,0.0,0.0,0.0,-1.0,1,0,0,0,0,0,0
40997747,0.0,-0.0,0.0,0.0,1.0,0.0,0.0,0.0,0.0,-1.0,1,0,0,0,0,0,0
41102708,0.0,-0.0,0.0,0.0,1.0,0.0,0.0,0.0,0.0,-1.0,1,0,0,0,0,0,0
41207738,0.0,-0.0,0.0,0.0,1.0,0.0,0.0,0.0,0.0,-1.0,1,0,0,0,0,0,0
41312726,0.0,-0.0,0.0,0.0,1.0,0.0,0.0,0.0,0.0,-1.0,1,0,0,0,0,0,0
41396707,0.0,-0.0,0.0,0.0,1.0,0.0,0.0,0.0,0.0,-1.0,1,0,0,0,0,0,0
41501707,0.0,-0.0,0.0,0.0,1.0,0.0,0.0,0.0,0.0,-1.0,1,0,0,0,0,0,0
41606707,0.0,-0.0,0.0,0.0,1.0,0.0,0.0,0.0,0.0,-1.0,1,0,0,0,0,0,0
41711762,0.0,-0.0,0.0,0.0,1.0,0.0,0.0,0.0,0.0,-1.0,1,0,0,0,0,0,0
41816708,0.0,-0.0,0.0,0.0,1.0,0.0,0.0,0.0,0.0,-1.0,1,0,0,0,0,0,0
41921706,0.0,-0.0,0.0,0.0,1.0,0.0,0.0,0.0,0.0,-1.0,1,0,0,0,0,0,0
42005705,0.0,-0.0,0.0,0.0,1.0,0.0,0.0,0.0,0.0,-1.0,1,0,0,0,0,0,0
42110705,0.0,-0.0,0.0,0.0,1.0,0.0,0.0,0.0,0.0,-1.0,1,0,0,0,0,0,0
42215740,0.0,-0.0,0.0,0.0,1.0,0.0,0.0,0.0,0.0,-1.0,1,0,0,0,0,0,0
42320710,0.0,-0.0,0.0,0.0,1.0,0.0,0.0,0.0,0.0,-1.0,1,0,0,0,0,0,0
42425707,0.0,-0.0,0.0,0.0,1.0,0.0,0.0,0.0,0.0,-1.0,1,0,0,0,0,0,0
42530709,0.0,-0.0,0.0,0.0,1.0,0.0,0.0,0.0,0.0,-1.0,1,0,0,0,0,0,0
42614773,0.0,-0.0,0.0,0.0,1.0,0.0,0.0,0.0,0.0,-1.0,1,0,0,0,0,0,0
42719740,0.0,-0.0,0.0,0.0,1.0,0.0,0.0,0.0,0.0,-1.0,1,0,0,0,0,0,0
42824706,0.0,-0.0,0.0,0.0,1.0,0.0,0.0,0.0,0.0,-1.0,1,0,0,0,0,0,0
42929706,0.0,-0.0,0.0,0.0,1.0,0.0,0.0,0.0,0.0,-1.0,1,0,0,0,0,0,0
43034716,0.0,-0.0,0.0,0.0,1.0,0.0,0.0,0.0,0.0,-1.0,1,0,0,0,0,0,0
43139740,0.0,-0.0,0.0,0.0,1.0,0.0,0.0,0.0,0.0,-1.0,1,0,0,0,0,0,0
43223740,0.0,-0.0,0.0,0.0,1.0,0.0,0.0,0.0,0.0,-1.0,1,0,0,0,0,0,0
43328710,0.0,-0.0,0.0,0.0,1.0,0.0,0.0,0.0,0.0,-1.0,1,0,0,0,0,0,0
43433720,0.0,-0.0,0.0,0.0,1.0,0.0,0.0,0.0,0.0,-1.0,1,0,0,0,0,0,0
43538707,0.0,-0.0,0.0,0.0,1.0,0.0,0.0,0.0,0.0,-1.0,1,0,0,0,0,0,0
43643926,0.0,-0.0,0.0,0.0,1.0,0.0,0.0,0.0,0.0,-1.0,1,0,0,0,0,0,0
43748706,0.0,-0.0,0.0,0.0,1.0,0.0,0.0,0.0,0.0,-1.0,1,0,0,0,0,0,0
43832718,0.0,-0.0,0.0,0.0,1.0,0.0,0.0,0.0,0.0,-1.0,1,0,0,0,0,0,0
43937706,0.0,-0.0,0.0,0.0,1.0,0.0,0.0,0.0,0.0,-1.0,1,0,0,0,0,0,0
44042707,0.0,-0.0,0.0,0.0,1.0,0.0,0.0,0.0,0.0,-1.0,1,0,0,0,0,0,0
44147915,0.0,-0.0,0.0,0.0,1.0,0.0,0.0,0.0,0.0,-1.0,1,0,0,0,0,0,0
44252719,0.0,-0.0,0.0,0.0,1.0,0.0,0.0,0.0,0.0,-1.0,1,0,0,0,0,0,0
44357708,0.0,-0.0,0.0,0.0,1.0,0.0,0.0,0.0,0.0,-1.0,1,0,0,0,0,0,0
44441705,0.0,-0.0,0.0,0.0,1.0,0.0,0.0,0.0,0.0,-1.0,1,0,0,0,0,0,0
44546706,0.0,-0.0,0.0,0.0,1.0,0.0,0.0,0.0,0.0,-1.0,1,0,0,0,0,0,0
44651719,0.0,-0.0,0.0,0.0,1.0,0.0,0.0,0.0,0.0,-1.0,1,0,0,0,0,0,0
44756718,0.0,-0.0,0.0,0.0,1.0,0.0,0.0,0.0,0.0,-1.0,1,0,0,0,0,0,0
44861711,0.0,-0.0,0.0,0.0,1.0,0.0,0.0,0.0,0.0,-1.0,1,0,0,0,0,0,0
44966705,0.0,-0.0,0.0,0.0,1.0,0.0,0.0,0.0,0.0,-1.0,1,0,0,0,0,0,0
45050712,0.0,-0.0,0.0,0.0,1.0,0.0,0.0,0.0,0.0,-1.0,1,0,0,0,0,0,0
45155734,0.0,-0.0,0.0,0.0,1.0,0.0,0.0,0.0,0.0,-1.0,1,0,0,0,0,0,0
45260713,0.0,-0.0,0.0,0.0,1.0,0.0,0.0,0.0,0.0,-1.0,1,0,0,0,0,0,0
45365707,0.0,-0.0,0.0,0.0,1.0,0.0,0.0,0.0,0.0,-1.0,1,0,0,0,0,0,0
45470705,0.0,-0.0,0.0,0.0,1.0,0.0,0.0,0.0,0.0,-1.0,1,0,0,0,0,0,0
45575723,0.0,-0.0,0.0,0.0,1.0,0.0,0.0,0.0,0.0,-1.0,1,0,0,0,0,0,0
45659720,0.0,-0.0,0.0,0.0,1.0,0.0,0.0,0.0,0.0,-1.0,1,0,0,0,0,0,0
45764773,0.0,-0.0,0.0,0.0,1.0,0.0,0.0,0.0,0.0,-1.0,1,0,0,0,0,0,0
45869742,0.0,-0.0,0.0,0.0,1.0,0.0,0.0,0.0,0.0,-1.0,1,0,0,0,0,0,0
45974773,0.0,-0.0,0.0,0.0,1.0,0.0,0.0,0.0,0.0,-1.0,1,0,0,0,0,0,0
46079734,0.0,-0.0,0.0,0.0,1.0,0.0,0.0,0.0,0.0,-1.0,1,0,0,0,0,0,0
46184707,0.0,-0.0,0.0,0.0,1.0,0.0,0.0,0.0,0.0,-1.0,1,0,0,0,0,0,0
46268705,0.0,-0.0,0.0,0.0,1.0,0.0,0.0,0.0,0.0,-1.0,1,0,0,0,0,0,0
46373804,0.0,-0.0,0.0,0.0,1.0,0.0,0.0,0.0,0.0,-1.0,1,0,0,0,0,0,0
46478713,0.0,-0.0,0.0,0.0,1.0,0.0,0.0,0.0,0.0,-1.0,1,0,0,0,0,0,0
46583743,0.0,-0.0,0.0,0.0,1.0,0.0,0.0,0.0,0.0,-1.0,1,0,0,0,0,0,0
46688704,0.0,-0.0,0.0,0.0,1.0,0.0,0.0,0.0,0.0,-1.0,1,0,0,0,0,0,0
46793817,0.0,-0.0,0.0,0.0,1.0,0.0,0.0,0.0,0.0,-1.0,1,0,0,0,0,0,0
46877742,0.0,-0.0,0.0,0.0,1.0,0.0,0.0,0.0,0.0,-1.0,1,0,0,0,0,0,0
46982705,0.0,-0.0,0.0,0.0,1.0,0.0,0.0,0.0,0.0,-1.0,1,0,0,0,0,0,0
47087736,0.0,-0.0,0.0,0.0,1.0,0.0,0.0,0.0,0.0,-1.0,1,0,0,0,0,0,0
47192708,0.0,-0.0,0.0,0.0,1.0,0.0,0.0,0.0,0.0,-1.0,1,0,0,0,0,0,0
47297706,0.0,-0.0,0.0,0.0,1.0,0.0,0.0,0.0,0.0,-1.0,1,0,0,0,0,0,0
47402704,0.0,-0.0,0.0,0.0,1.0,0.0,0.0,0.0,0.0,-1.0,1,0,0,0,0,0,0
47486707,0.0,-0.0,0.0,0.0,1.0,0.0,0.0,0.0,0.0,-1.0,1,0,0,0,0,0,0
47591742,0.0,-0.0,0.0,0.0,1.0,0.0,0.0,0.0,0.0,-1.0,1,0,0,0,0,0,0
47696715,0.0,-0.0,0.0,0.0,1.0,0.0,0.0,0.0,0.0,-1.0,1,0,0,0,0,0,0
47801705,0.0,-0.0,0.0,0.0,1.0,0.0,0.0,0.0,0.0,-1.0,1,0,0,0,0,0,0
47906712,0.0,-0.0,0.0,0.0,1.0,0.0,0.0,0.0,0.0,-1.0,1,0,0,0,0,0,0
48011736,0.0,-0.0,0.0,0.0,1.0,0.0,0.0,0.0,0.0,-1.0,1,0,0,0,0,0,0
48095742,0.0,-0.0,0.0,0.0,1.0,0.0,0.0,0.0,0.0,-1.0,1,0,0,0,0,0,0
48200706,0.0,-0.0,0.0,0.0,1.0,0.0,0.0,0.0,0.0,-1.0,1,0,0,0,0,0,0
48305704,0.0,-0.0,0.0,0.0,1.0,0.0,0.0,0.0,0.0,-1.0,1,0,0,0,0,0,0
48410708,0.0,-0.0,0.0,0.0,1.0,0.0,0.0,0.0,0.0,-1.0,1,0,0,0,0,0,0
48515740,0.0,-0.0,0.0,0.0,1.0,0.0,0.0,0.0,0.0,-1.0,1,0,0,0,0,0,0
48620718,0.0,-0.0,0.0,0.0,1.0,0.0,0.0,0.0,0.0,-1.0,1,0,0,0,0,0,0
48704708,0.0,-0.0,0.0,0.0,1.0,0.0,0.0,0.0,0.0,-1.0,1,0,0,0,0,0,0
48809709,0.0,-0.0,0.0,0.0,1.0,0.0,0.0,0.0,0.0,-1.0,1,0,0,0,0,0,0
48914775,0.0,-0.0,0.0,0.0,1.0,0.0,0.0,0.0,0.0,-1.0,1,0,0,0,0,0,0
49019741,0.0,-0.0,0.0,0.0,1.0,0.0,0.0,0.0,0.0,-1.0,1,0,0,0,0,0,0
49124707,0.0,-0.0,0.0,0.0,1.0,0.0,0.0,0.0,0.0,-1.0,1,0,0,0,0,0,0
49229710,0.0,-0.0,0.0,0.0,1.0,0.0,0.0,0.0,0.0,-1.0,1,0,0,0,0,0,0
49313717,0.0,-0.0,0.0,0.0,1.0,0.0,0.0,0.0,0.0,-1.0,1,0,0,0,0,0,0
49418708,0.0,-0.0,0.0,0.0,1.0,0.0,0.0,0.0,0.0,-1.0,1,0,0,0,0,0,0
49523917,0.0,-0.0,0.0,0.0,1.0,0.0,0.0,0.0,0.0,-1.0,1,0,0,0,0,0,0
49628707,0.0,-0.0,0.0,0.0,1.0,0.0,0.0,0.0,0.0,-1.0,1,0,0,0,0,0,0
49733704,0.0,-0.0,0.0,0.0,1.0,0.0,0.0,0.0,0.0,-1.0,1,0,0,0,0,0,0
49838705,0.0,-0.0,0.0,0.0,1.0,0.0,0.0,0.0,0.0,-1.0,1,0,0,0,0,0,0
49922705,0.0,-0.0,0.0,0.0,1.0,0.0,0.0,0.0,0.0,-1.0,1,0,0,0,0,0,0
50027910,0.0,-0.0,0.0,0.0,1.0,0.0,0.0,0.0,0.0,-1.0,1,0,0,0,0,0,0
50132719,0.0,-0.0,0.0,0.0,1.0,0.0,0.0,0.0,0.0,-1.0,1,0,0,0,0,0,0
50237709,0.0,-0.0,0.0,0.0,1.0,0.0,0.0,0.0,0.0,-1.0,1,0,0,0,0,0,0
50342710,0.0,-0.0,0.0,0.0,1.0,0.0,0.0,0.0,0.0,-1.0,1,0,0,0,0,0,0
50447721,0.0,-0.0,0.0,0.0,1.0,0.0,0.0,0.0,0.0,-1.0,1,0,0,0,0,0,0
50531724,0.0,-0.0,0.0,0.0,1.0,0.0,0.0,0.0,0.0,-1.0,1,0,0,0,0,0,0
50636712,0.0,-0.0,0.0,0.0,1.0,0.0,0.0,0.0,0.0,-1.0,1,0,0,0,0,0,0
50741708,0.0,-0.0,0.0,0.0,1.0,0.0,0.0,0.0,0.0,-1.0,1,0,0,0,0,0,0
50846705,0.0,-0.0,0.0,0.0,1.0,0.0,0.0,0.0,0.0,-1.0,1,0,0,0,0,0,0
50951728,0.0,-0.0,0.0,0.0,1.0,0.0,0.0,0.0,0.0,-1.0,1,0,0,0,0,0,0
51056703,0.0,-0.0,0.0,0.0,1.0,0.0,0.0,0.0,0.0,-1.0,1,0,0,0,0,0,0
51140717,0.0,-0.0,0.0,0.0,1.0,0.0,0.0,0.0,0.0,-1.0,1,0,0,0,0,0,0
51245708,0.0,-0.0,0.0,0.0,1.0,0.0,0.0,0.0,0.0,-1.0,1,0,0,0,0,0,0
51350711,0.0,-0.0,0.0,0.0,1.0,0.0,0.0,0.0,0.0,-1.0,1,0,0,0,0,0,0
51455721,0.0,-0.0,0.0,0.0,1.0,0.0,0.0,0.0,0.0,-1.0,1,0,0,0,0,0,0
51560715,0.0,-0.0,0.0,0.0,1.0,0.0,0.0,0.0,0.0,-1.0,1,0,0,0,0,0,0
51665754,0.0,-0.0,0.0,0.0,1.0,0.0,0.0,0.0,0.0,-1.0,1,0,0,0,0,0,0
51749741,0.0,-0.0,0.0,0.0,1.0,0.0,0.0,0.0,0.0,-1.0,1,0,0,0,0,0,0
51854708,0.0,-0.0,0.0,0.0,1.0,0.0,0.0,0.0,0.0,-1.0,1,0,0,0,0,0,0
51959739,0.0,-0.0,0.0,0.0,1.0,0.0,0.0,0.0,0.0,-1.0,1,0,0,0,0,0,0
52064771,0.0,-0.0,0.0,0.0,1.0,0.0,0.0,0.0,0.0,-1.0,1,0,0,0,0,0,0
52169739,0.0,-0.0,0.0,0.0,1.0,0.0,0.0,0.0,0.0,-1.0,1,0,0,0,0,0,0
52274778,0.0,-0.0,0.0,0.0,1.0,0.0,0.0,0.0,0.0,-1.0,1,0,0,0,0,0,0
52358705,0.0,-0.0,0.0,0.0,1.0,0.0,0.0,0.0,0.0,-1.0,1,0,0,0,0,0,0
52463742,0.0,-0.0,0.0,0.0,1.0,0.0,0.0,0.0,0.0,-1.0,1,0,0,0,0,0,0
52568706,0.0,-0.0,0.0,0.0,1.0,0.0,0.0,0.0,0.0,-1.0,1,0,0,0,0,0,0
52673738,0.0,-0.0,0.0,0.0,1.0,0.0,0.0,0.0,0.0,-1.0,1,0,0,0,0,0,0
52778705,0.0,-0.0,0.0,0.0,1.0,0.0,0.0,0.0,0.0,-1.0,1,0,0,0,0,0,0
52883740,0.0,-0.0,0.0,0.0,1.0,0.0,0.0,0.0,0.0,-1.0,1,0,0,0,0,0,0
52967733,0.0,-0.0,0.0,0.0,1.0,0.0,0.0,0.0,0.0,-1.0,1,0,0,0,0,0,0
53072717,0.0,-0.0,0.0,0.0,1.0,0.0,0.0,0.0,0.0,-1.0,1,0,0,0,0,0,0
53177707,0.0,-0.0,0.0,0.0,1.0,0.0,0.0,0.0,0.0,-1.0,1,0,0,0,0,0,0
53283142,0.0,-0.0,0.0,0.0,1.0,0.0,0.0,0.0,0.0,-1.0,1,0,0,0,0,0,0
53387741,0.0,-0.0,0.0,0.0,1.0,0.0,0.0,0.0,0.0,-1.0,1,0,0,0,0,0,0
53492717,0.0,-0.0,0.0,0.0,1.0,0.0,0.0,0.0,0.0,-1.0,1,0,0,0,0,0,0
53576712,0.0,-0.0,0.0,0.0,1.0,0.0,0.0,0.0,0.0,-1.0,1,0,0,0,0,0,0
53681717,0.0,-0.0,0.0,0.0,1.0,0.0,0.0,0.0,0.0,-1.0,1,0,0,0,0,0,0
53786710,0.0,-0.0,0.0,0.0,1.0,0.0,0.0,0.0,0.0,-1.0,1,0,0,0,0,0,0
53891829,0.0,-0.0,0.0,0.0,1.0,0.0,0.0,0.0,0.0,-1.0,1,0,0,0,0,0,0
53996708,0.0,-0.0,0.0,0.0,1.0,0.0,0.0,0.0,0.0,-1.0,1,0,0,0,0,0,0
54101708,0.0,-0.0,0.0,0.0,1.0,0.0,0.0,0.0,0.0,-1.0,1,0,0,0,0,0,0
54185706,0.0,-0.0,0.0,0.0,1.0,0.0,0.0,0.0,0.0,-1.0,1,0,0,0,0,0,0
54290707,0.0,-0.0,0.0,0.0,1.0,0.0,0.0,0.0,0.0,-1.0,1,0,0,0,0,0,0
54395746,0.0,-0.0,0.0,0.0,1.0,0.0,0.0,0.0,0.0,-1.0,1,0,0,0,0,0,0
54500709,0.0,-0.0,0.0,0.0,1.0,0.0,0.0,0.0,0.0,-1.0,1,0,0,0,0,0,0
54605707,0.0,-0.0,0.0,0.0,1.0,0.0,0.0,0.0,0.0,-1.0,1,0,0,0,0,0,0
54710725,0.0,-0.0,0.0,0.0,1.0,0.0,0.0,0.0,0.0,-1.0,1,0,0,0,0,0,0
54794707,0.0,-0.0,0.0,0.0,1.0,0.0,0.0,0.0,0.0,-1.0,1,0,0,0,0,0,0
54899993,0.0,-0.0,0.0,0.0,1.0,0.0,0.0,0.0,0.0,-1.0,1,0,0,0,0,0,0
55004772,0.0,-0.0,0.0,0.0,1.0,0.0,0.0,0.0,0.0,-1.0,1,0,0,0,0,0,0
55109707,0.0,-0.0,0.0,0.0,1.0,0.0,0.0,0.0,0.0,-1.0,1,0,0,0,0,0,0
55214776,0.0,-0.0,0.0,0.0,1.0,0.0,0.0,0.0,0.0,-1.0,1,0,0,0,0,0,0
55319913,0.0,-0.0,0.0,0.0,1.0,0.0,0.0,0.0,0.0,-1.0,1,0,0,0,0,0,0
55403907,0.0,-0.0,0.0,0.0,1.0,0.0,0.0,0.0,0.0,-1.0,1,0,0,0,0,0,0
55508708,0.0,-0.0,0.0,0.0,1.0,0.0,0.0,0.0,0.0,-1.0,1,0,0,0,0,0,0
55613707,0.0,-0.0,0.0,0.0,1.0,0.0,0.0,0.0,0.0,-1.0,1,0,0,0,0,0,0
55718709,0.0,-0.0,0.0,0.0,1.0,0.0,0.0,0.0,0.0,-1.0,1,0,0,0,0,0,0
55823918,0.0,-0.0,0.0,0.0,1.0,0.0,0.0,0.0,0.0,-1.0,1,0,0,0,0,0,0
55928709,0.0,-0.0,0.0,0.0,1.0,0.0,0.0,0.0,0.0,-1.0,1,0,0,0,0,0,0
56012746,0.0,-0.0,0.0,0.0,1.0,0.0,0.0,0.0,0.0,-1.0,1,0,0,0,0,0,0
56117709,0.0,-0.0,0.0,0.0,1.0,0.0,0.0,0.0,0.0,-1.0,1,0,0,0,0,0,0
56222705,0.0,-0.0,0.0,0.0,1.0,0.0,0.0,0.0,0.0,-1.0,1,0,0,0,0,0,0
56327736,0.0,-0.0,0.0,0.0,1.0,0.0,0.0,0.0,0.0,-1.0,1,0,0,0,0,0,0
56432715,0.0,-0.0,0.0,0.0,1.0,0.0,0.0,0.0,0.0,-1.0,1,0,0,0,0,0,0
56537706,0.0,-0.0,0.0,0.0,1.0,0.0,0.0,0.0,0.0,-1.0,1,0,0,0,0,0,0
56621719,0.0,-0.0,0.0,0.0,1.0,0.0,0.0,0.0,0.0,-1.0,1,0,0,0,0,0,0
56726708,0.0,-0.0,0.0,0.0,1.0,0.0,0.0,0.0,0.0,-1.0,1,0,0,0,0,0,0
56831717,0.0,-0.0,0.0,0.0,1.0,0.0,0.0,0.0,0.0,-1.0,1,0,0,0,0,0,0
56936704,0.0,-0.0,0.0,0.0,1.0,0.0,0.0,0.0,0.0,-1.0,1,0,0,0,0,0,0
57041706,0.0,-0.0,0.0,0.0,1.0,0.0,0.0,0.0,0.0,-1.0,1,0,0,0,0,0,0
57146704,0.0,-0.0,0.0,0.0,1.0,0.0,0.0,0.0,0.0,-1.0,1,0,0,0,0,0,0
57230707,0.0,-0.0,0.0,0.0,1.0,0.0,0.0,0.0,0.0,-1.0,1,0,0,0,0,0,0
57335727,0.0,-0.0,0.0,0.0,1.0,0.0,0.0,0.0,0.0,-1.0,1,0,0,0,0,0,0
57440705,0.0,-0.0,0.0,0.0,1.0,0.0,0.0,0.0,0.0,-1.0,1,0,0,0,0,0,0
57545826,0.0,-0.0,0.0,0.0,1.0,0.0,0.0,0.0,0.0,-1.0,1,0,0,0,0,0,0
57653950,0.0,-0.0,0.16994284,0.0,0.9963921,0.0,0.0,0.084869206,0.0,-1.0,1,0,0,0,0,0,0
57758417,0.0,-0.0,0.16974142,0.0,0.99640065,0.0,0.0,0.08476886,0.0,-1.0,1,0,0,0,0,0,0
57857833,0.0,-0.0,0.16956326,0.0,0.99640816,0.0,0.0,0.0846801,0.0,-1.0,1,0,0,0,0,0,0
57961908,0.0,-0.0,0.1693291,0.0,0.9964181,0.0,0.0,0.08456344,0.0,-1.0,1,0,0,0,0,0,0
58062268,0.0,-0.0,0.16886961,0.0,0.9964375,0.0,0.0,0.084334515,0.0,-1.0,1,0,0,0,0,0,0
58161876,0.0,-0.0,0.16831908,0.0,0.9964607,0.0,0.0,0.08406022,0.0,-1.0,1,0,0,0,0,0,0
58265810,0.0,-0.0,0.16802147,0.0,0.9964732,0.0,0.0,0.08391195,0.0,-1.0,1,0,0,0,0,0,0
58367288,0.0,-0.0,0.16781053,0.0,0.996482,0.0,0.0,0.08380685,0.0,-1.0,1,0,0,0,0,0,0
58466746,0.0,-0.0,0.16788474,0.0,0.9964789,0.0,0.0,0.08384382,0.0,-1.0,1,0,0,0,0,0,0
58570644,0.0,-0.0,0.16792242,0.0,0.9964773,0.0,0.0,0.083862595,0.0,-1.0,1,0,0,0,0,0,0
58671173,0.0,0.0,0.16679378,0.0,1.0,0.0,0.0,0.0,0.0,-1.0,1,0,0,0,0,0,0
58770678,0.0,0.0,0.1654784,0.0,1.0,0.0,0.0,0.0,0.0,-1.0,1,0,0,0,0,0,0
58874688,0.0,0.0,0.16415241,0.0,1.0,0.0,0.0,0.0,0.0,-1.0,1,0,0,0,0,0,0
58975436,0.0,0.0,0.16280533,0.0,1.0,0.0,0.0,0.0,0.0,-1.0,1,0,0,0,0,0,0
59074781,0.0,0.0,0.16152197,0.0,1.0,0.0,0.0,0.0,0.0,-1.0,1,0,0,0,0,0,0
59178677,0.0,0.0,0.16030519,0.0,1.0,0.0,0.0,0.0,0.0,-1.0,1,0,0,0,0,0,0
59278967,0.0,0.0,0.15954281,0.0,1.0,0.0,0.0,0.0,0.0,-1.0,1,0,0,0,0,0,0
59383136,0.0,0.0,0.15887007,0.0,1.0,0.0,0.0,0.0,0.0,-1.0,1,0,0,0,0,0,0
59482713,0.0,0.0,0.15788984,0.0,1.0,0.0,0.0,0.0,0.0,-1.0,1,0,0,0,0,0,0
59582951,0.0,0.0,0.1567443,0.0,1.0,0.0,0.0,0.0,0.0,-1.0,1,0,0,0,0,0,0
59687918,0.0,0.0,0.1556965,0.0,1.0,0.0,0.0,0.0,0.0,-1.0,1,0,0,0,0,0,0
59787571,0.0,0.0,0.15503491,0.0,1.0,0.0,0.0,0.0,0.0,-1.0,1,0,0,0,0,0,0
59887896,0.0,0.0,0.15455832,0.0,1.0,0.0,0.0,0.0,0.0,-1.0,1,0,0,0,0,0,0
59992164,0.0,0.0,0.154412,0.0,1.0,0.0,0.0,0.0,0.0,-1.0,1,0,0,0,0,0,0
60091476,0.0,0.0,0.15456793,0.0,1.0,0.0,0.0,0.0,0.0,-1.0,1,0,0,0,0,0,0
60192039,0.0,0.0,0.15485154,0.0,1.0,0.0,0.0,0.0,0.0,-1.0,1,0,0,0,0,0,0
60296012,0.0,0.0,0.15518035,0.0,1.0,0.0,0.0,0.0,0.0,-1.0,1,0,0,0,0,0,0
60395538,0.0,0.0,0.15550967,0.0,1.0,0.0,0.0,0.0,0.0,-1.0,1,0,0,0,0,0,0
60495984,0.0,0.0,0.1558503,0.0,1.0,0.0,0.0,0.0,0.0,-1.0,1,0,0,0,0,0,0
60600001,0.0,0.0,0.1561583,0.0,1.0,0.0,0.0,0.0,0.0,-1.0,1,0,0,0,0,0,0
60699503,0.0,0.0,0.15637664,0.0,1.0,0.0,0.0,0.0,0.0,-1.0,1,0,0,0,0,0,0
60803510,0.0,0.0,0.15662256,0.0,1.0,0.0,0.0,0.0,0.0,-1.0,1,0,0,0,0,0,0
60904864,0.0,0.0,0.15665661,0.0,1.0,0.0,0.0,0.0,0.0,-1.0,1,0,0,0,0,0,0
61004269,0.0,0.0,0.15663795,0.0,1.0,0.0,0.0,0.0,0.0,-1.0,1,0,0,0,0,0,0
61108263,0.0,0.0,0.15661179,0.0,1.0,0.0,0.0,0.0,0.0,-1.0,1,0,0,0,0,0,0
61208537,0.0,0.0,0.15664531,0.0,1.0,0.0,0.0,0.0,0.0,-1.0,1,0,0,0,0,0,0
61308253,0.0,0.0,0.15671109,0.0,1.0,0.0,0.0,0.0,0.0,-1.0,1,0,0,0,0,0,0
61412248,0.0,0.0,0.15679307,0.0,1.0,0.0,0.0,0.0,0.0,-1.0,1,0,0,0,0,0,0
61512610,0.0,0.0,0.15692346,0.0,1.0,0.0,0.0,0.0,0.0,-1.0,1,0,0,0,0,0,0
61612248,0.0,0.0,0.15714426,0.0,1.0,0.0,0.0,0.0,0.0,-1.0,1,0,0,0,0,0,0
61716562,0.0,0.0,0.15750533,0.0,1.0,0.0,0.0,0.0,0.0,-1.0,1,0,0,0,0,0,0
61817547,0.0,0.0,0.15792263,0.0,1.0,0.0,0.0,0.0,0.0,-1.0,1,0,0,0,0,0,0
61917190,0.0,0.0,0.15821277,0.0,1.0,0.0,0.0,0.0,0.0,-1.0,1,0,0,0,0,0,0
62021083,0.0,0.0,0.15847608,0.0,1.0,0.0,0.0,0.0,0.0,-1.0,1,0,0,0,0,0,0
62121486,0.0,0.0,0.1587139,0.0,1.0,0.0,0.0,0.0,0.0,-1.0,1,0,0,0,0,0,0
62221087,0.0,0.0,0.15883134,0.0,1.0,0.0,0.0,0.0,0.0,-1.0,1,0,0,0,0,0,0
62325115,0.0,0.0,0.158799,0.0,1.0,0.0,0.0,0.0,0.0,-1.0,1,0,0,0,0,0,0
62425753,0.0,0.0,0.15871245,0.0,1.0,0.0,0.0,0.0,0.0,-1.0,1,0,0,0,0,0,0
62529497,0.0,0.0,0.15862711,0.0,1.0,0.0,0.0,0.0,0.0,-1.0,1,0,0,0,0,0,0
62629079,0.0,0.0,0.1586228,0.0,1.0,0.0,0.0,0.0,0.0,-1.0,1,0,0,0,0,0,0
62729530,0.0,0.0,0.15856795,0.0,1.0,0.0,0.0,0.0,0.0,-1.0,1,0,0,0,0,0,0
62833662,0.0,0.0,0.15855107,0.0,1.0,0.0,0.0,0.0,0.0,-1.0,1,0,0,0,0,0,0
62933056,0.0,0.0,0.15850346,0.0,1.0,0.0,0.0,0.0,0.0,-1.0,1,0,0,0,0,0,0
63033704,0.0,0.0,0.15848781,0.0,1.0,0.0,0.0,0.0,0.0,-1.0,1,0,0,0,0,0,0
63138112,0.0,0.0,0.15853627,0.0,1.0,0.0,0.0,0.0,0.0,-1.0,1,0,0,0,0,0,0
63237889,0.0,0.0,0.15858802,0.0,1.0,0.0,0.0,0.0,0.0,-1.0,1,0,0,0,0,0,0
63338223,0.0,0.0,0.15871085,0.0,1.0,0.0,0.0,0.0,0.0,-1.0,1,0,0,0,0,0,0
63442272,0.0,0.0,0.15885197,0.0,1.0,0.0,0.0,0.0,0.0,-1.0,1,0,0,0,0,0,0
63541887,0.0,0.0,0.15896422,0.0,1.0,0.0,0.0,0.0,0.0,-1.0,1,0,0,0,0,0,0
63645865,0.0,0.0,0.15903418,0.0,1.0,0.0,0.0,0.0,0.0,-1.0,1,0,0,0,0,0,0
63746147,0.0,0.0,0.15905236,0.0,1.0,0.0,0.0,0.0,0.0,-1.0,1,0,0,0,0,0,0
63845915,0.0,0.0,0.15912464,0.0,1.0,0.0,0.0,0.0,0.0,-1.0,1,0,0,0,0,0,0
63950120,0.0,0.0,0.15917666,0.0,1.0,0.0,0.0,0.0,0.0,-1.0,1,0,0,0,0,0,0
64050444,0.0,0.0,0.15922801,0.0,1.0,0.0,0.0,0.0,0.0,-1.0,1,0,0,0,0,0,0
64149867,0.0,0.0,0.15938276,0.0,1.0,0.0,0.0,0.0,0.0,-1.0,1,0,0,0,0,0,0
64254702,0.0,0.0,0.15947764,0.0,1.0,0.0,0.0,0.0,0.0,-1.0,1,0,0,0,0,0,0
64355276,0.0,0.0,0.15950708,0.0,1.0,0.0,0.0,0.0,0.0,-1.0,1,0,0,0,0,0,0
64455028,0.0,0.0,0.15948938,0.0,1.0,0.0,0.0,0.0,0.0,-1.0,1,0,0,0,0,0,0
64558683,0.0,0.0,0.15948293,0.0,1.0,0.0,0.0,0.0,0.0,-1.0,1,0,0,0,0,0,0
64659348,0.0,0.0,0.15946963,0.0,1.0,0.0,0.0,0.0,0.0,-1.0,1,0,0,0,0,0,0
64758713,0.0,0.0,0.15944892,0.0,1.0,0.0,0.0,0.0,0.0,-1.0,1,0,0,0,0,0,0
64862697,0.0,0.0,0.15946707,0.0,1.0,0.0,0.0,0.0,0.0,-1.0,1,0,0,0,0,0,0
64963149,0.0,0.0,0.15951797,0.0,1.0,0.0,0.0,0.0,0.0,-1.0,1,0,0,0,0,0,0
65067142,0.0,0.0,0.15952265,0.0,1.0,0.0,0.0,0.0,0.0,-1.0,1,0,0,0,0,0,0
65166703,0.0,0.0,0.1595343,0.0,1.0,0.0,0.0,0.0,0.0,-1.0,1,0,0,0,0,0,0
65266949,0.0,0.0,0.15948991,0.0,1.0,0.0,0.0,0.0,0.0,-1.0,1,0,0,0,0,0,0
65372369,0.0,0.0,0.15945506,0.0,1.0,0.0,0.0,0.0,0.0,-1.0,1,0,0,0,0,0,0
65475841,0.0,0.0,0.15944864,0.0,1.0,0.0,0.0,0.0,0.0,-1.0,1,0,0,0,0,0,0
65575525,0.0,0.0,0.15948582,0.0,1.0,0.0,0.0,0.0,0.0,-1.0,1,0,0,0,0,0,0
65679583,0.0,0.0,0.15948752,0.0,1.0,0.0,0.0,0.0,0.0,-1.0,1,0,0,0,0,0,0
65779892,0.0,0.0,0.15948935,0.0,1.0,0.0,0.0,0.0,0.0,-1.0,1,0,0,0,0,0,0
65879563,0.0,0.0,0.1594922,0.0,1.0,0.0,0.0,0.0,0.0,-1.0,1,0,0,0,0,0,0
65983507,0.0,0.0,0.15947565,0.0,1.0,0.0,0.0,0.0,0.0,-1.0,1,0,0,0,0,0,0
66083984,0.0,0.0,0.1594555,0.0,1.0,0.0,0.0,0.0,0.0,-1.0,1,0,0,0,0,0,0
66183498,0.0,0.0,0.15945318,0.0,1.0,0.0,0.0,0.0,0.0,-1.0,1,0,0,0,0,0,0
66287495,0.0,0.0,0.15942395,0.0,1.0,0.0,0.0,0.0,0.0,-1.0,1,0,0,0,0,0,0
66387911,0.0,0.0,0.15939981,0.0,1.0,0.0,0.0,0.0,0.0,-1.0,1,0,0,0,0,0,0
66491996,0.0,0.0,0.15937963,0.0,1.0,0.0,0.0,0.0,0.0,-1.0,1,0,0,0,0,0,0
66592320,0.0,0.0,0.15931647,0.0,1.0,0.0,0.0,0.0,0.0,-1.0,1,0,0,0,0,0,0
66692882,0.0,0.0,0.15925767,0.0,1.0,0.0,0.0,0.0,0.0,-1.0,1,0,0,0,0,0,0
66792272,0.0,0.0,0.15922901,0.0,1.0,0.0,0.0,0.0,0.0,-1.0,1,0,0,0,0,0,0
66896281,0.0,0.0,0.15919301,0.0,1.0,0.0,0.0,0.0,0.0,-1.0,1,0,0,0,0,0,0
66996550,0.0,0.0,0.15916844,0.0,1.0,0.0,0.0,0.0,0.0,-1.0,1,0,0,0,0,0,0
67100740,0.0,0.0,0.1591591,0.0,1.0,0.0,0.0,0.0,0.0,-1.0,1,0,0,0,0,0,0
67200259,0.0,0.0,0.15917927,0.0,1.0,0.0,0.0,0.0,0.0,-1.0,1,0,0,0,0,0,0
67300818,0.0,0.0,0.15911864,0.0,1.0,0.0,0.0,0.0,0.0,-1.0,1,0,0,0,0,0,0
67404647,0.0,0.0,0.15904202,0.0,1.0,0.0,0.0,0.0,0.0,-1.0,1,0,0,0,0,0,0
67505141,0.0,0.0,0.15895039,0.0,1.0,0.0,0.0,0.0,0.0,-1.0,1,0,0,0,0,0,0
67605609,0.0,0.0,0.15884168,0.0,1.0,0.0,0.0,0.0,0.0,-1.0,1,0,0,0,0,0,0
67709344,0.0,0.0,0.15876704,0.0,1.0,0.0,0.0,0.0,0.0,-1.0,1,0,0,0,0,0,0
67809056,0.0,0.0,0.15868908,0.0,1.0,0.0,0.0,0.0,0.0,-1.0,1,0,0,0,0,0,0
67909329,0.0,0.0,0.15863551,0.0,1.0,0.0,0.0,0.0,0.0,-1.0,1,0,0,0,0,0,0
68013867,0.0,0.0,0.1586072,0.0,1.0,0.0,0.0,0.0,0.0,-1.0,1,0,0,0,0,0,0
68113327,0.0,0.0,0.15860234,0.0,1.0,0.0,0.0,0.0,0.0,-1.0,1,0,0,0,0,0,0
68213652,0.0,0.0,0.15856498,0.0,1.0,0.0,0.0,0.0,0.0,-1.0,1,0,0,0,0,0,0
68317484,0.0,0.0,0.1585253,0.0,1.0,0.0,0.0,0.0,0.0,-1.0,1,0,0,0,0,0,0
68417073,0.0,0.0,0.1585014,0.0,1.0,0.0,0.0,0.0,0.0,-1.0,1,0,0,0,0,0,0
68521033,0.0,0.0,0.15843669,0.0,1.0,0.0,0.0,0.0,0.0,-1.0,1,0,0,0,0,0,0
68621730,0.0,0.0,0.15838546,0.0,1.0,0.0,0.0,0.0,0.0,-1.0,1,0,0,0,0,0,0
68722122,0.0,0.0,0.15839224,0.0,1.0,0.0,0.0,0.0,0.0,-1.0,1,0,0,0,0,0,0
68825896,0.0,0.0,0.15843363,0.0,1.0,0.0,0.0,0.0,0.0,-1.0,1,0,0,0,0,0,0
68926368,0.0,0.0,0.1584619,0.0,1.0,0.0,0.0,0.0,0.0,-1.0,1,0,0,0,0,0,0
69025891,0.0,0.0,0.15836821,0.0,1.0,0.0,0.0,0.0,0.0,-1.0,1,0,0,0,0,0,0
69129887,0.0,0.0,0.15828097,0.0,1.0,0.0,0.0,0.0,0.0,-1.0,1,0,0,0,0,0,0
69230293,0.0,0.0,0.15825829,0.0,1.0,0.0,0.0,0.0,0.0,-1.0,1,0,0,0,0,0,0
69329905,0.0,0.0,0.15816382,0.0,1.0,0.0,0.0,0.0,0.0,-1.0,1,0,0,0,0,0,0
69434118,0.0,0.0,0.15820861,0.0,1.0,0.0,0.0,0.0,0.0,-1.0,1,0,0,0,0,0,0
69534568,0.0,0.0,0.15823843,0.0,1.0,0.0,0.0,0.0,0.0,-1.0,1,0,0,0,0,0,0
69638164,0.0,0.0,0.15819368,0.0,1.0,0.0,0.0,0.0,0.0,-1.0,1,0,0,0,0,0,0
69737917,0.0,0.0,0.15820345,0.0,1.0,0.0,0.0,0.0,0.0,-1.0,1,0,0,0,0,0,0
69838163,0.0,0.0,0.15819277,0.0,1.0,0.0,0.0,0.0,0.0,-1.0,1,0,0,0,0,0,0
69942253,0.0,0.0,0.15818249,0.0,1.0,0.0,0.0,0.0,0.0,-1.0,1,0,0,0,0,0,0
70042659,0.0,0.0,0.15824257,0.0,1.0,0.0,0.0,0.0,0.0,-1.0,1,0,0,0,0,0,0
70142937,0.0,0.0,0.15826656,0.0,1.0,0.0,0.0,0.0,0.0,-1.0,1,0,0,0,0,0,0
70247185,0.0,0.0,0.15829544,0.0,1.0,0.0,0.0,0.0,0.0,-1.0,1,0,0,0,0,0,0
70346654,0.0,0.0,0.15827794,0.0,1.0,0.0,0.0,0.0,0.0,-1.0,1,0,0,0,0,0,0
70447340,0.0,0.0,0.15821727,0.0,1.0,0.0,0.0,0.0,0.0,-1.0,1,0,0,0,0,0,0
70550973,0.0,0.0,0.15816413,0.0,1.0,0.0,0.0,0.0,0.0,-1.0,1,0,0,0,0,0,0
70650712,0.0,0.0,0.15809807,0.0,1.0,0.0,0.0,0.0,0.0,-1.0,1,0,0,0,0,0,0
70751086,0.0,0.0,0.15800488,0.0,1.0,0.0,0.0,0.0,0.0,-1.0,1,0,0,0,0,0,0
70855232,0.0,0.0,0.15788324,0.0,1.0,0.0,0.0,0.0,0.0,-1.0,1,0,0,0,0,0,0
70954983,0.0,0.0,0.15776324,0.0,1.0,0.0,0.0,0.0,0.0,-1.0,1,0,0,0,0,0,0
71058694,0.0,0.0,0.15772289,0.0,1.0,0.0,0.0,0.0,0.0,-1.0,1,0,0,0,0,0,0
71160135,0.0,0.0,0.15767615,0.0,1.0,0.0,0.0,0.0,0.0,-1.0,1,0,0,0,0,0,0
71259542,0.0,0.0,0.1576496,0.0,1.0,0.0,0.0,0.0,0.0,-1.0,1,0,0,0,0,0,0
71363544,0.0,0.0,0.15762635,0.0,1.0,0.0,0.0,0.0,0.0,-1.0,1,0,0,0,0,0,0
71463942,0.0,0.0,0.15753664,0.0,1.0,0.0,0.0,0.0,0.0,-1.0,1,0,0,0,0,0,0
71563573,0.0,0.0,0.15745306,0.0,1.0,0.0,0.0,0.0,0.0,-1.0,1,0,0,0,0,0,0
71667585,0.0,0.0,0.15731516,0.0,1.0,0.0,0.0,0.0,0.0,-1.0,1,0,0,0,0,0,0
71767840,0.0,0.0,0.15719356,0.0,1.0,0.0,0.0,0.0,0.0,-1.0,1,0,0,0,0,0,0
71867460,0.0,0.0,0.1570948,0.0,1.0,0.0,0.0,0.0,0.0,-1.0,1,0,0,0,0,0,0
71971517,0.0,0.0,0.1570414,0.0,1.0,0.0,0.0,0.0,0.0,-1.0,1,0,0,0,0,0,0
72072071,0.0,0.0,0.15699625,0.0,1.0,0.0,0.0,0.0,0.0,-1.0,1,0,0,0,0,0,0
72171507,0.0,0.0,0.1569273,0.0,1.0,0.0,0.0,0.0,0.0,-1.0,1,0,0,0,0,0,0
72275492,0.0,0.0,0.15689681,0.0,1.0,0.0,0.0,0.0,0.0,-1.0,1,0,0,0,0,0,0
72376727,0.0,0.0,0.15686586,0.0,1.0,0.0,0.0,0.0,0.0,-1.0,1,0,0,0,0,0,0
72476263,0.0,0.0,0.15677921,0.0,1.0,0.0,0.0,0.0,0.0,-1.0,1,0,0,0,0,0,0
72580269,0.0,0.0,0.15665627,0.0,1.0,0.0,0.0,0.0,0.0,-1.0,1,0,0,0,0,0,0
72680788,0.0,0.0,0.15654637,0.0,1.0,0.0,0.0,0.0,0.0,-1.0,1,0,0,0,0,0,0
72784555,0.0,0.0,0.15645105,0.0,1.0,0.0,0.0,0.0,0.0,-1.0,1,0,0,0,0,0,0
72884283,0.0,0.0,0.15638146,0.0,1.0,0.0,0.0,0.0,0.0,-1.0,1,0,0,0,0,0,0
72985078,0.0,0.0,0.15625432,0.0,1.0,0.0,0.0,0.0,0.0,-1.0,1,0,0,0,0,0,0
73088634,0.0,0.0,0.15626046,0.0,1.0,0.0,0.0,0.0,0.0,-1.0,1,0,0,0,0,0,0
73188297,0.0,0.0,0.15628602,0.0,1.0,0.0,0.0,0.0,0.0,-1.0,1,0,0,0,0,0,0
73289601,0.0,0.0,0.15632464,0.0,1.0,0.0,0.0,0.0,0.0,-1.0,1,0,0,0,0,0,0
73393640,0.0,0.0,0.15631446,0.0,1.0,0.0,0.0,0.0,0.0,-1.0,1,0,0,0,0,0,0
73493067,0.0,0.0,0.15634769,0.0,1.0,0.0,0.0,0.0,0.0,-1.0,1,0,0,0,0,0,0
73593343,0.0,0.0,0.15640917,0.0,1.0,0.0,0.0,0.0,0.0,-1.0,1,0,0,0,0,0,0
73697756,0.0,0.0,0.15649067,0.0,1.0,0.0,0.0,0.0,0.0,-1.0,1,0,0,0,0,0,0
73797095,0.0,0.0,0.15652323,0.0,1.0,0.0,0.0,0.0,0.0,-1.0,1,0,0,0,0,0,0
73897739,0.0,0.0,0.15656015,0.0,1.0,0.0,0.0,0.0,0.0,-1.0,1,0,0,0,0,0,0
74001355,0.0,0.0,0.1566724,0.0,1.0,0.0,0.0,0.0,0.0,-1.0,1,0,0,0,0,0,0
74101055,0.0,0.0,0.1567675,0.0,1.0,0.0,0.0,0.0,0.0,-1.0,1,0,0,0,0,0,0
74205157,0.0,0.0,0.15682922,0.0,1.0,0.0,0.0,0.0,0.0,-1.0,1,0,0,0,0,0,0
74305436,0.0,0.0,0.15685184,0.0,1.0,0.0,0.0,0.0,0.0,-1.0,1,0,0,0,0,0,0
74405120,0.0,0.0,0.156926,0.0,1.0,0.0,0.0,0.0,0.0,-1.0,1,0,0,0,0,0,0
74509073,0.0,0.0,0.15694907,0.0,1.0,0.0,0.0,0.0,0.0,-1.0,1,0,0,0,0,0,0
74610133,0.0,0.0,0.15696548,0.0,1.0,0.0,0.0,0.0,0.0,-1.0,1,0,0,0,0,0,0
74709898,0.0,0.0,0.15697473,0.0,1.0,0.0,0.0,0.0,0.0,-1.0,1,0,0,0,0,0,0
74813880,0.0,0.0,0.15695676,0.0,1.0,0.0,0.0,0.0,0.0,-1.0,1,0,0,0,0,0,0
74914454,0.0,0.0,0.15697934,0.0,1.0,0.0,0.0,0.0,0.0,-1.0,1,0,0,0,0,0,0
75014106,0.0,0.0,0.15703453,0.0,1.0,0.0,0.0,0.0,0.0,-1.0,1,0,0,0,0,0,0
75117886,0.0,0.0,0.15709205,0.0,1.0,0.0,0.0,0.0,0.0,-1.0,1,0,0,0,0,0,0
75218268,0.0,0.0,0.15716967,0.0,1.0,0.0,0.0,0.0,0.0,-1.0,1,0,0,0,0,0,0
75322417,0.0,0.0,0.15722652,0.0,1.0,0.0,0.0,0.0,0.0,-1.0,1,0,0,0,0,0,0
75422109,0.0,0.0,0.1572745,0.0,1.0,0.0,0.0,0.0,0.0,-1.0,1,0,0,0,0,0,0
75522389,0.0,0.0,0.15735635,0.0,1.0,0.0,0.0,0.0,0.0,-1.0,1,0,0,0,0,0,0
75626397,0.0,0.0,0.15743403,0.0,1.0,0.0,0.0,0.0,0.0,-1.0,1,0,0,0,0,0,0
75726694,0.0,0.0,0.15747795,0.0,1.0,0.0,0.0,0.0,0.0,-1.0,1,0,0,0,0,0,0
75827329,0.0,0.0,0.15749387,0.0,1.0,0.0,0.0,0.0,0.0,-1.0,1,0,0,0,0,0,0
75931241,0.0,0.0,0.15752386,0.0,1.0,0.0,0.0,0.0,0.0,-1.0,1,0,0,0,0,0,0
76030735,0.0,0.0,0.15754038,0.0,1.0,0.0,0.0,0.0,0.0,-1.0,1,0,0,0,0,0,0
76131299,0.0,0.0,0.15751754,0.0,1.0,0.0,0.0,0.0,0.0,-1.0,1,0,0,0,0,0,0
76235221,0.0,0.0,0.15753219,0.0,1.0,0.0,0.0,0.0,0.0,-1.0,1,0,0,0,0,0,0
76335019,0.0,0.0,0.15758418,0.0,1.0,0.0,0.0,0.0,0.0,-1.0,1,0,0,0,0,0,0
76435122,0.0,0.0,0.15760711,0.0,1.0,0.0,0.0,0.0,0.0,-1.0,1,0,0,0,0,0,0
76539170,0.0,0.0,0.15765052,0.0,1.0,0.0,0.0,0.0,0.0,-1.0,1,0,0,0,0,0,0
76638671,0.0,0.0,0.15768981,0.0,1.0,0.0,0.0,0.0,0.0,-1.0,1,0,0,0,0,0,0
76739954,0.0,0.0,0.15770099,0.0,1.0,0.0,0.0,0.0,0.0,-1.0,1,0,0,0,0,0,0
76843825,0.0,0.0,0.157704,0.0,1.0,0.0,0.0,0.0,0.0,-1.0,1,0,0,0,0,0,0
76943510,0.0,0.0,0.15766709,0.0,1.0,0.0,0.0,0.0,0.0,-1.0,1,0,0,0,0,0,0
77043815,0.0,0.0,0.15770017,0.0,1.0,0.0,0.0,0.0,0.0,-1.0,1,0,0,0,0,0,0
77147847,0.0,0.0,0.15769327,0.0,1.0,0.0,0.0,0.0,0.0,-1.0,1,0,0,0,0,0,0
77247502,0.0,0.0,0.15770024,0.0,1.0,0.0,0.0,0.0,0.0,-1.0,1,0,0,0,0,0,0
77351732,0.0,0.0,0.15771921,0.0,1.0,0.0,0.0,0.0,0.0,-1.0,1,0,0,0,0,0,0
77451915,0.0,0.0,0.15774173,0.0,1.0,0.0,0.0,0.0,0.0,-1.0,1,0,0,0,0,0,0
77551480,0.0,0.0,0.15773346,0.0,1.0,0.0,0.0,0.0,0.0,-1.0,1,0,0,0,0,0,0
77655490,0.0,0.0,0.15771085,0.0,1.0,0.0,0.0,0.0,0.0,-1.0,1,0,0,0,0,0,0
77755925,0.0,0.0,0.1577315,0.0,1.0,0.0,0.0,0.0,0.0,-1.0,1,0,0,0,0,0,0
77855498,0.0,0.0,0.15775707,0.0,1.0,0.0,0.0,0.0,0.0,-1.0,1,0,0,0,0,0,0
77960313,0.0,0.0,0.15779169,0.0,1.0,0.0,0.0,0.0,0.0,-1.0,1,0,0,0,0,0,0
78060760,0.0,0.0,0.157784,0.0,1.0,0.0,0.0,0.0,0.0,-1.0,1,0,0,0,0,0,0
78160259,0.0,0.0,0.15786394,0.0,1.0,0.0,0.0,0.0,0.0,-1.0,1,0,0,0,0,0,0
78264293,0.0,0.0,0.15790217,0.0,1.0,0.0,0.0,0.0,0.0,-1.0,1,0,0,0,0,0,0
78364812,0.0,0.0,0.15789798,0.0,1.0,0.0,0.0,0.0,0.0,-1.0,1,0,0,0,0,0,0
78468851,0.0,0.0,0.15791774,0.0,1.0,0.0,0.0,0.0,0.0,-1.0,1,0,0,0,0,0,0
78568361,0.0,0.0,0.15800434,0.0,1.0,0.0,0.0,0.0,0.0,-1.0,1,0,0,0,0,0,0
78668530,0.0,0.0,0.15802386,0.0,1.0,0.0,0.0,0.0,0.0,-1.0,1,0,0,0,0,0,0
78772756,0.0,0.0,0.15804376,0.0,1.0,0.0,0.0,0.0,0.0,-1.0,1,0,0,0,0,0,0
78872259,0.0,0.0,0.15807362,0.0,1.0,0.0,0.0,0.0,0.0,-1.0,1,0,0,0,0,0,0
78974120,0.0,0.0,0.15812263,0.0,1.0,0.0,0.0,0.0,0.0,-1.0,1,0,0,0,0,0,0
79077322,0.0,0.0,0.15815993,0.0,1.0,0.0,0.0,0.0,0.0,-1.0,1,0,0,0,0,0,0
79177100,0.0,0.0,0.15818022,0.0,1.0,0.0,0.0,0.0,0.0,-1.0,1,0,0,0,0,0,0
79277342,0.0,0.0,0.15820423,0.0,1.0,0.0,0.0,0.0,0.0,-1.0,1,0,0,0,0,0,0
79381889,0.0,0.0,0.1581815,0.0,1.0,0.0,0.0,0.0,0.0,-1.0,1,0,0,0,0,0,0
79481043,0.0,0.0,0.15814933,0.0,1.0,0.0,0.0,0.0,0.0,-1.0,1,0,0,0,0,0,0
79581525,0.0,0.0,0.15818551,0.0,1.0,0.0,0.0,0.0,0.0,-1.0,1,0,0,0,0,0,0
79685518,0.0,0.0,0.1581826,0.0,1.0,0.0,0.0,0.0,0.0,-1.0,1,0,0,0,0,0,0
79785136,0.0,0.0,0.1581893,0.0,1.0,0.0,0.0,0.0,0.0,-1.0,1,0,0,0,0,0,0
79889091,0.0,0.0,0.1581726,0.0,1.0,0.0,0.0,0.0,0.0,-1.0,1,0,0,0,0,0,0
79989396,0.0,0.0,0.15820733,0.0,1.0,0.0,0.0,0.0,0.0,-1.0,1,0,0,0,0,0,0
80089051,0.0,0.0,0.15823004,0.0,1.0,0.0,0.0,0.0,0.0,-1.0,1,0,0,0,0,0,0
80193077,0.0,0.0,0.15825287,0.0,1.0,0.0,0.0,0.0,0.0,-1.0,1,0,0,0,0,0,0
80294954,0.0,0.0,0.15823321,0.0,1.0,0.0,0.0,0.0,0.0,-1.0,1,0,0,0,0,0,0
80393881,0.0,0.0,0.1582476,0.0,1.0,0.0,0.0,0.0,0.0,-1.0,1,0,0,0,0,0,0
80497898,0.0,0.0,0.1582663,0.0,1.0,0.0,0.0,0.0,0.0,-1.0,1,0,0,0,0,0,0
80598320,0.0,0.0,0.1582634,0.0,1.0,0.0,0.0,0.0,0.0,-1.0,1,0,0,0,0,0,0
80697900,0.0,0.0,0.15822272,0.0,1.0,0.0,0.0,0.0,0.0,-1.0,1,0,0,0,0,0,0
80801862,0.0,0.0,0.15818313,0.0,1.0,0.0,0.0,0.0,0.0,-1.0,1,0,0,0,0,0,0
80902517,0.0,0.0,0.15817216,0.0,1.0,0.0,0.0,0.0,0.0,-1.0,1,0,0,0,0,0,0
81006243,0.0,0.0,0.15821484,0.0,1.0,0.0,0.0,0.0,0.0,-1.0,1,0,0,0,0,0,0
81105875,0.0,0.0,0.15821333,0.0,1.0,0.0,0.0,0.0,0.0,-1.0,1,0,0,0,0,0,0
81206149,0.0,0.0,0.15823197,0.0,1.0,0.0,0.0,0.0,0.0,-1.0,1,0,0,0,0,0,0
81310338,0.0,0.0,0.15824652,0.0,1.0,0.0,0.0,0.0,0.0,-1.0,1,0,0,0,0,0,0
81409858,0.0,0.0,0.15829134,0.0,1.0,0.0,0.0,0.0,0.0,-1.0,1,0,0,0,0,0,0
81511088,0.0,0.0,0.15828271,0.0,1.0,0.0,0.0,0.0,0.0,-1.0,1,0,0,0,0,0,0
81615196,0.0,0.0,0.15830255,0.0,1.0,0.0,0.0,0.0,0.0,-1.0,1,0,0,0,0,0,0
81714945,0.0,0.0,0.15835664,0.0,1.0,0.0,0.0,0.0,0.0,-1.0,1,0,0,0,0,0,0
81815100,0.0,0.0,0.15840031,0.0,1.0,0.0,0.0,0.0,0.0,-1.0,1,0,0,0,0,0,0
81919184,0.0,0.0,0.15843406,0.0,1.0,0.0,0.0,0.0,0.0,-1.0,1,0,0,0,0,0,0
82018641,0.0,0.0,0.15844443,0.0,1.0,0.0,0.0,0.0,0.0,-1.0,1,0,0,0,0,0,0
82119182,0.0,0.0,0.15845051,0.0,1.0,0.0,0.0,0.0,0.0,-1.0,1,0,0,0,0,0,0
82223046,0.0,0.0,0.15845299,0.0,1.0,0.0,0.0,0.0,0.0,-1.0,1,0,0,0,0,0,0
82322804,0.0,0.0,0.15845229,0.0,1.0,0.0,0.0,0.0,0.0,-1.0,1,0,0,0,0,0,0
82426677,0.0,0.0,0.15844017,0.0,1.0,0.0,0.0,0.0,0.0,-1.0,1,0,0,0,0,0,0
82527338,0.0,0.0,0.15839231,0.0,1.0,0.0,0.0,0.0,0.0,-1.0,1,0,0,0,0,0,0
82627486,0.0,0.0,0.15834266,0.0,1.0,0.0,0.0,0.0,0.0,-1.0,1,0,0,0,0,0,0
82728259,0.0,0.0,0.15828267,0.0,1.0,0.0,0.0,0.0,0.0,-1.0,1,0,0,0,0,0,0
82831853,0.0,0.0,0.15827464,0.0,1.0,0.0,0.0,0.0,0.0,-1.0,1,0,0,0,0,0,0
82931555,0.0,0.0,0.15827312,0.0,1.0,0.0,0.0,0.0,0.0,-1.0,1,0,0,0,0,0,0
83035538,0.0,0.0,0.15825468,0.0,1.0,0.0,0.0,0.0,0.0,-1.0,1,0,0,0,0,0,0
83135999,0.0,0.0,0.1582381,0.0,1.0,0.0,0.0,0.0,0.0,-1.0,1,0,0,0,0,0,0
83235517,0.0,0.0,0.15825148,0.0,1.0,0.0,0.0,0.0,0.0,-1.0,1,0,0,0,0,0,0
83339502,0.0,0.0,0.1582194,0.0,1.0,0.0,0.0,0.0,0.0,-1.0,1,0,0,0,0,0,0
83440072,0.0,0.0,0.15824458,0.0,1.0,0.0,0.0,0.0,0.0,-1.0,1,0,0,0,0,0,0
83539490,0.0,0.0,0.15828036,0.0,1.0,0.0,0.0,0.0,0.0,-1.0,1,0,0,0,0,0,0
83643512,0.0,0.0,0.15834413,0.0,1.0,0.0,0.0,0.0,0.0,-1.0,1,0,0,0,0,0,0
83744547,0.0,0.0,0.1583543,0.0,1.0,0.0,0.0,0.0,0.0,-1.0,1,0,0,0,0,0,0
83844256,0.0,0.0,0.15835889,0.0,1.0,0.0,0.0,0.0,0.0,-1.0,1,0,0,0,0,0,0
83948266,0.0,0.0,0.15836059,0.0,1.0,0.0,0.0,0.0,0.0,-1.0,1,0,0,0,0,0,0
84048510,0.0,0.0,0.15833125,0.0,1.0,0.0,0.0,0.0,0.0,-1.0,1,0,0,0,0,0,0
84152540,0.0,0.0,0.15833218,0.0,1.0,0.0,0.0,0.0,0.0,-1.0,1,0,0,0,0,0,0
84252243,0.0,0.0,0.15837935,0.0,1.0,0.0,0.0,0.0,0.0,-1.0,1,0,0,0,0,0,0
84352550,0.0,0.0,0.15837198,0.0,1.0,0.0,0.0,0.0,0.0,-1.0,1,0,0,0,0,0,0
84456768,0.0,0.0,0.15837805,0.0,1.0,0.0,0.0,0.0,0.0,-1.0,1,0,0,0,0,0,0
84556364,0.0,0.0,0.15839568,0.0,1.0,0.0,0.0,0.0,0.0,-1.0,1,0,0,0,0,0,0
84657703,0.0,0.0,0.15844066,0.0,1.0,0.0,0.0,0.0,0.0,-1.0,1,0,0,0,0,0,0
84761533,0.0,0.0,0.1584692,0.0,1.0,0.0,0.0,0.0,0.0,-1.0,1,0,0,0,0,0,0
84861058,0.0,0.0,0.15847735,0.0,1.0,0.0,0.0,0.0,0.0,-1.0,1,0,0,0,0,0,0
84961431,0.0,0.0,0.15853184,0.0,1.0,0.0,0.0,0.0,0.0,-1.0,1,0,0,0,0,0,0
85065849,0.0,0.0,0.15854795,0.0,1.0,0.0,0.0,0.0,0.0,-1.0,1,0,0,0,0,0,0
85165350,0.0,0.0,0.15856072,0.0,1.0,0.0,0.0,0.0,0.0,-1.0,1,0,0,0,0,0,0
85265727,0.0,0.0,0.15856935,0.0,1.0,0.0,0.0,0.0,0.0,-1.0,1,0,0,0,0,0,0
85369517,0.0,0.0,0.15856819,0.0,1.0,0.0,0.0,0.0,0.0,-1.0,1,0,0,0,0,0,0
85469078,0.0,0.0,0.15859845,0.0,1.0,0.0,0.0,0.0,0.0,-1.0,1,0,0,0,0,0,0
85573054,0.0,0.0,0.15857048,0.0,1.0,0.0,0.0,0.0,0.0,-1.0,1,0,0,0,0,0,0
85673371,0.0,0.0,0.15853868,0.0,1.0,0.0,0.0,0.0,0.0,-1.0,1,0,0,0,0,0,0
85773086,0.0,0.0,0.15855907,0.0,1.0,0.0,0.0,0.0,0.0,-1.0,1,0,0,0,0,0,0
85877069,0.0,0.0,0.15858243,0.0,1.0,0.0,0.0,0.0,0.0,-1.0,1,0,0,0,0,0,0
85977879,0.0,0.0,0.15858933,0.0,1.0,0.0,0.0,0.0,0.0,-1.0,1,0,0,0,0,0,0
86077838,0.0,0.0,0.15859061,0.0,1.0,0.0,0.0,0.0,0.0,-1.0,1,0,0,0,0,0,0
86181876,0.0,0.0,0.15860845,0.0,1.0,0.0,0.0,0.0,0.0,-1.0,1,0,0,0,0,0,0
86282175,0.0,0.0,0.15862148,0.0,1.0,0.0,0.0,0.0,0.0,-1.0,1,0,0,0,0,0,0
86381902,0.0,0.0,0.15864597,0.0,1.0,0.0,0.0,0.0,0.0,-1.0,1,0,0,0,0,0,0
86485924,0.0,0.0,0.15864936,0.0,1.0,0.0,0.0,0.0,0.0,-1.0,1,0,0,0,0,0,0
86586595,0.0,0.0,0.15865469,0.0,1.0,0.0,0.0,0.0,0.0,-1.0,1,0,0,0,0,0,0
86690363,0.0,0.0,0.1586489,0.0,1.0,0.0,0.0,0.0,0.0,-1.0,1,0,0,0,0,0,0
86789889,0.0,0.0,0.15866266,0.0,1.0,0.0,0.0,0.0,0.0,-1.0,1,0,0,0,0,0,0
86890358,0.0,0.0,0.15864925,0.0,1.0,0.0,0.0,0.0,0.0,-1.0,1,0,0,0,0,0,0
86994468,0.0,0.0,0.15865159,0.0,1.0,0.0,0.0,0.0,0.0,-1.0,1,0,0,0,0,0,0
87094651,0.0,0.0,0.15866655,0.0,1.0,0.0,0.0,0.0,0.0,-1.0,1,0,0,0,0,0,0
87195202,0.0,0.0,0.15868038,0.0,1.0,0.0,0.0,0.0,0.0,-1.0,1,0,0,0,0,0,0
87299260,0.0,0.0,0.15870857,0.0,1.0,0.0,0.0,0.0,0.0,-1.0,1,0,0,0,0,0,0
87398626,0.0,0.0,0.15869278,0.0,1.0,0.0,0.0,0.0,0.0,-1.0,1,0,0,0,0,0,0
87499241,0.0,0.0,0.15869097,0.0,1.0,0.0,0.0,0.0,0.0,-1.0,1,0,0,0,0,0,0
87602974,0.0,0.0,0.15864752,0.0,1.0,0.0,0.0,0.0,0.0,-1.0,1,0,0,0,0,0,0
87702770,0.0,0.0,0.15869704,0.0,1.0,0.0,0.0,0.0,0.0,-1.0,1,0,0,0,0,0,0
87802944,0.0,0.0,0.15868501,0.0,1.0,0.0,0.0,0.0,0.0,-1.0,1,0,0,0,0,0,0
87906958,0.0,0.0,0.15868616,0.0,1.0,0.0,0.0,0.0,0.0,-1.0,1,0,0,0,0,0,0
88006753,0.0,0.0,0.15869814,0.0,1.0,0.0,0.0,0.0,0.0,-1.0,1,0,0,0,0,0,0
88110812,0.0,0.0,0.15867633,0.0,1.0,0.0,0.0,0.0,0.0,-1.0,1,0,0,0,0,0,0
88210980,0.0,0.0,0.15869279,0.0,1.0,0.0,0.0,0.0,0.0,-1.0,1,0,0,0,0,0,0
88311580,0.0,0.0,0.15870175,0.0,1.0,0.0,0.0,0.0,0.0,-1.0,1,0,0,0,0,0,0
88411927,0.0,0.0,0.15870376,0.0,1.0,0.0,0.0,0.0,0.0,-1.0,1,0,0,0,0,0,0
88515967,0.0,0.0,0.15869522,0.0,1.0,0.0,0.0,0.0,0.0,-1.0,1,0,0,0,0,0,0
88615497,0.0,0.0,0.15867124,0.0,1.0,0.0,0.0,0.0,0.0,-1.0,1,0,0,0,0,0,0
88719546,0.0,0.0,0.15866715,0.0,1.0,0.0,0.0,0.0,0.0,-1.0,1,0,0,0,0,0,0
88820142,0.0,0.0,0.15860407,0.0,1.0,0.0,0.0,0.0,0.0,-1.0,1,0,0,0,0,0,0
88919474,0.0,0.0,0.15862937,0.0,1.0,0.0,0.0,0.0,0.0,-1.0,1,0,0,0,0,0,0
89023760,0.0,0.0,0.15861149,0.0,1.0,0.0,0.0,0.0,0.0,-1.0,1,0,0,0,0,0,0
89123978,0.0,0.0,0.1585573,0.0,1.0,0.0,0.0,0.0,0.0,-1.0,1,0,0,0,0,0,0
89223528,0.0,0.0,0.15856194,0.0,1.0,0.0,0.0,0.0,0.0,-1.0,1,0,0,0,0,0,0
89327592,0.0,0.0,0.15854283,0.0,1.0,0.0,0.0,0.0,0.0,-1.0,1,0,0,0,0,0,0
89427917,0.0,0.0,0.15857248,0.0,1.0,0.0,0.0,0.0,0.0,-1.0,1,0,0,0,0,0,0
89528291,0.0,0.0,0.15857813,0.0,1.0,0.0,0.0,0.0,0.0,-1.0,1,0,0,0,0,0,0
89632242,0.0,0.0,0.15861706,0.0,1.0,0.0,0.0,0.0,0.0,-1.0,1,0,0,0,0,0,0
89732908,0.0,0.0,0.15862855,0.0,1.0,0.0,0.0,0.0,0.0,-1.0,1,0,0,0,0,0,0
89836657,0.0,0.0,0.15861356,0.0,1.0,0.0,0.0,0.0,0.0,-1.0,1,0,0,0,0,0,0
89936280,0.0,0.0,0.1585914,0.0,1.0,0.0,0.0,0.0,0.0,-1.0,1,0,0,0,0,0,0
90036696,0.0,0.0,0.15857483,0.0,1.0,0.0,0.0,0.0,0.0,-1.0,1,0,0,0,0,0,0
90140634,0.0,0.0,0.15855156,0.0,1.0,0.0,0.0,0.0,0.0,-1.0,1,0,0,0,0,0,0
90240246,0.0,0.0,0.15857129,0.0,1.0,0.0,0.0,0.0,0.0,-1.0,1,0,0,0,0,0,0
90341344,0.0,0.0,0.15860152,0.0,1.0,0.0,0.0,0.0,0.0,-1.0,1,0,0,0,0,0,0
90445580,0.0,0.0,0.15860988,0.0,1.0,0.0,0.0,0.0,0.0,-1.0,1,0,0,0,0,0,0
90545128,0.0,0.0,0.1585898,0.0,1.0,0.0,0.0,0.0,0.0,-1.0,1,0,0,0,0,0,0
90645616,0.0,0.0,0.15861744,0.0,1.0,0.0,0.0,0.0,0.0,-1.0,1,0,0,0,0,0,0
90749337,0.0,0.0,0.15859427,0.0,1.0,0.0,0.0,0.0,0.0,-1.0,1,0,0,0,0,0,0
90849071,0.0,0.0,0.15858325,0.0,1.0,0.0,0.0,0.0,0.0,-1.0,1,0,0,0,0,0,0
90949447,0.0,0.0,0.15853775,0.0,1.0,0.0,0.0,0.0,0.0,-1.0,1,0,0,0,0,0,0
91053516,0.0,0.0,0.15849906,0.0,1.0,0.0,0.0,0.0,0.0,-1.0,1,0,0,0,0,0,0
91153195,0.0,0.0,0.1584349,0.0,1.0,0.0,0.0,0.0,0.0,-1.0,1,0,0,0,0,0,0
91257086,0.0,0.0,0.1584025,0.0,1.0,0.0,0.0,0.0,0.0,-1.0,1,0,0,0,0,0,0
91357459,0.0,0.0,0.15836538,0.0,1.0,0.0,0.0,0.0,0.0,-1.0,1,0,0,0,0,0,0
91457051,0.0,0.0,0.15836953,0.0,1.0,0.0,0.0,0.0,0.0,-1.0,1,0,0,0,0,0,0
91561055,0.0,0.0,0.1584107,0.0,1.0,0.0,0.0,0.0,0.0,-1.0,1,0,0,0,0,0,0
91661707,0.0,0.0,0.15841186,0.0,1.0,0.0,0.0,0.0,0.0,-1.0,1,0,0,0,0,0,0
91761982,0.0,0.0,0.15837884,0.0,1.0,0.0,0.0,0.0,0.0,-1.0,1,0,0,0,0,0,0
91865900,0.0,0.0,0.15836923,0.0,1.0,0.0,0.0,0.0,0.0,-1.0,1,0,0,0,0,0,0
91966301,0.0,0.0,0.15835892,0.0,1.0,0.0,0.0,0.0,0.0,-1.0,1,0,0,0,0,0,0
92065890,0.0,0.0,0.15837489,0.0,1.0,0.0,0.0,0.0,0.0,-1.0,1,0,0,0,0,0,0
92169877,0.0,0.0,0.15837945,0.0,1.0,0.0,0.0,0.0,0.0,-1.0,1,0,0,0,0,0,0
92270157,0.0,0.0,0.1583395,0.0,1.0,0.0,0.0,0.0,0.0,-1.0,1,0,0,0,0,0,0
92374241,0.0,0.0,0.15829551,0.0,1.0,0.0,0.0,0.0,0.0,-1.0,1,0,0,0,0,0,0
92473856,0.0,0.0,0.15832986,0.0,1.0,0.0,0.0,0.0,0.0,-1.0,1,0,0,0,0,0,0
92574644,0.0,0.0,0.15829459,0.0,1.0,0.0,0.0,0.0,0.0,-1.0,1,0,0,0,0,0,0
92678153,0.0,0.0,0.1582155,0.0,1.0,0.0,0.0,0.0,0.0,-1.0,1,0,0,0,0,0,0
92778659,0.0,0.0,0.15820411,0.0,1.0,0.0,0.0,0.0,0.0,-1.0,1,0,0,0,0,0,0
92878948,0.0,0.0,0.15816909,0.0,1.0,0.0,0.0,0.0,0.0,-1.0,1,0,0,0,0,0,0
92983502,0.0,0.0,0.15814884,0.0,1.0,0.0,0.0,0.0,0.0,-1.0,1,0,0,0,0,0,0
93082699,0.0,0.0,0.15814571,0.0,1.0,0.0,0.0,0.0,0.0,-1.0,1,0,0,0,0,0,0
93182956,0.0,0.0,0.15812318,0.0,1.0,0.0,0.0,0.0,0.0,-1.0,1,0,0,0,0,0,0
93287105,0.0,0.0,0.158152,0.0,1.0,0.0,0.0,0.0,0.0,-1.0,1,0,0,0,0,0,0
93386731,0.0,0.0,0.15820244,0.0,1.0,0.0,0.0,0.0,0.0,-1.0,1,0,0,0,0,0,0
93487138,0.0,0.0,0.15818806,0.0,1.0,0.0,0.0,0.0,0.0,-1.0,1,0,0,0,0,0,0
93591141,0.0,0.0,0.15822577,0.0,1.0,0.0,0.0,0.0,0.0,-1.0,1,0,0,0,0,0,0
93690650,0.0,0.0,0.15827313,0.0,1.0,0.0,0.0,0.0,0.0,-1.0,1,0,0,0,0,0,0
93794690,0.0,0.0,0.15831389,0.0,1.0,0.0,0.0,0.0,0.0,-1.0,1,0,0,0,0,0,0
93895413,0.0,0.0,0.15830268,0.0,1.0,0.0,0.0,0.0,0.0,-1.0,1,0,0,0,0,0,0
93994693,0.0,0.0,0.15828086,0.0,1.0,0.0,0.0,0.0,0.0,-1.0,1,0,0,0,0,0,0
94099543,0.0,0.0,0.15827677,0.0,1.0,0.0,0.0,0.0,0.0,-1.0,1,0,0,0,0,0,0
94200081,0.0,0.0,0.15830171,0.0,1.0,0.0,0.0,0.0,0.0,-1.0,1,0,0,0,0,0,0
94299589,0.0,0.0,0.15833074,0.0,1.0,0.0,0.0,0.0,0.0,-1.0,1,0,0,0,0,0,0
94403545,0.0,0.0,0.15828888,0.0,1.0,0.0,0.0,0.0,0.0,-1.0,1,0,0,0,0,0,0
94504039,0.0,0.0,0.15825248,0.0,1.0,0.0,0.0,0.0,0.0,-1.0,1,0,0,0,0,0,0
94603516,0.0,0.0,0.1582627,0.0,1.0,0.0,0.0,0.0,0.0,-1.0,1,0,0,0,0,0,0
94707569,0.0,0.0,0.15823005,0.0,1.0,0.0,0.0,0.0,0.0,-1.0,1,0,0,0,0,0,0
94807894,0.0,0.0,0.15822873,0.0,1.0,0.0,0.0,0.0,0.0,-1.0,1,0,0,0,0,0,0
94907759,0.0,0.0,0.1582267,0.0,1.0,0.0,0.0,0.0,0.0,-1.0,1,0,0,0,0,0,0
95011482,0.0,0.0,0.15821931,0.0,1.0,0.0,0.0,0.0,0.0,-1.0,1,0,0,0,0,0,0
95111826,0.0,0.0,0.15823296,0.0,1.0,0.0,0.0,0.0,0.0,-1.0,1,0,0,0,0,0,0
95212267,0.0,0.0,0.15820737,0.0,1.0,0.0,0.0,0.0,0.0,-1.0,1,0,0,0,0,0,0
95316300,0.0,0.0,0.15818994,0.0,1.0,0.0,0.0,0.0,0.0,-1.0,1,0,0,0,0,0,0
95416759,0.0,0.0,0.15815675,0.0,1.0,0.0,0.0,0.0,0.0,-1.0,1,0,0,0,0,0,0
95520564,0.0,0.0,0.15815684,0.0,1.0,0.0,0.0,0.0,0.0,-1.0,1,0,0,0,0,0,0
95620266,0.0,0.0,0.15821217,0.0,1.0,0.0,0.0,0.0,0.0,-1.0,1,0,0,0,0,0,0
95720652,0.0,0.0,0.15823212,0.0,1.0,0.0,0.0,0.0,0.0,-1.0,1,0,0,0,0,0,0
95824865,0.0,0.0,0.15824363,0.0,1.0,0.0,0.0,0.0,0.0,-1.0,1,0,0,0,0,0,0
95924262,0.0,0.0,0.15822399,0.0,1.0,0.0,0.0,0.0,0.0,-1.0,1,0,0,0,0,0,0
96026135,0.0,0.0,0.15822753,0.0,1.0,0.0,0.0,0.0,0.0,-1.0,1,0,0,0,0,0,0
