timestamp,x,y,z,yaw,yawspeed,vx,vy,vz,acc_x,acc_y,acc_z,thrust[0],thrust[1],thrust[2]
59538662,-0.026904495,-0.008342944,-0.0042210855,0.1572582,0.0,0.0,0.0,0.0,0.0,0.0,-0.0,0.0,0.0,0.0
59543256,-0.026813958,-0.008449818,-0.0043860553,0.15719317,0.0,0.0,0.0,0.0,0.0,0.0,-0.0,0.0,0.0,0.0
59643493,-0.027287025,-0.010402578,-0.005759928,0.15612422,0.0,0.0,0.0,0.0,0.0,0.0,-0.0,0.0,0.0,0.0
59743917,-0.027251942,-0.01274274,-0.0064847893,0.1552978,0.0,0.0,0.0,0.0,0.0,0.0,-0.0,0.0,0.0,0.0
59847874,-0.026731357,-0.014669724,-0.013134573,0.15469427,0.0,0.0,0.0,0.0,0.0,0.0,-0.0,0.0,0.0,0.0
59947522,-0.026152292,-0.016128518,-0.019213902,0.15439416,0.0,0.0,0.0,0.0,0.0,0.0,-0.0,0.0,0.0,0.0
60047838,-0.024920458,-0.017024603,-0.020469083,0.15450804,0.0,0.0,0.0,0.0,0.0,0.0,-0.0,0.0,0.0,0.0
60151848,-0.02389229,-0.017647037,-0.019052291,0.15472063,0.0,0.0,0.0,0.0,0.0,0.0,-0.0,0.0,0.0,0.0
60251593,-0.02251384,-0.017288487,-0.017803874,0.15502496,0.0,0.0,0.0,0.0,0.0,0.0,-0.0,0.0,0.0,0.0
60355547,-0.021008803,-0.016275873,-0.0155322645,0.15536696,0.0,0.0,0.0,0.0,0.0,0.0,-0.0,0.0,0.0,0.0
60456098,-0.018995492,-0.014319763,-0.010560754,0.15571247,0.0,0.0,0.0,0.0,0.0,0.0,-0.0,0.0,0.0,0.0
60555503,-0.017343238,-0.012181518,-0.0067135766,0.15604079,0.0,0.0,0.0,0.0,0.0,0.0,-0.0,0.0,0.0,0.0
60659541,-0.01433776,-0.009976184,-0.003313718,0.15630628,0.0,0.0,0.0,0.0,0.0,0.0,-0.0,0.0,0.0,0.0
60760213,-0.011004114,-0.0079534305,-0.0010414548,0.15651971,0.0,0.0,0.0,0.0,0.0,0.0,-0.0,0.0,0.0,0.0
60860289,-0.0081747845,-0.0064735524,-0.006617087,0.15666252,0.0,0.0,0.0,0.0,0.0,0.0,-0.0,0.0,0.0,0.0
60964299,-0.0054679057,-0.005225415,-0.012903779,0.1566355,0.0,0.0,0.0,0.0,0.0,0.0,-0.0,0.0,0.0,0.0
61064777,-0.002445106,-0.0047863703,-0.01741622,0.15660681,0.0,0.0,0.0,0.0,0.0,0.0,-0.0,0.0,0.0,0.0
61164278,0.0004145184,-0.0047284947,-0.021334508,0.15663113,0.0,0.0,0.0,0.0,0.0,0.0,-0.0,0.0,0.0,0.0
61268250,0.0033385248,-0.004659199,-0.027136872,0.1566733,0.0,0.0,0.0,0.0,0.0,0.0,-0.0,0.0,0.0,0.0
61368950,0.006097006,-0.004568709,-0.032298476,0.15675172,0.0,0.0,0.0,0.0,0.0,0.0,-0.0,0.0,0.0,0.0
61472718,0.009343821,-0.0039279866,-0.0347934,0.15688045,0.0,0.0,0.0,0.0,0.0,0.0,-0.0,0.0,0.0,0.0
61572287,0.012571276,-0.0030738448,-0.037703156,0.15702029,0.0,0.0,0.0,0.0,0.0,0.0,-0.0,0.0,0.0,0.0
61672604,0.0137245245,-0.0025131516,-0.02827486,0.15734722,0.0,0.0,0.0,0.0,0.0,0.0,-0.0,0.0,0.0,0.0
61777473,0.014489214,-0.001829084,-0.019867102,0.15775152,0.0,0.0,0.0,0.0,0.0,0.0,-0.0,0.0,0.0,0.0
61877135,0.013944988,-0.0014837498,-0.0098953415,0.15812126,0.0,0.0,0.0,0.0,0.0,0.0,-0.0,0.0,0.0,0.0
61977616,0.012651224,-0.0011833087,0.0006695392,0.15837187,0.0,0.0,0.0,0.0,0.0,0.0,-0.0,0.0,0.0,0.0
62081437,0.011141734,-0.0008111458,0.015024212,0.15861239,0.0,0.0,0.0,0.0,0.0,0.0,-0.0,0.0,0.0,0.0
62181090,0.009807389,-0.00041043732,0.024508296,0.15884346,0.0,0.0,0.0,0.0,0.0,0.0,-0.0,0.0,0.0,0.0
62281339,0.0083635505,-0.00040008718,0.021822773,0.15880881,0.0,0.0,0.0,0.0,0.0,0.0,-0.0,0.0,0.0,0.0
62385651,0.007238308,-0.0004280435,0.019204762,0.15874307,0.0,0.0,0.0,0.0,0.0,0.0,-0.0,0.0,0.0,0.0
62485178,0.0066697905,-0.00068691676,0.013803657,0.15866682,0.0,0.0,0.0,0.0,0.0,0.0,-0.0,0.0,0.0,0.0
62585509,0.006033862,-0.0010240396,0.009148504,0.15861619,0.0,0.0,0.0,0.0,0.0,0.0,-0.0,0.0,0.0,0.0
62689446,0.004715452,-0.0014757906,0.007955291,0.15860038,0.0,0.0,0.0,0.0,0.0,0.0,-0.0,0.0,0.0,0.0
62789083,0.0036416964,-0.001903521,0.0047158618,0.15857647,0.0,0.0,0.0,0.0,0.0,0.0,-0.0,0.0,0.0,0.0
62893087,0.0029133356,-0.0024993569,-0.0042427946,0.15850173,0.0,0.0,0.0,0.0,0.0,0.0,-0.0,0.0,0.0,0.0
62993627,0.0026574966,-0.0029468646,-0.011322415,0.15849142,0.0,0.0,0.0,0.0,0.0,0.0,-0.0,0.0,0.0,0.0
63093045,0.003749156,-0.0028577934,-0.015545674,0.15849237,0.0,0.0,0.0,0.0,0.0,0.0,-0.0,0.0,0.0,0.0
63197872,0.004929822,-0.002834009,-0.01859133,0.15857635,0.0,0.0,0.0,0.0,0.0,0.0,-0.0,0.0,0.0,0.0
63298324,0.004979825,-0.0034613847,-0.018470936,0.15865335,0.0,0.0,0.0,0.0,0.0,0.0,-0.0,0.0,0.0,0.0
63397917,0.005019935,-0.0041334545,-0.018518208,0.158789,0.0,0.0,0.0,0.0,0.0,0.0,-0.0,0.0,0.0,0.0
63501884,0.0051416876,-0.0048846295,-0.018428484,0.15893061,0.0,0.0,0.0,0.0,0.0,0.0,-0.0,0.0,0.0,0.0
63602309,0.0054151174,-0.0059824088,-0.022055404,0.15900198,0.0,0.0,0.0,0.0,0.0,0.0,-0.0,0.0,0.0,0.0
63701873,0.0062209186,-0.007982587,-0.032428503,0.15906213,0.0,0.0,0.0,0.0,0.0,0.0,-0.0,0.0,0.0,0.0
63805883,0.0067758807,-0.010169492,-0.03817449,0.15910837,0.0,0.0,0.0,0.0,0.0,0.0,-0.0,0.0,0.0,0.0
63906121,0.0066001816,-0.012109487,-0.038138576,0.15913272,0.0,0.0,0.0,0.0,0.0,0.0,-0.0,0.0,0.0,0.0
64010317,0.0065492033,-0.013865103,-0.037941698,0.15919042,0.0,0.0,0.0,0.0,0.0,0.0,-0.0,0.0,0.0,0.0
64109871,0.0068570566,-0.01518675,-0.037097663,0.15933017,0.0,0.0,0.0,0.0,0.0,0.0,-0.0,0.0,0.0,0.0
64211173,0.007037585,-0.016224837,-0.035036054,0.15944704,0.0,0.0,0.0,0.0,0.0,0.0,-0.0,0.0,0.0,0.0
64310720,0.006964861,-0.01694763,-0.03267297,0.15947928,0.0,0.0,0.0,0.0,0.0,0.0,-0.0,0.0,0.0,0.0
64414803,0.006541804,-0.017634885,-0.030316995,0.15951991,0.0,0.0,0.0,0.0,0.0,0.0,-0.0,0.0,0.0,0.0
64515292,0.0051150024,-0.018492017,-0.0292694,0.1595055,0.0,0.0,0.0,0.0,0.0,0.0,-0.0,0.0,0.0,0.0
64618975,0.0035834839,-0.019180417,-0.029943902,0.1594866,0.0,0.0,0.0,0.0,0.0,0.0,-0.0,0.0,0.0,0.0
64718802,0.0022373514,-0.019612357,-0.031004878,0.15945221,0.0,0.0,0.0,0.0,0.0,0.0,-0.0,0.0,0.0,0.0
64819111,0.00048340287,-0.01954402,-0.030857412,0.15945576,0.0,0.0,0.0,0.0,0.0,0.0,-0.0,0.0,0.0,0.0
64923291,-0.0016827527,-0.019024838,-0.029977996,0.15947129,0.0,0.0,0.0,0.0,0.0,0.0,-0.0,0.0,0.0,0.0
65022703,-0.0035268883,-0.018380418,-0.030416297,0.1595167,0.0,0.0,0.0,0.0,0.0,0.0,-0.0,0.0,0.0,0.0
65123181,-0.005062864,-0.01754965,-0.032336462,0.1595071,0.0,0.0,0.0,0.0,0.0,0.0,-0.0,0.0,0.0,0.0
65227113,-0.0061846543,-0.016649423,-0.037929673,0.15949799,0.0,0.0,0.0,0.0,0.0,0.0,-0.0,0.0,0.0,0.0
65327101,-0.0068819933,-0.015862508,-0.044271976,0.15946895,0.0,0.0,0.0,0.0,0.0,0.0,-0.0,0.0,0.0,0.0
65428062,-0.0072037755,-0.014864358,-0.04822777,0.15946019,0.0,0.0,0.0,0.0,0.0,0.0,-0.0,0.0,0.0,0.0
65531869,-0.0072476477,-0.0137440525,-0.051092163,0.15947123,0.0,0.0,0.0,0.0,0.0,0.0,-0.0,0.0,0.0,0.0
65631593,-0.007039588,-0.012700072,-0.049947284,0.159476,0.0,0.0,0.0,0.0,0.0,0.0,-0.0,0.0,0.0,0.0
65732105,-0.006600632,-0.011736239,-0.044194248,0.15949318,0.0,0.0,0.0,0.0,0.0,0.0,-0.0,0.0,0.0,0.0
65835845,-0.0056581767,-0.010877487,-0.03797143,0.15949066,0.0,0.0,0.0,0.0,0.0,0.0,-0.0,0.0,0.0,0.0
65935475,-0.0042351866,-0.010203737,-0.032033347,0.15946667,0.0,0.0,0.0,0.0,0.0,0.0,-0.0,0.0,0.0,0.0
66039570,-0.0022037774,-0.009619385,-0.026631927,0.1594472,0.0,0.0,0.0,0.0,0.0,0.0,-0.0,0.0,0.0,0.0
66139753,0.000114079114,-0.009158007,-0.021930536,0.15946436,0.0,0.0,0.0,0.0,0.0,0.0,-0.0,0.0,0.0,0.0
66239470,0.0021109867,-0.008573836,-0.018707156,0.15942414,0.0,0.0,0.0,0.0,0.0,0.0,-0.0,0.0,0.0,0.0
66343496,0.004036187,-0.007851094,-0.015776582,0.15938234,0.0,0.0,0.0,0.0,0.0,0.0,-0.0,0.0,0.0,0.0
66443988,0.005463594,-0.0072376854,-0.010279019,0.15937683,0.0,0.0,0.0,0.0,0.0,0.0,-0.0,0.0,0.0,0.0
66544271,0.0066102836,-0.0066507543,-0.004229238,0.15936448,0.0,0.0,0.0,0.0,0.0,0.0,-0.0,0.0,0.0,0.0
66648252,0.0073271655,-0.006126473,-0.004431267,0.15931197,0.0,0.0,0.0,0.0,0.0,0.0,-0.0,0.0,0.0,0.0
66748653,0.0075239227,-0.005768663,-0.012114884,0.15921527,0.0,0.0,0.0,0.0,0.0,0.0,-0.0,0.0,0.0,0.0
66848250,0.007334642,-0.0058144885,-0.017799495,0.15920104,0.0,0.0,0.0,0.0,0.0,0.0,-0.0,0.0,0.0,0.0
66952258,0.007064311,-0.006064053,-0.023411727,0.15918516,0.0,0.0,0.0,0.0,0.0,0.0,-0.0,0.0,0.0,0.0
67052775,0.0070473193,-0.00599046,-0.027889103,0.15918155,0.0,0.0,0.0,0.0,0.0,0.0,-0.0,0.0,0.0,0.0
67156746,0.0075391466,-0.0051987562,-0.031288035,0.15916581,0.0,0.0,0.0,0.0,0.0,0.0,-0.0,0.0,0.0,0.0
67256249,0.008177958,-0.0042430945,-0.027806766,0.15913247,0.0,0.0,0.0,0.0,0.0,0.0,-0.0,0.0,0.0,0.0
67356526,0.009019305,-0.0031305198,-0.022457907,0.15910748,0.0,0.0,0.0,0.0,0.0,0.0,-0.0,0.0,0.0,0.0
67460746,0.009949789,-0.0021293848,-0.018217439,0.15900344,0.0,0.0,0.0,0.0,0.0,0.0,-0.0,0.0,0.0,0.0
67561119,0.010842234,-0.0014435012,-0.016499383,0.15885432,0.0,0.0,0.0,0.0,0.0,0.0,-0.0,0.0,0.0,0.0
67661606,0.010891902,-0.00055914285,-0.018306168,0.15878466,0.0,0.0,0.0,0.0,0.0,0.0,-0.0,0.0,0.0,0.0
67765565,0.010878266,0.00047007954,-0.0205871,0.15874383,0.0,0.0,0.0,0.0,0.0,0.0,-0.0,0.0,0.0,0.0
67865136,0.0110395895,0.00071295584,-0.026334751,0.15865934,0.0,0.0,0.0,0.0,0.0,0.0,-0.0,0.0,0.0,0.0
67965651,0.0113102365,0.00079333456,-0.03204419,0.15860805,0.0,0.0,0.0,0.0,0.0,0.0,-0.0,0.0,0.0,0.0
68069342,0.011634295,0.00020497317,-0.038181834,0.15860036,0.0,0.0,0.0,0.0,0.0,0.0,-0.0,0.0,0.0,0.0
68169077,0.012114519,-0.0005123506,-0.043880835,0.15858237,0.0,0.0,0.0,0.0,0.0,0.0,-0.0,0.0,0.0,0.0
68269559,0.012111767,-0.0012108247,-0.04847393,0.1585516,0.0,0.0,0.0,0.0,0.0,0.0,-0.0,0.0,0.0,0.0
68373533,0.012255256,-0.0017494396,-0.052807517,0.15850246,0.0,0.0,0.0,0.0,0.0,0.0,-0.0,0.0,0.0,0.0
68473351,0.012039284,-0.001429371,-0.054709934,0.15845257,0.0,0.0,0.0,0.0,0.0,0.0,-0.0,0.0,0.0,0.0
68577081,0.011791136,-0.00065371935,-0.055367157,0.15841064,0.0,0.0,0.0,0.0,0.0,0.0,-0.0,0.0,0.0,0.0
68678220,0.011246976,-0.00011358934,-0.047227383,0.15839049,0.0,0.0,0.0,0.0,0.0,0.0,-0.0,0.0,0.0,0.0
68777865,0.010863583,0.0005188561,-0.04011853,0.15838748,0.0,0.0,0.0,0.0,0.0,0.0,-0.0,0.0,0.0,0.0
68881880,0.009538109,-0.00020934586,-0.034623697,0.1584343,0.0,0.0,0.0,0.0,0.0,0.0,-0.0,0.0,0.0,0.0
68982616,0.008043882,-0.0013672326,-0.029862316,0.15843748,0.0,0.0,0.0,0.0,0.0,0.0,-0.0,0.0,0.0,0.0
69081938,0.0066235154,-0.0029006575,-0.03001898,0.15832864,0.0,0.0,0.0,0.0,0.0,0.0,-0.0,0.0,0.0,0.0
69185957,0.0052613444,-0.0046011005,-0.031130554,0.158257,0.0,0.0,0.0,0.0,0.0,0.0,-0.0,0.0,0.0,0.0
69286183,0.0043824874,-0.0058489717,-0.03544612,0.15819201,0.0,0.0,0.0,0.0,0.0,0.0,-0.0,0.0,0.0,0.0
69385848,0.0038155136,-0.006780521,-0.038822364,0.15819277,0.0,0.0,0.0,0.0,0.0,0.0,-0.0,0.0,0.0,0.0
69489890,0.004002831,-0.0072470293,-0.034054097,0.1582349,0.0,0.0,0.0,0.0,0.0,0.0,-0.0,0.0,0.0,0.0
69590214,0.0045505697,-0.0074529643,-0.030104201,0.15819797,0.0,0.0,0.0,0.0,0.0,0.0,-0.0,0.0,0.0,0.0
69694315,0.0053117755,-0.0075727636,-0.031023094,0.1581625,0.0,0.0,0.0,0.0,0.0,0.0,-0.0,0.0,0.0,0.0
69793896,0.006231514,-0.007582171,-0.031988434,0.15822573,0.0,0.0,0.0,0.0,0.0,0.0,-0.0,0.0,0.0,0.0
69894535,0.008162591,-0.007647645,-0.028294902,0.15820535,0.0,0.0,0.0,0.0,0.0,0.0,-0.0,0.0,0.0,0.0
69993843,0.010289837,-0.007529314,-0.024136953,0.15820059,0.0,0.0,0.0,0.0,0.0,0.0,-0.0,0.0,0.0,0.0
70098686,0.0127158165,-0.006523938,-0.016976412,0.15823995,0.0,0.0,0.0,0.0,0.0,0.0,-0.0,0.0,0.0,0.0
70199200,0.015133978,-0.0052290685,-0.009097365,0.15829763,0.0,0.0,0.0,0.0,0.0,0.0,-0.0,0.0,0.0,0.0
70302969,0.017044168,-0.003532898,0.0027102048,0.15829895,0.0,0.0,0.0,0.0,0.0,0.0,-0.0,0.0,0.0,0.0
70402682,0.01871096,-0.0017869829,0.012721729,0.15822591,0.0,0.0,0.0,0.0,0.0,0.0,-0.0,0.0,0.0,0.0
70502952,0.020197837,0.00013257063,0.02238365,0.15819377,0.0,0.0,0.0,0.0,0.0,0.0,-0.0,0.0,0.0,0.0
70607033,0.02166459,0.002022087,0.03236538,0.15812354,0.0,0.0,0.0,0.0,0.0,0.0,-0.0,0.0,0.0,0.0
70706693,0.022971945,0.003554007,0.04271382,0.15804997,0.0,0.0,0.0,0.0,0.0,0.0,-0.0,0.0,0.0,0.0
70807197,0.024066584,0.0048998296,0.052820627,0.15792172,0.0,0.0,0.0,0.0,0.0,0.0,-0.0,0.0,0.0,0.0
70911216,0.024861066,0.00600262,0.06281763,0.15780938,0.0,0.0,0.0,0.0,0.0,0.0,-0.0,0.0,0.0,0.0
71010685,0.025597665,0.0068143336,0.07181741,0.15776749,0.0,0.0,0.0,0.0,0.0,0.0,-0.0,0.0,0.0,0.0
71115063,0.02619703,0.007147025,0.08053882,0.15771343,0.0,0.0,0.0,0.0,0.0,0.0,-0.0,0.0,0.0,0.0
71215895,0.026306786,0.0068597374,0.08699139,0.15766722,0.0,0.0,0.0,0.0,0.0,0.0,-0.0,0.0,0.0,0.0
71315712,0.025917906,0.0058909017,0.09128213,0.1576155,0.0,0.0,0.0,0.0,0.0,0.0,-0.0,0.0,0.0,0.0
71419508,0.025016911,0.004545314,0.09444804,0.15758078,0.0,0.0,0.0,0.0,0.0,0.0,-0.0,0.0,0.0,0.0
71519893,0.023534812,0.0030248256,0.09497939,0.15748984,0.0,0.0,0.0,0.0,0.0,0.0,-0.0,0.0,0.0,0.0
71619514,0.022234019,0.0012681118,0.08716463,0.15736243,0.0,0.0,0.0,0.0,0.0,0.0,-0.0,0.0,0.0,0.0
71723484,0.0209842,-0.0009279502,0.07319616,0.15722111,0.0,0.0,0.0,0.0,0.0,0.0,-0.0,0.0,0.0,0.0
71824173,0.02017063,-0.0025304116,0.06358366,0.15715411,0.0,0.0,0.0,0.0,0.0,0.0,-0.0,0.0,0.0,0.0
71923530,0.02014848,-0.003135256,0.059239894,0.15707454,0.0,0.0,0.0,0.0,0.0,0.0,-0.0,0.0,0.0,0.0
72027528,0.019880604,-0.0034162798,0.055661965,0.15699586,0.0,0.0,0.0,0.0,0.0,0.0,-0.0,0.0,0.0,0.0
72128059,0.019497406,-0.00347249,0.053080276,0.15695815,0.0,0.0,0.0,0.0,0.0,0.0,-0.0,0.0,0.0,0.0
72227509,0.01890874,-0.0033023923,0.054615922,0.15694487,0.0,0.0,0.0,0.0,0.0,0.0,-0.0,0.0,0.0,0.0
72332321,0.017910458,-0.002912617,0.060202,0.15688582,0.0,0.0,0.0,0.0,0.0,0.0,-0.0,0.0,0.0,0.0
72432914,0.016285138,-0.0026283744,0.06630711,0.15681529,0.0,0.0,0.0,0.0,0.0,0.0,-0.0,0.0,0.0,0.0
72532269,0.014569202,-0.0024197514,0.07229068,0.15673412,0.0,0.0,0.0,0.0,0.0,0.0,-0.0,0.0,0.0,0.0
72636261,0.012607848,-0.002709106,0.07068521,0.15659541,0.0,0.0,0.0,0.0,0.0,0.0,-0.0,0.0,0.0,0.0
72736538,0.010649133,-0.003562204,0.062295757,0.15652196,0.0,0.0,0.0,0.0,0.0,0.0,-0.0,0.0,0.0,0.0
72840648,0.008823498,-0.0045351116,0.054474644,0.1563963,0.0,0.0,0.0,0.0,0.0,0.0,-0.0,0.0,0.0,0.0
72940242,0.007446148,-0.005429111,0.048072144,0.15630886,0.0,0.0,0.0,0.0,0.0,0.0,-0.0,0.0,0.0,0.0
73040748,0.006242747,-0.0060706413,0.045106746,0.15626849,0.0,0.0,0.0,0.0,0.0,0.0,-0.0,0.0,0.0,0.0
73144831,0.0054024616,-0.0064409026,0.04435884,0.15629964,0.0,0.0,0.0,0.0,0.0,0.0,-0.0,0.0,0.0,0.0
73245169,0.0045900815,-0.0069373865,0.04210401,0.15627742,0.0,0.0,0.0,0.0,0.0,0.0,-0.0,0.0,0.0,0.0
73345450,0.0038148733,-0.0074921725,0.038986556,0.15630063,0.0,0.0,0.0,0.0,0.0,0.0,-0.0,0.0,0.0,0.0
73449452,0.0035690214,-0.006692214,0.03629041,0.15633242,0.0,0.0,0.0,0.0,0.0,0.0,-0.0,0.0,0.0,0.0
73549058,0.0037411356,-0.0048751994,0.034086384,0.15639114,0.0,0.0,0.0,0.0,0.0,0.0,-0.0,0.0,0.0,0.0
73649622,0.0044428613,-0.0035021007,0.037906677,0.15642928,0.0,0.0,0.0,0.0,0.0,0.0,-0.0,0.0,0.0,0.0
73753501,0.005558971,-0.0024279943,0.043295532,0.15649843,0.0,0.0,0.0,0.0,0.0,0.0,-0.0,0.0,0.0,0.0
73853094,0.0064328182,-0.0011825097,0.04994215,0.15656088,0.0,0.0,0.0,0.0,0.0,0.0,-0.0,0.0,0.0,0.0
73953440,0.0072366092,0.00037190356,0.05714416,0.15661451,0.0,0.0,0.0,0.0,0.0,0.0,-0.0,0.0,0.0,0.0
74057512,0.0074066254,0.001530155,0.06850906,0.15670888,0.0,0.0,0.0,0.0,0.0,0.0,-0.0,0.0,0.0,0.0
74157119,0.007362373,0.0024792142,0.0795963,0.15679513,0.0,0.0,0.0,0.0,0.0,0.0,-0.0,0.0,0.0,0.0
74261045,0.007032941,0.0026098087,0.08775987,0.15685996,0.0,0.0,0.0,0.0,0.0,0.0,-0.0,0.0,0.0,0.0
74361737,0.006621976,0.002433451,0.09489361,0.15690452,0.0,0.0,0.0,0.0,0.0,0.0,-0.0,0.0,0.0,0.0
74461054,0.0060823127,0.0022070627,0.09804607,0.15691085,0.0,0.0,0.0,0.0,0.0,0.0,-0.0,0.0,0.0,0.0
74565145,0.0054857805,0.0020140174,0.1002881,0.15694253,0.0,0.0,0.0,0.0,0.0,0.0,-0.0,0.0,0.0,0.0
74666537,0.004831522,0.0018422323,0.10245541,0.1569892,0.0,0.0,0.0,0.0,0.0,0.0,-0.0,0.0,0.0,0.0
74765883,0.0042445674,0.0018401268,0.10443421,0.15697019,0.0,0.0,0.0,0.0,0.0,0.0,-0.0,0.0,0.0,0.0
74869887,0.0048613218,0.0024739844,0.10635753,0.15696605,0.0,0.0,0.0,0.0,0.0,0.0,-0.0,0.0,0.0,0.0
74970639,0.0059920144,0.0035542743,0.108639695,0.15699898,0.0,0.0,0.0,0.0,0.0,0.0,-0.0,0.0,0.0,0.0
75069892,0.006849313,0.0056424118,0.11273579,0.15708302,0.0,0.0,0.0,0.0,0.0,0.0,-0.0,0.0,0.0,0.0
75173866,0.007830526,0.00824636,0.11684365,0.15713644,0.0,0.0,0.0,0.0,0.0,0.0,-0.0,0.0,0.0,0.0
75274429,0.009580171,0.010815732,0.1269172,0.15718529,0.0,0.0,0.0,0.0,0.0,0.0,-0.0,0.0,0.0,0.0
75378702,0.011762535,0.013560515,0.13706075,0.15723,0.0,0.0,0.0,0.0,0.0,0.0,-0.0,0.0,0.0,0.0
75477874,0.01467228,0.015183479,0.1438916,0.15731515,0.0,0.0,0.0,0.0,0.0,0.0,-0.0,0.0,0.0,0.0
75578355,0.018065471,0.016595554,0.15056643,0.1573761,0.0,0.0,0.0,0.0,0.0,0.0,-0.0,0.0,0.0,0.0
75682270,0.020427532,0.01712127,0.15271066,0.1574256,0.0,0.0,0.0,0.0,0.0,0.0,-0.0,0.0,0.0,0.0
75782683,0.022525756,0.017483559,0.15462434,0.15750006,0.0,0.0,0.0,0.0,0.0,0.0,-0.0,0.0,0.0,0.0
75882824,0.024086926,0.01764557,0.15527818,0.15749525,0.0,0.0,0.0,0.0,0.0,0.0,-0.0,0.0,0.0,0.0
75987041,0.025382854,0.017809099,0.15531197,0.1575314,0.0,0.0,0.0,0.0,0.0,0.0,-0.0,0.0,0.0,0.0
76086686,0.025625715,0.017718012,0.15312909,0.15752998,0.0,0.0,0.0,0.0,0.0,0.0,-0.0,0.0,0.0,0.0
76187313,0.025533136,0.017621016,0.15061001,0.15754768,0.0,0.0,0.0,0.0,0.0,0.0,-0.0,0.0,0.0,0.0
76291275,0.024653748,0.016797036,0.14912671,0.15756914,0.0,0.0,0.0,0.0,0.0,0.0,-0.0,0.0,0.0,0.0
76390752,0.02373152,0.015988156,0.14927787,0.15759596,0.0,0.0,0.0,0.0,0.0,0.0,-0.0,0.0,0.0,0.0
76491400,0.022506423,0.014581244,0.15411696,0.15763336,0.0,0.0,0.0,0.0,0.0,0.0,-0.0,0.0,0.0,0.0
76595229,0.021425247,0.013419138,0.16078468,0.15770632,0.0,0.0,0.0,0.0,0.0,0.0,-0.0,0.0,0.0,0.0
76695475,0.020091517,0.012804366,0.17335294,0.15768157,0.0,0.0,0.0,0.0,0.0,0.0,-0.0,0.0,0.0,0.0
76795999,0.018703293,0.012145529,0.18561962,0.1577172,0.0,0.0,0.0,0.0,0.0,0.0,-0.0,0.0,0.0,0.0
76899975,0.01720521,0.01093469,0.19492811,0.15769282,0.0,0.0,0.0,0.0,0.0,0.0,-0.0,0.0,0.0,0.0
76999571,0.016113061,0.010006643,0.20020793,0.15768209,0.0,0.0,0.0,0.0,0.0,0.0,-0.0,0.0,0.0,0.0
77103491,0.015437878,0.009469289,0.1981121,0.15768208,0.0,0.0,0.0,0.0,0.0,0.0,-0.0,0.0,0.0,0.0
77203994,0.015361199,0.009200468,0.19317298,0.15769838,0.0,0.0,0.0,0.0,0.0,0.0,-0.0,0.0,0.0,0.0
77303536,0.016480496,0.009136445,0.18182233,0.15775403,0.0,0.0,0.0,0.0,0.0,0.0,-0.0,0.0,0.0,0.0
77407544,0.01795753,0.009069537,0.16959006,0.15774317,0.0,0.0,0.0,0.0,0.0,0.0,-0.0,0.0,0.0,0.0
77507926,0.01904815,0.008735375,0.15877326,0.15773264,0.0,0.0,0.0,0.0,0.0,0.0,-0.0,0.0,0.0,0.0
77607500,0.019950874,0.008298705,0.15149084,0.15774627,0.0,0.0,0.0,0.0,0.0,0.0,-0.0,0.0,0.0,0.0
77711747,0.020610731,0.0075998395,0.14719188,0.15773058,0.0,0.0,0.0,0.0,0.0,0.0,-0.0,0.0,0.0,0.0
77812214,0.020945521,0.00682666,0.14376505,0.15772408,0.0,0.0,0.0,0.0,0.0,0.0,-0.0,0.0,0.0,0.0
77911515,0.020899534,0.0059172073,0.14089502,0.15776958,0.0,0.0,0.0,0.0,0.0,0.0,-0.0,0.0,0.0,0.0
78016319,0.021039434,0.005000803,0.14070389,0.15779895,0.0,0.0,0.0,0.0,0.0,0.0,-0.0,0.0,0.0,0.0
78116692,0.021753132,0.0042893626,0.14318337,0.15781736,0.0,0.0,0.0,0.0,0.0,0.0,-0.0,0.0,0.0,0.0
78216290,0.022415442,0.0038504645,0.14416061,0.15787159,0.0,0.0,0.0,0.0,0.0,0.0,-0.0,0.0,0.0,0.0
78320268,0.022353346,0.0038194081,0.14254065,0.15789218,0.0,0.0,0.0,0.0,0.0,0.0,-0.0,0.0,0.0,0.0
78420598,0.022330582,0.00412633,0.14151336,0.15792838,0.0,0.0,0.0,0.0,0.0,0.0,-0.0,0.0,0.0,0.0
78524696,0.02268285,0.0047635776,0.1412514,0.15797082,0.0,0.0,0.0,0.0,0.0,0.0,-0.0,0.0,0.0,0.0
78624251,0.022961564,0.0052839704,0.14257392,0.15800367,0.0,0.0,0.0,0.0,0.0,0.0,-0.0,0.0,0.0,0.0
78724941,0.022773845,0.0055564004,0.14657632,0.15805501,0.0,0.0,0.0,0.0,0.0,0.0,-0.0,0.0,0.0,0.0
78828677,0.022307787,0.0055651222,0.14978239,0.15807237,0.0,0.0,0.0,0.0,0.0,0.0,-0.0,0.0,0.0,0.0
78929096,0.021643944,0.0053678923,0.15271872,0.15806945,0.0,0.0,0.0,0.0,0.0,0.0,-0.0,0.0,0.0,0.0
79029498,0.021522462,0.0053889463,0.1582433,0.15814659,0.0,0.0,0.0,0.0,0.0,0.0,-0.0,0.0,0.0,0.0
79133524,0.0222798,0.005770365,0.16456415,0.15816957,0.0,0.0,0.0,0.0,0.0,0.0,-0.0,0.0,0.0,0.0
79233070,0.023126606,0.005956135,0.16895866,0.15819797,0.0,0.0,0.0,0.0,0.0,0.0,-0.0,0.0,0.0,0.0
79333763,0.02392802,0.00593059,0.17143297,0.15817301,0.0,0.0,0.0,0.0,0.0,0.0,-0.0,0.0,0.0,0.0
79437334,0.024217075,0.0056145126,0.17446013,0.15815413,0.0,0.0,0.0,0.0,0.0,0.0,-0.0,0.0,0.0,0.0
79537097,0.024205042,0.005156104,0.17722346,0.15817577,0.0,0.0,0.0,0.0,0.0,0.0,-0.0,0.0,0.0,0.0
79637492,0.022086544,0.004229019,0.17145333,0.15817718,0.0,0.0,0.0,0.0,0.0,0.0,-0.0,0.0,0.0,0.0
79741611,0.018669106,0.003076708,0.16188155,0.1581798,0.0,0.0,0.0,0.0,0.0,0.0,-0.0,0.0,0.0,0.0
79841054,0.015459091,0.001894494,0.15159811,0.15818845,0.0,0.0,0.0,0.0,0.0,0.0,-0.0,0.0,0.0,0.0
79945107,0.012421178,0.00068469485,0.14046401,0.15821417,0.0,0.0,0.0,0.0,0.0,0.0,-0.0,0.0,0.0,0.0
80045615,0.010793054,-1.7439792e-05,0.12987405,0.15821533,0.0,0.0,0.0,0.0,0.0,0.0,-0.0,0.0,0.0,0.0
80145117,0.01021677,-0.0002988916,0.12067896,0.1582138,0.0,0.0,0.0,0.0,0.0,0.0,-0.0,0.0,0.0,0.0
80249057,0.010365118,-0.00015499844,0.116898604,0.15825227,0.0,0.0,0.0,0.0,0.0,0.0,-0.0,0.0,0.0,0.0
80350219,0.011240212,0.00038942002,0.11715806,0.15825118,0.0,0.0,0.0,0.0,0.0,0.0,-0.0,0.0,0.0,0.0
80449880,0.011371185,0.00078308437,0.11834039,0.1582485,0.0,0.0,0.0,0.0,0.0,0.0,-0.0,0.0,0.0,0.0
80554110,0.011182884,0.0011516381,0.120552815,0.15825032,0.0,0.0,0.0,0.0,0.0,0.0,-0.0,0.0,0.0,0.0
80654440,0.009926373,0.0014737361,0.1205774,0.1582564,0.0,0.0,0.0,0.0,0.0,0.0,-0.0,0.0,0.0,0.0
80753887,0.008458965,0.0018627765,0.11986331,0.15820937,0.0,0.0,0.0,0.0,0.0,0.0,-0.0,0.0,0.0,0.0
80857899,0.006612405,0.0020215889,0.11913675,0.15817526,0.0,0.0,0.0,0.0,0.0,0.0,-0.0,0.0,0.0,0.0
80958388,0.0048563867,0.0021100899,0.11835724,0.1581881,0.0,0.0,0.0,0.0,0.0,0.0,-0.0,0.0,0.0,0.0
81062543,0.0036488965,0.001913224,0.11800395,0.1582143,0.0,0.0,0.0,0.0,0.0,0.0,-0.0,0.0,0.0,0.0
81161872,0.0028743166,0.0017249481,0.11697227,0.15824506,0.0,0.0,0.0,0.0,0.0,0.0,-0.0,0.0,0.0,0.0
81262519,0.00209168,0.0012136082,0.11551798,0.15822223,0.0,0.0,0.0,0.0,0.0,0.0,-0.0,0.0,0.0,0.0
81366337,0.0014701289,0.000636898,0.11370579,0.15825236,0.0,0.0,0.0,0.0,0.0,0.0,-0.0,0.0,0.0,0.0
81466814,0.0016200132,0.0005662395,0.10965128,0.1583004,0.0,0.0,0.0,0.0,0.0,0.0,-0.0,0.0,0.0,0.0
81567308,0.0023067642,0.00075443095,0.10557065,0.15828967,0.0,0.0,0.0,0.0,0.0,0.0,-0.0,0.0,0.0,0.0
81671171,0.0031177774,0.0007744784,0.10448056,0.15833215,0.0,0.0,0.0,0.0,0.0,0.0,-0.0,0.0,0.0,0.0
81770752,0.0040399884,0.0009085719,0.10381863,0.15836564,0.0,0.0,0.0,0.0,0.0,0.0,-0.0,0.0,0.0,0.0
81871121,0.0053639747,0.0007257385,0.107432365,0.15845472,0.0,0.0,0.0,0.0,0.0,0.0,-0.0,0.0,0.0,0.0
81975406,0.0068127853,0.0005534624,0.11007588,0.15845272,0.0,0.0,0.0,0.0,0.0,0.0,-0.0,0.0,0.0,0.0
82074694,0.007850161,0.00017751838,0.10577226,0.15842968,0.0,0.0,0.0,0.0,0.0,0.0,-0.0,0.0,0.0,0.0
82175113,0.008937953,-0.00022840028,0.10036385,0.15844373,0.0,0.0,0.0,0.0,0.0,0.0,-0.0,0.0,0.0,0.0
82279150,0.009252237,-0.00052773184,0.09366758,0.1584505,0.0,0.0,0.0,0.0,0.0,0.0,-0.0,0.0,0.0,0.0
82378651,0.009482862,-0.00065184885,0.08805213,0.15846328,0.0,0.0,0.0,0.0,0.0,0.0,-0.0,0.0,0.0,0.0
82482641,0.009366119,-0.0006236267,0.08603104,0.15841502,0.0,0.0,0.0,0.0,0.0,0.0,-0.0,0.0,0.0,0.0
82583840,0.009030451,-0.000530218,0.084663294,0.15834683,0.0,0.0,0.0,0.0,0.0,0.0,-0.0,0.0,0.0,0.0
82683508,0.007860251,-0.00058701984,0.08472748,0.1583126,0.0,0.0,0.0,0.0,0.0,0.0,-0.0,0.0,0.0,0.0
82787566,0.006367265,-0.00062929915,0.084767155,0.15830417,0.0,0.0,0.0,0.0,0.0,0.0,-0.0,0.0,0.0,0.0
82888076,0.00397024,-0.0015181034,0.07899656,0.15828235,0.0,0.0,0.0,0.0,0.0,0.0,-0.0,0.0,0.0,0.0
82987568,0.0015818523,-0.00243772,0.07411282,0.15822466,0.0,0.0,0.0,0.0,0.0,0.0,-0.0,0.0,0.0,0.0
83091535,-0.001498409,-0.0034954601,0.07402392,0.15823391,0.0,0.0,0.0,0.0,0.0,0.0,-0.0,0.0,0.0,0.0
83192041,-0.0044897157,-0.004486953,0.073240004,0.15826933,0.0,0.0,0.0,0.0,0.0,0.0,-0.0,0.0,0.0,0.0
83291510,-0.006948445,-0.005317596,0.0699854,0.15822516,0.0,0.0,0.0,0.0,0.0,0.0,-0.0,0.0,0.0,0.0
83395473,-0.009173616,-0.006080839,0.066762164,0.15821436,0.0,0.0,0.0,0.0,0.0,0.0,-0.0,0.0,0.0,0.0
83495910,-0.010806824,-0.006686098,0.06321508,0.15828162,0.0,0.0,0.0,0.0,0.0,0.0,-0.0,0.0,0.0,0.0
83600008,-0.012051716,-0.00713104,0.060278136,0.15830994,0.0,0.0,0.0,0.0,0.0,0.0,-0.0,0.0,0.0,0.0
83700287,-0.012856787,-0.0074085174,0.058154903,0.15836088,0.0,0.0,0.0,0.0,0.0,0.0,-0.0,0.0,0.0,0.0
83800814,-0.013333107,-0.0075934893,0.056161486,0.15834361,0.0,0.0,0.0,0.0,0.0,0.0,-0.0,0.0,0.0,0.0
83900275,-0.01356197,-0.0077552097,0.053213604,0.15836821,0.0,0.0,0.0,0.0,0.0,0.0,-0.0,0.0,0.0,0.0
84004270,-0.013238817,-0.0077340123,0.05097512,0.1583463,0.0,0.0,0.0,0.0,0.0,0.0,-0.0,0.0,0.0,0.0
84104538,-0.011740557,-0.007197703,0.050150234,0.158357,0.0,0.0,0.0,0.0,0.0,0.0,-0.0,0.0,0.0,0.0
84208782,-0.009823008,-0.006556413,0.049435988,0.1583576,0.0,0.0,0.0,0.0,0.0,0.0,-0.0,0.0,0.0,0.0
84308248,-0.0077045853,-0.0060218815,0.049459845,0.1583585,0.0,0.0,0.0,0.0,0.0,0.0,-0.0,0.0,0.0,0.0
84408506,-0.0055710115,-0.005305512,0.051589597,0.15840422,0.0,0.0,0.0,0.0,0.0,0.0,-0.0,0.0,0.0,0.0
84512765,-0.0036162226,-0.004258706,0.05668067,0.15838993,0.0,0.0,0.0,0.0,0.0,0.0,-0.0,0.0,0.0,0.0
84612239,-0.0018098261,-0.0031819935,0.061484687,0.15841274,0.0,0.0,0.0,0.0,0.0,0.0,-0.0,0.0,0.0,0.0
84713687,0.00028560968,-0.002086907,0.06715638,0.15844543,0.0,0.0,0.0,0.0,0.0,0.0,-0.0,0.0,0.0,0.0
84817565,0.0025286032,-0.0011741011,0.071037374,0.15845443,0.0,0.0,0.0,0.0,0.0,0.0,-0.0,0.0,0.0,0.0
84917087,0.004797879,-0.0005686545,0.07284408,0.15852492,0.0,0.0,0.0,0.0,0.0,0.0,-0.0,0.0,0.0,0.0
85017566,0.006589476,-0.0006485929,0.075506814,0.15852572,0.0,0.0,0.0,0.0,0.0,0.0,-0.0,0.0,0.0,0.0
85121500,0.007830641,-0.0013889029,0.07876493,0.15854944,0.0,0.0,0.0,0.0,0.0,0.0,-0.0,0.0,0.0,0.0
85221061,0.008556386,-0.0021842595,0.07790915,0.15857354,0.0,0.0,0.0,0.0,0.0,0.0,-0.0,0.0,0.0,0.0
85321336,0.008581984,-0.0029246744,0.07097412,0.15861051,0.0,0.0,0.0,0.0,0.0,0.0,-0.0,0.0,0.0,0.0
85425826,0.0085172895,-0.0035809479,0.062501214,0.15861002,0.0,0.0,0.0,0.0,0.0,0.0,-0.0,0.0,0.0,0.0
85525139,0.008527402,-0.004112227,0.053648394,0.15855882,0.0,0.0,0.0,0.0,0.0,0.0,-0.0,0.0,0.0,0.0
85629087,0.008544555,-0.0046412824,0.0461859,0.15854765,0.0,0.0,0.0,0.0,0.0,0.0,-0.0,0.0,0.0,0.0
85729528,0.008667624,-0.005094726,0.040118475,0.15855941,0.0,0.0,0.0,0.0,0.0,0.0,-0.0,0.0,0.0,0.0
85829093,0.00851896,-0.0056581255,0.03709302,0.15857305,0.0,0.0,0.0,0.0,0.0,0.0,-0.0,0.0,0.0,0.0
85933060,0.0077525303,-0.006461688,0.037469894,0.15857807,0.0,0.0,0.0,0.0,0.0,0.0,-0.0,0.0,0.0,0.0
86034226,0.0077514783,-0.0070550703,0.03564004,0.15857011,0.0,0.0,0.0,0.0,0.0,0.0,-0.0,0.0,0.0,0.0
86133875,0.008660575,-0.0074025616,0.032432973,0.15861659,0.0,0.0,0.0,0.0,0.0,0.0,-0.0,0.0,0.0,0.0
86237887,0.009689308,-0.0075299866,0.03311802,0.15863031,0.0,0.0,0.0,0.0,0.0,0.0,-0.0,0.0,0.0,0.0
86338147,0.010532098,-0.007374752,0.037405197,0.15861721,0.0,0.0,0.0,0.0,0.0,0.0,-0.0,0.0,0.0,0.0
86437881,0.011089007,-0.0072110305,0.04270896,0.15865274,0.0,0.0,0.0,0.0,0.0,0.0,-0.0,0.0,0.0,0.0
86541872,0.011421428,-0.007004405,0.048657134,0.15864868,0.0,0.0,0.0,0.0,0.0,0.0,-0.0,0.0,0.0,0.0
86642288,0.011428411,-0.0068468824,0.05198651,0.15866242,0.0,0.0,0.0,0.0,0.0,0.0,-0.0,0.0,0.0,0.0
86746151,0.011260287,-0.0067663435,0.053036034,0.15867372,0.0,0.0,0.0,0.0,0.0,0.0,-0.0,0.0,0.0,0.0
86845887,0.011115636,-0.0068443352,0.053524796,0.1586413,0.0,0.0,0.0,0.0,0.0,0.0,-0.0,0.0,0.0,0.0
86946164,0.010996453,-0.0069570006,0.05316465,0.158671,0.0,0.0,0.0,0.0,0.0,0.0,-0.0,0.0,0.0,0.0
87045887,0.010458812,-0.0070975074,0.05116999,0.15867013,0.0,0.0,0.0,0.0,0.0,0.0,-0.0,0.0,0.0,0.0
87150699,0.009744829,-0.0072220745,0.048770644,0.15866563,0.0,0.0,0.0,0.0,0.0,0.0,-0.0,0.0,0.0,0.0
87251166,0.008455933,-0.0071116947,0.042925533,0.15866902,0.0,0.0,0.0,0.0,0.0,0.0,-0.0,0.0,0.0,0.0
87355093,0.0069023725,-0.0067983908,0.035759985,0.15868236,0.0,0.0,0.0,0.0,0.0,0.0,-0.0,0.0,0.0,0.0
87455152,0.004957721,-0.006789202,0.028203292,0.15872252,0.0,0.0,0.0,0.0,0.0,0.0,-0.0,0.0,0.0,0.0
87555102,0.0027856024,-0.006960556,0.020766,0.15866883,0.0,0.0,0.0,0.0,0.0,0.0,-0.0,0.0,0.0,0.0
87659134,0.00034170377,-0.0072677443,0.020712176,0.15867835,0.0,0.0,0.0,0.0,0.0,0.0,-0.0,0.0,0.0,0.0
87759090,-0.0019705202,-0.007576199,0.02177165,0.15869136,0.0,0.0,0.0,0.0,0.0,0.0,-0.0,0.0,0.0,0.0
87859333,-0.0036243522,-0.006879361,0.022005642,0.15870714,0.0,0.0,0.0,0.0,0.0,0.0,-0.0,0.0,0.0,0.0
87963277,-0.004884657,-0.0057750195,0.021841971,0.15869996,0.0,0.0,0.0,0.0,0.0,0.0,-0.0,0.0,0.0,0.0
88062712,-0.005588294,-0.0046316516,0.03172381,0.15868768,0.0,0.0,0.0,0.0,0.0,0.0,-0.0,0.0,0.0,0.0
88166688,-0.0060718083,-0.0032472475,0.042653266,0.15866756,0.0,0.0,0.0,0.0,0.0,0.0,-0.0,0.0,0.0,0.0
88267145,-0.006465492,-0.0022173151,0.04679871,0.15871066,0.0,0.0,0.0,0.0,0.0,0.0,-0.0,0.0,0.0,0.0
88367497,-0.006955028,-0.0012961306,0.048651826,0.1587202,0.0,0.0,0.0,0.0,0.0,0.0,-0.0,0.0,0.0,0.0
88467895,-0.006840967,-0.0005589652,0.05191399,0.15868719,0.0,0.0,0.0,0.0,0.0,0.0,-0.0,0.0,0.0,0.0
88572338,-0.0066031427,0.000117608215,0.055228435,0.15864225,0.0,0.0,0.0,0.0,0.0,0.0,-0.0,0.0,0.0,0.0
88671584,-0.0070279716,0.00041444358,0.060526643,0.15867668,0.0,0.0,0.0,0.0,0.0,0.0,-0.0,0.0,0.0,0.0
88775509,-0.007743248,0.00061255175,0.06542081,0.15864514,0.0,0.0,0.0,0.0,0.0,0.0,-0.0,0.0,0.0,0.0
88875766,-0.0072104745,0.0004516468,0.06613943,0.15862583,0.0,0.0,0.0,0.0,0.0,0.0,-0.0,0.0,0.0,0.0
88975522,-0.006578743,0.00029739557,0.06695476,0.1586072,0.0,0.0,0.0,0.0,0.0,0.0,-0.0,0.0,0.0,0.0
89079571,-0.0056651193,-0.00013127265,0.06746247,0.15856041,0.0,0.0,0.0,0.0,0.0,0.0,-0.0,0.0,0.0,0.0
89179943,-0.004736483,-0.00053058553,0.0675163,0.1585585,0.0,0.0,0.0,0.0,0.0,0.0,-0.0,0.0,0.0,0.0
89279570,-0.003661835,-0.0007843458,0.06570013,0.15854491,0.0,0.0,0.0,0.0,0.0,0.0,-0.0,0.0,0.0,0.0
89383530,-0.0025183435,-0.0009892388,0.063141145,0.15854858,0.0,0.0,0.0,0.0,0.0,0.0,-0.0,0.0,0.0,0.0
89484510,-0.0014906492,-0.001929057,0.06019471,0.15855968,0.0,0.0,0.0,0.0,0.0,0.0,-0.0,0.0,0.0,0.0
89584257,-0.0005526745,-0.0028536352,0.057637855,0.15862031,0.0,0.0,0.0,0.0,0.0,0.0,-0.0,0.0,0.0,0.0
89688263,0.00060068845,-0.003559534,0.046026275,0.1586383,0.0,0.0,0.0,0.0,0.0,0.0,-0.0,0.0,0.0,0.0
89788635,0.0016910745,-0.0040637604,0.0343356,0.15862654,0.0,0.0,0.0,0.0,0.0,0.0,-0.0,0.0,0.0,0.0
89892722,0.0023278976,-0.0042521665,0.019239949,0.15858778,0.0,0.0,0.0,0.0,0.0,0.0,-0.0,0.0,0.0,0.0
89992275,0.0027313589,-0.0042995224,0.007591781,0.15858361,0.0,0.0,0.0,0.0,0.0,0.0,-0.0,0.0,0.0,0.0
90092507,0.0027141925,-0.0043815738,0.00217239,0.15859732,0.0,0.0,0.0,0.0,0.0,0.0,-0.0,0.0,0.0,0.0
90196844,0.0026507874,-0.004391211,-0.0022822914,0.15856129,0.0,0.0,0.0,0.0,0.0,0.0,-0.0,0.0,0.0,0.0
90296278,0.0022722234,-0.0045074522,-0.0029636635,0.15856722,0.0,0.0,0.0,0.0,0.0,0.0,-0.0,0.0,0.0,0.0
90397606,0.0021395201,-0.0043938044,-0.0017410559,0.15859531,0.0,0.0,0.0,0.0,0.0,0.0,-0.0,0.0,0.0,0.0
90501452,0.003150005,-0.00330583,0.0036020125,0.15860938,0.0,0.0,0.0,0.0,0.0,0.0,-0.0,0.0,0.0,0.0
90601058,0.004214875,-0.002409432,0.008089537,0.15861776,0.0,0.0,0.0,0.0,0.0,0.0,-0.0,0.0,0.0,0.0
90701512,0.005005304,-0.002431203,0.012465112,0.15858836,0.0,0.0,0.0,0.0,0.0,0.0,-0.0,0.0,0.0,0.0
90805566,0.00569407,-0.0027849083,0.016608007,0.15857746,0.0,0.0,0.0,0.0,0.0,0.0,-0.0,0.0,0.0,0.0
90905115,0.0059347358,-0.0035461714,0.020370355,0.15857013,0.0,0.0,0.0,0.0,0.0,0.0,-0.0,0.0,0.0,0.0
91005445,0.0058189547,-0.004247549,0.024629965,0.15853715,0.0,0.0,0.0,0.0,0.0,0.0,-0.0,0.0,0.0,0.0
91109562,0.0053721215,-0.0044604843,0.029226769,0.15847227,0.0,0.0,0.0,0.0,0.0,0.0,-0.0,0.0,0.0,0.0
91209072,0.005140211,-0.0045500924,0.03265241,0.1583927,0.0,0.0,0.0,0.0,0.0,0.0,-0.0,0.0,0.0,0.0
91313186,0.00567114,-0.004670444,0.03534552,0.1583516,0.0,0.0,0.0,0.0,0.0,0.0,-0.0,0.0,0.0,0.0
91413552,0.006488135,-0.0050504673,0.040477328,0.15838093,0.0,0.0,0.0,0.0,0.0,0.0,-0.0,0.0,0.0,0.0
91513056,0.0074827773,-0.005952203,0.049620092,0.15837142,0.0,0.0,0.0,0.0,0.0,0.0,-0.0,0.0,0.0,0.0
91617104,0.008581479,-0.0070144073,0.056265585,0.15837835,0.0,0.0,0.0,0.0,0.0,0.0,-0.0,0.0,0.0,0.0
91718307,0.009648062,-0.007964948,0.059033394,0.15838292,0.0,0.0,0.0,0.0,0.0,0.0,-0.0,0.0,0.0,0.0
91817849,0.0105182165,-0.008791027,0.060295176,0.15840182,0.0,0.0,0.0,0.0,0.0,0.0,-0.0,0.0,0.0,0.0
91921921,0.010796928,-0.009502168,0.05853584,0.15838629,0.0,0.0,0.0,0.0,0.0,0.0,-0.0,0.0,0.0,0.0
92022596,0.011003299,-0.009922223,0.054844677,0.15835509,0.0,0.0,0.0,0.0,0.0,0.0,-0.0,0.0,0.0,0.0
92122307,0.01138979,-0.009983144,0.050220415,0.15836896,0.0,0.0,0.0,0.0,0.0,0.0,-0.0,0.0,0.0,0.0
92225881,0.011324233,-0.010257266,0.048321668,0.15835801,0.0,0.0,0.0,0.0,0.0,0.0,-0.0,0.0,0.0,0.0
92326308,0.010740319,-0.010890245,0.048845693,0.15834127,0.0,0.0,0.0,0.0,0.0,0.0,-0.0,0.0,0.0,0.0
92430350,0.010190064,-0.011730985,0.041853894,0.15832593,0.0,0.0,0.0,0.0,0.0,0.0,-0.0,0.0,0.0,0.0
92529869,0.0098613715,-0.012657535,0.029296169,0.15828541,0.0,0.0,0.0,0.0,0.0,0.0,-0.0,0.0,0.0,0.0
92630396,0.009827527,-0.013493058,0.017466808,0.15824255,0.0,0.0,0.0,0.0,0.0,0.0,-0.0,0.0,0.0,0.0
92730673,0.010205885,-0.014232264,0.007115469,0.15823425,0.0,0.0,0.0,0.0,0.0,0.0,-0.0,0.0,0.0,0.0
92834661,0.010543108,-0.014672469,-0.0003697171,0.15820704,0.0,0.0,0.0,0.0,0.0,0.0,-0.0,0.0,0.0,0.0
92935366,0.01070159,-0.014616075,-0.0043096053,0.15814848,0.0,0.0,0.0,0.0,0.0,0.0,-0.0,0.0,0.0,0.0
93039051,0.010667816,-0.0143817635,-0.0064151785,0.15815607,0.0,0.0,0.0,0.0,0.0,0.0,-0.0,0.0,0.0,0.0
93138648,0.010519334,-0.014108972,-0.006968257,0.15814637,0.0,0.0,0.0,0.0,0.0,0.0,-0.0,0.0,0.0,0.0
93238964,0.010975069,-0.01371054,-0.0064795567,0.15813413,0.0,0.0,0.0,0.0,0.0,0.0,-0.0,0.0,0.0,0.0
93343055,0.012074247,-0.013332152,-0.0057311077,0.15819064,0.0,0.0,0.0,0.0,0.0,0.0,-0.0,0.0,0.0,0.0
93442692,0.012975156,-0.013007683,-0.0033653562,0.15818143,0.0,0.0,0.0,0.0,0.0,0.0,-0.0,0.0,0.0,0.0
93542966,0.012611417,-0.012680411,0.0044472897,0.1582389,0.0,0.0,0.0,0.0,0.0,0.0,-0.0,0.0,0.0,0.0
93647239,0.011939363,-0.012363891,0.004952768,0.15827441,0.0,0.0,0.0,0.0,0.0,0.0,-0.0,0.0,0.0,0.0
93746670,0.01133591,-0.012175298,0.0031678115,0.15830226,0.0,0.0,0.0,0.0,0.0,0.0,-0.0,0.0,0.0,0.0
93850699,0.0107227145,-0.012211281,0.0022255697,0.15829875,0.0,0.0,0.0,0.0,0.0,0.0,-0.0,0.0,0.0,0.0
93950943,0.010320434,-0.01291109,0.005354157,0.15828592,0.0,0.0,0.0,0.0,0.0,0.0,-0.0,0.0,0.0,0.0
94051569,0.009781074,-0.013838934,0.012996008,0.1583055,0.0,0.0,0.0,0.0,0.0,0.0,-0.0,0.0,0.0,0.0
94155483,0.009291301,-0.014988017,0.022564482,0.15832971,0.0,0.0,0.0,0.0,0.0,0.0,-0.0,0.0,0.0,0.0
94255954,0.008154796,-0.016623816,0.03307363,0.15830551,0.0,0.0,0.0,0.0,0.0,0.0,-0.0,0.0,0.0,0.0
94355542,0.006409554,-0.01874967,0.043519843,0.15828462,0.0,0.0,0.0,0.0,0.0,0.0,-0.0,0.0,0.0,0.0
94459530,0.004287736,-0.020591535,0.051103335,0.15826353,0.0,0.0,0.0,0.0,0.0,0.0,-0.0,0.0,0.0,0.0
94559766,0.0022633364,-0.022169398,0.057003498,0.15826263,0.0,0.0,0.0,0.0,0.0,0.0,-0.0,0.0,0.0,0.0
94659517,0.0002990843,-0.023176841,0.061015416,0.15823433,0.0,0.0,0.0,0.0,0.0,0.0,-0.0,0.0,0.0,0.0
94763835,-0.0018470935,-0.023477357,0.06362296,0.1582255,0.0,0.0,0.0,0.0,0.0,0.0,-0.0,0.0,0.0,0.0
94864021,-0.005651051,-0.022753028,0.06448859,0.15822245,0.0,0.0,0.0,0.0,0.0,0.0,-0.0,0.0,0.0,0.0
94968361,-0.010166244,-0.021790102,0.06480722,0.15824273,0.0,0.0,0.0,0.0,0.0,0.0,-0.0,0.0,0.0,0.0
95071887,-0.014314967,-0.021780724,0.06377321,0.15822724,0.0,0.0,0.0,0.0,0.0,0.0,-0.0,0.0,0.0,0.0
95172293,-0.018114315,-0.02218488,0.06315876,0.15822741,0.0,0.0,0.0,0.0,0.0,0.0,-0.0,0.0,0.0,0.0
95272559,-0.018898798,-0.021247873,0.06012301,0.15817636,0.0,0.0,0.0,0.0,0.0,0.0,-0.0,0.0,0.0,0.0
95376709,-0.018739393,-0.020249838,0.057713605,0.15815702,0.0,0.0,0.0,0.0,0.0,0.0,-0.0,0.0,0.0,0.0
95476237,-0.015533068,-0.019187335,0.06453087,0.15817359,0.0,0.0,0.0,0.0,0.0,0.0,-0.0,0.0,0.0,0.0
95576611,-0.011444888,-0.01819015,0.07138368,0.15820941,0.0,0.0,0.0,0.0,0.0,0.0,-0.0,0.0,0.0,0.0
95680660,-0.0090283565,-0.017826961,0.0762998,0.15822875,0.0,0.0,0.0,0.0,0.0,0.0,-0.0,0.0,0.0,0.0
95780289,-0.007288508,-0.017847357,0.07889082,0.1582187,0.0,0.0,0.0,0.0,0.0,0.0,-0.0,0.0,0.0,0.0
95884264,-0.0064095156,-0.018387629,0.07144324,0.15823805,0.0,0.0,0.0,0.0,0.0,0.0,-0.0,0.0,0.0,0.0
95984562,-0.0060593938,-0.019135924,0.0618526,0.15822567,0.0,0.0,0.0,0.0,0.0,0.0,-0.0,0.0,0.0,0.0
96085136,-0.0060978057,-0.019596508,0.045083527,0.15822132,0.0,0.0,0.0,0.0,0.0,0.0,-0.0,0.0,0.0,0.0
96185527,-0.0062879687,-0.019963386,0.027857035,0.15822358,0.0,0.0,0.0,0.0,0.0,0.0,-0.0,0.0,0.0,0.0
96289500,-0.0065684114,-0.020038376,0.012554873,0.15822239,0.0,0.0,0.0,0.0,0.0,0.0,-0.0,0.0,0.0,0.0
96389113,-0.0068145734,-0.020052744,-0.00016529641,0.15820117,0.0,0.0,0.0,0.0,0.0,0.0,-0.0,0.0,0.0,0.0
96493123,-0.0070762835,-0.01974916,-0.012347951,0.15821604,0.0,0.0,0.0,0.0,0.0,0.0,-0.0,0.0,0.0,0.0
96593556,-0.0067541967,-0.019475123,-0.024950609,0.15824653,0.0,0.0,0.0,0.0,0.0,0.0,-0.0,0.0,0.0,0.0
96693037,-0.005076123,-0.019387413,-0.040940776,0.15821847,0.0,0.0,0.0,0.0,0.0,0.0,-0.0,0.0,0.0,0.0
96797097,-0.0030095417,-0.019372737,-0.058587704,0.158195,0.0,0.0,0.0,0.0,0.0,0.0,-0.0,0.0,0.0,0.0
96897713,-0.0016165789,-0.019215086,-0.0791436,0.1582085,0.0,0.0,0.0,0.0,0.0,0.0,-0.0,0.0,0.0,0.0
96997089,-0.0005702984,-0.018987507,-0.09492031,0.15823016,0.0,0.0,0.0,0.0,0.0,0.0,-0.0,0.0,0.0,0.0
97101077,-0.00025396777,-0.018326053,-0.10387857,0.15820928,0.0,0.0,0.0,0.0,0.0,0.0,-0.0,0.0,0.0,0.0
97201552,-0.0002604667,-0.01764786,-0.112856254,0.15819247,0.0,0.0,0.0,0.0,0.0,0.0,-0.0,0.0,0.0,0.0
97305744,-0.00064012513,-0.017148795,-0.12686676,0.1581716,0.0,0.0,0.0,0.0,0.0,0.0,-0.0,0.0,0.0,0.0
97405172,-0.00091222016,-0.016656213,-0.13878202,0.1581603,0.0,0.0,0.0,0.0,0.0,0.0,-0.0,0.0,0.0,0.0
97506234,-0.0005658311,-0.0152491545,-0.14309214,0.1581369,0.0,0.0,0.0,0.0,0.0,0.0,-0.0,0.0,0.0,0.0
97610226,-0.0002672885,-0.013891947,-0.14643992,0.15814467,0.0,0.0,0.0,0.0,0.0,0.0,-0.0,0.0,0.0,0.0
97709914,-0.00049619866,-0.013005795,-0.14687411,0.15814637,0.0,0.0,0.0,0.0,0.0,0.0,-0.0,0.0,0.0,0.0
97810216,-0.00097123755,-0.012193534,-0.14403987,0.15817688,0.0,0.0,0.0,0.0,0.0,0.0,-0.0,0.0,0.0,0.0
97914492,-0.0015893788,-0.011422191,-0.13921086,0.15813291,0.0,0.0,0.0,0.0,0.0,0.0,-0.0,0.0,0.0,0.0
98013870,-0.0022140264,-0.010472494,-0.13450514,0.15813762,0.0,0.0,0.0,0.0,0.0,0.0,-0.0,0.0,0.0,0.0
98114253,-0.003035327,-0.00901134,-0.12772344,0.15820257,0.0,0.0,0.0,0.0,0.0,0.0,-0.0,0.0,0.0,0.0
98218145,-0.004058352,-0.0073324116,-0.11932344,0.15820554,0.0,0.0,0.0,0.0,0.0,0.0,-0.0,0.0,0.0,0.0
98317886,-0.00527472,-0.0056544747,-0.11042924,0.15817463,0.0,0.0,0.0,0.0,0.0,0.0,-0.0,0.0,0.0,0.0
98421882,-0.006410185,-0.003973634,-0.105755985,0.15815176,0.0,0.0,0.0,0.0,0.0,0.0,-0.0,0.0,0.0,0.0
98522187,-0.0072436617,-0.002589369,-0.10669931,0.15811828,0.0,0.0,0.0,0.0,0.0,0.0,-0.0,0.0,0.0,0.0
98622715,-0.007994703,-0.0013792912,-0.10702357,0.15812714,0.0,0.0,0.0,0.0,0.0,0.0,-0.0,0.0,0.0,0.0
98723027,-0.008673794,-0.00038756573,-0.10627262,0.1581108,0.0,0.0,0.0,0.0,0.0,0.0,-0.0,0.0,0.0,0.0
98827132,-0.009664579,-0.00017425959,-0.10592019,0.15808316,0.0,0.0,0.0,0.0,0.0,0.0,-0.0,0.0,0.0,0.0
98926652,-0.010967303,-0.0006660934,-0.105947636,0.158084,0.0,0.0,0.0,0.0,0.0,0.0,-0.0,0.0,0.0,0.0
99030671,-0.012656285,-0.002138571,-0.110738136,0.15806125,0.0,0.0,0.0,0.0,0.0,0.0,-0.0,0.0,0.0,0.0
99131331,-0.014615464,-0.004287212,-0.1181689,0.15801787,0.0,0.0,0.0,0.0,0.0,0.0,-0.0,0.0,0.0,0.0
99230672,-0.016090253,-0.0061020027,-0.119730994,0.15796274,0.0,0.0,0.0,0.0,0.0,0.0,-0.0,0.0,0.0,0.0
99334659,-0.017271465,-0.007831029,-0.11816578,0.15787545,0.0,0.0,0.0,0.0,0.0,0.0,-0.0,0.0,0.0,0.0
99435124,-0.017794942,-0.008887228,-0.11576967,0.15781036,0.0,0.0,0.0,0.0,0.0,0.0,-0.0,0.0,0.0,0.0
99534671,-0.017983258,-0.009378164,-0.113833226,0.15776499,0.0,0.0,0.0,0.0,0.0,0.0,-0.0,0.0,0.0,0.0
99638703,-0.017869916,-0.009086293,-0.11223683,0.15765496,0.0,0.0,0.0,0.0,0.0,0.0,-0.0,0.0,0.0,0.0
99740025,-0.017557856,-0.008056462,-0.11092812,0.15757073,0.0,0.0,0.0,0.0,0.0,0.0,-0.0,0.0,0.0,0.0
99839503,-0.017364074,-0.0068436842,-0.1115343,0.15754184,0.0,0.0,0.0,0.0,0.0,0.0,-0.0,0.0,0.0,0.0
99943841,-0.017238958,-0.0055001886,-0.11309221,0.15745907,0.0,0.0,0.0,0.0,0.0,0.0,-0.0,0.0,0.0,0.0
100043829,-0.016713744,-0.004222481,-0.10856752,0.15745772,0.0,0.0,0.0,0.0,0.0,0.0,-0.0,0.0,0.0,0.0
100147819,-0.016132828,-0.002976128,-0.10312908,0.15736364,0.0,0.0,0.0,0.0,0.0,0.0,-0.0,0.0,0.0,0.0
100247483,-0.0150207225,-0.0019373696,-0.10014958,0.15727244,0.0,0.0,0.0,0.0,0.0,0.0,-0.0,0.0,0.0,0.0
100348030,-0.013670344,-0.0010152821,-0.09740952,0.15722466,0.0,0.0,0.0,0.0,0.0,0.0,-0.0,0.0,0.0,0.0
100451756,-0.011922736,-0.00023893543,-0.09293731,0.15715884,0.0,0.0,0.0,0.0,0.0,0.0,-0.0,0.0,0.0,0.0
100551536,-0.010237815,0.0003850198,-0.088275574,0.15710655,0.0,0.0,0.0,0.0,0.0,0.0,-0.0,0.0,0.0,0.0
100651874,-0.007325722,0.0015430476,-0.08272863,0.1570456,0.0,0.0,0.0,0.0,0.0,0.0,-0.0,0.0,0.0,0.0
100756676,-0.003840818,0.003073713,-0.07698047,0.15695257,0.0,0.0,0.0,0.0,0.0,0.0,-0.0,0.0,0.0,0.0
100856259,0.00050775264,0.0051065306,-0.0696343,0.15706097,0.0,0.0,0.0,0.0,0.0,0.0,-0.0,0.0,0.0,0.0
100956566,0.0045090527,0.007471628,-0.0622792,0.15693225,0.0,0.0,0.0,0.0,0.0,0.0,-0.0,0.0,0.0,0.0
101060898,0.009269924,0.009294455,-0.06322401,0.15745074,0.0,0.0,0.0,0.0,0.0,0.0,-0.0,0.0,0.0,0.0
101160392,0.012909541,0.010931398,-0.064872034,0.15717098,0.0,0.0,0.0,0.0,0.0,0.0,-0.0,0.0,0.0,0.0
101260746,0.01549228,0.012920533,-0.056477115,0.15701203,0.0,0.0,0.0,0.0,0.0,0.0,-0.0,0.0,0.0,0.0
101364994,0.017292237,0.015006956,-0.04592747,0.1578221,0.0,0.0,0.0,0.0,0.0,0.0,-0.0,0.0,0.0,0.0
101464269,0.015812326,0.016011486,-0.0390174,0.15823019,0.0,0.0,0.0,0.0,0.0,0.0,-0.0,0.0,0.0,0.0
101568269,0.01260306,0.01714891,-0.031867847,0.15666063,0.0,0.0,0.0,0.0,0.0,0.0,-0.0,0.0,0.0,0.0
101668565,0.01052008,0.016995016,-0.028924853,0.15715976,0.0,0.0,0.0,0.0,0.0,0.0,-0.0,0.0,0.0,0.0
101769091,0.009015741,0.01688368,-0.02601214,0.1570325,0.0,0.0,0.0,0.0,0.0,0.0,-0.0,0.0,0.0,0.0
101869440,0.0069741094,0.016087478,-0.027457,0.15826201,0.0,0.0,0.0,0.0,0.0,0.0,-0.0,0.0,0.0,0.0
101974362,0.0063772346,0.015530357,-0.03221522,0.15896572,0.0,0.0,0.0,0.0,0.0,0.0,-0.0,0.0,0.0,0.0
102073070,0.007177815,0.013525117,-0.04799141,0.17892429,0.0,0.0,0.0,0.0,0.0,0.0,-0.0,0.0,0.0,0.0
102177062,0.006737745,0.010059763,-0.06485169,0.20396653,0.0,0.0,0.0,0.0,0.0,0.0,-0.0,0.0,0.0,0.0
102277234,0.0065531256,0.008916322,-0.07206409,0.22884123,0.0,0.0,0.0,0.0,0.0,0.0,-0.0,0.0,0.0,0.0
102377107,0.0018304437,0.007430844,-0.074971125,0.21507648,0.0,0.0,0.0,0.0,0.0,0.0,-0.0,0.0,0.0,0.0
102481065,-0.0075116283,-0.0018507869,-0.08147803,0.15116778,0.0,0.0,0.0,0.0,0.0,0.0,-0.0,0.0,0.0,0.0
102581719,-0.020766124,-0.01739366,-0.09023131,0.061200283,0.0,0.0,0.0,0.0,0.0,0.0,-0.0,0.0,0.0,0.0
102681045,-0.035886414,-0.03746472,-0.10191032,-0.036573905,0.0,0.0,0.0,0.0,0.0,0.0,-0.0,0.0,0.0,0.0
102785178,-0.051579088,-0.06540583,-0.119843476,-0.13267018,0.0,0.0,0.0,0.0,0.0,0.0,-0.0,0.0,0.0,0.0
102885720,-0.0663953,-0.10244831,-0.14250645,-0.21376915,0.0,0.0,0.0,0.0,0.0,0.0,-0.0,0.0,0.0,0.0
102989448,-0.07953911,-0.14448854,-0.16921636,-0.28952408,0.0,0.0,0.0,0.0,0.0,0.0,-0.0,0.0,0.0,0.0
103089081,-0.09047782,-0.18030277,-0.20245357,-0.35669073,0.0,0.0,0.0,0.0,0.0,0.0,-0.0,0.0,0.0,0.0
103190503,-0.1018908,-0.21232565,-0.23803233,-0.41714433,0.0,0.0,0.0,0.0,0.0,0.0,-0.0,0.0,0.0,0.0
103294320,-0.11481777,-0.24124803,-0.27457246,-0.47170794,0.0,0.0,0.0,0.0,0.0,0.0,-0.0,0.0,0.0,0.0
103394225,-0.12771972,-0.26379612,-0.31060037,-0.51331997,0.0,0.0,0.0,0.0,0.0,0.0,-0.0,0.0,0.0,0.0
103494347,-0.14435011,-0.27751297,-0.3506443,-0.5529844,0.0,0.0,0.0,0.0,0.0,0.0,-0.0,0.0,0.0,0.0
103598526,-0.16233222,-0.2853862,-0.3779724,-0.5950898,0.0,0.0,0.0,0.0,0.0,0.0,-0.0,0.0,0.0,0.0
103697925,-0.17711195,-0.28725243,-0.39359957,-0.63831323,0.0,0.0,0.0,0.0,0.0,0.0,-0.0,0.0,0.0,0.0
103798386,-0.1905756,-0.28613034,-0.40557814,-0.68077725,0.0,0.0,0.0,0.0,0.0,0.0,-0.0,0.0,0.0,0.0
103902532,-0.20673968,-0.28971493,-0.4131791,-0.73052603,0.0,0.0,0.0,0.0,0.0,0.0,-0.0,0.0,0.0,0.0
104002144,-0.22226956,-0.2949883,-0.42465937,-0.7866518,0.0,0.0,0.0,0.0,0.0,0.0,-0.0,0.0,0.0,0.0
104105923,-0.23719122,-0.2987342,-0.44352075,-0.8405567,0.0,0.0,0.0,0.0,0.0,0.0,-0.0,0.0,0.0,0.0
104206146,-0.25188485,-0.30304465,-0.46876884,-0.88376725,0.0,0.0,0.0,0.0,0.0,0.0,-0.0,0.0,0.0,0.0
104306676,-0.26601145,-0.31082126,-0.50146884,-0.9257847,0.0,0.0,0.0,0.0,0.0,0.0,-0.0,0.0,0.0,0.0
104407194,-0.2779462,-0.32158583,-0.5456818,-0.9673414,0.0,0.0,0.0,0.0,0.0,0.0,-0.0,0.0,0.0,0.0
104511166,-0.2878647,-0.3320956,-0.59814894,-1.013081,0.0,0.0,0.0,0.0,0.0,0.0,-0.0,0.0,0.0,0.0
104611049,-0.30228096,-0.3424751,-0.6389839,-1.045366,0.0,0.0,0.0,0.0,0.0,0.0,-0.0,0.0,0.0,0.0
104714708,-0.32056352,-0.35626528,-0.67263407,-1.0674242,0.0,0.0,0.0,0.0,0.0,0.0,-0.0,0.0,0.0,0.0
104815481,-0.33571976,-0.36968282,-0.696117,-1.0835588,0.0,0.0,0.0,0.0,0.0,0.0,-0.0,0.0,0.0,0.0
104915046,-0.343713,-0.38023883,-0.7096675,-1.0918971,0.0,0.0,0.0,0.0,0.0,0.0,-0.0,0.0,0.0,0.0
105018689,-0.3439528,-0.388431,-0.716572,-1.0938447,0.0,0.0,0.0,0.0,0.0,0.0,-0.0,0.0,0.0,0.0
105119058,-0.3358666,-0.39293113,-0.72299534,-1.1012017,0.0,0.0,0.0,0.0,0.0,0.0,-0.0,0.0,0.0,0.0
105218687,-0.3245753,-0.39246023,-0.7321248,-1.0929359,0.0,0.0,0.0,0.0,0.0,0.0,-0.0,0.0,0.0,0.0
105322704,-0.31054896,-0.3869942,-0.7366757,-1.0673015,0.0,0.0,0.0,0.0,0.0,0.0,-0.0,0.0,0.0,0.0
105423060,-0.293571,-0.37944797,-0.72641903,-1.0426925,0.0,0.0,0.0,0.0,0.0,0.0,-0.0,0.0,0.0,0.0
105523577,-0.2750513,-0.36959845,-0.70464945,-1.015661,0.0,0.0,0.0,0.0,0.0,0.0,-0.0,0.0,0.0,0.0
105627577,-0.25396314,-0.3568164,-0.66533506,-0.97620076,0.0,0.0,0.0,0.0,0.0,0.0,-0.0,0.0,0.0,0.0
105728106,-0.23160854,-0.3424824,-0.6156067,-0.92994225,0.0,0.0,0.0,0.0,0.0,0.0,-0.0,0.0,0.0,0.0
105832127,-0.20826928,-0.32695544,-0.55715984,-0.891327,0.0,0.0,0.0,0.0,0.0,0.0,-0.0,0.0,0.0,0.0
105931815,-0.1865363,-0.30992785,-0.5039439,-0.849249,0.0,0.0,0.0,0.0,0.0,0.0,-0.0,0.0,0.0,0.0
106032167,-0.1643626,-0.29716444,-0.45278737,-0.80342096,0.0,0.0,0.0,0.0,0.0,0.0,-0.0,0.0,0.0,0.0
106135855,-0.14023203,-0.2854279,-0.3995522,-0.7534792,0.0,0.0,0.0,0.0,0.0,0.0,-0.0,0.0,0.0,0.0
106235511,-0.12153153,-0.2733087,-0.34691244,-0.7020136,0.0,0.0,0.0,0.0,0.0,0.0,-0.0,0.0,0.0,0.0
106335844,-0.1063103,-0.2602341,-0.29454812,-0.64438015,0.0,0.0,0.0,0.0,0.0,0.0,-0.0,0.0,0.0,0.0
106440033,-0.097254336,-0.24875572,-0.23162274,-0.5844006,0.0,0.0,0.0,0.0,0.0,0.0,-0.0,0.0,0.0,0.0
106539711,-0.09450481,-0.23973945,-0.17327787,-0.52721906,0.0,0.0,0.0,0.0,0.0,0.0,-0.0,0.0,0.0,0.0
106640624,-0.10070521,-0.23528557,-0.12178299,-0.49480522,0.0,0.0,0.0,0.0,0.0,0.0,-0.0,0.0,0.0,0.0
106744554,-0.11323641,-0.23529418,-0.076039694,-0.47021714,0.0,0.0,0.0,0.0,0.0,0.0,-0.0,0.0,0.0,0.0
106844252,-0.1272144,-0.23763712,-0.025775138,-0.45021787,0.0,0.0,0.0,0.0,0.0,0.0,-0.0,0.0,0.0,0.0
106944644,-0.1431996,-0.24213387,0.021067392,-0.44257835,0.0,0.0,0.0,0.0,0.0,0.0,-0.0,0.0,0.0,0.0
107048552,-0.15680812,-0.24676086,0.040873017,-0.45290884,0.0,0.0,0.0,0.0,0.0,0.0,-0.0,0.0,0.0,0.0
107148277,-0.16962735,-0.25076574,0.055795323,-0.4757819,0.0,0.0,0.0,0.0,0.0,0.0,-0.0,0.0,0.0,0.0
107252306,-0.18256508,-0.2546582,0.05785303,-0.50669324,0.0,0.0,0.0,0.0,0.0,0.0,-0.0,0.0,0.0,0.0
107352880,-0.19389519,-0.25812316,0.053818762,-0.5278504,0.0,0.0,0.0,0.0,0.0,0.0,-0.0,0.0,0.0,0.0
107452263,-0.1969577,-0.25859296,0.044653937,-0.529843,0.0,0.0,0.0,0.0,0.0,0.0,-0.0,0.0,0.0,0.0
107553574,-0.19633836,-0.25187263,0.03638784,-0.49851954,0.0,0.0,0.0,0.0,0.0,0.0,-0.0,0.0,0.0,0.0
107657438,-0.19930047,-0.23694748,0.025324438,-0.43953806,0.0,0.0,0.0,0.0,0.0,0.0,-0.0,0.0,0.0,0.0
107757103,-0.21044874,-0.23072194,0.01225146,-0.45503637,0.0,0.0,0.0,0.0,0.0,0.0,-0.0,0.0,0.0,0.0
107861131,-0.21470897,-0.22330399,0.00056624005,-0.45200723,0.0,0.0,0.0,0.0,0.0,0.0,-0.0,0.0,0.0,0.0
107962144,-0.22199099,-0.21543574,-0.008559409,-0.45250052,0.0,0.0,0.0,0.0,0.0,0.0,-0.0,0.0,0.0,0.0
108061067,-0.23012576,-0.20966029,-0.010617355,-0.45203656,0.0,0.0,0.0,0.0,0.0,0.0,-0.0,0.0,0.0,0.0
108165153,-0.23653542,-0.20488004,-0.0112916315,-0.45176575,0.0,0.0,0.0,0.0,0.0,0.0,-0.0,0.0,0.0,0.0
108265716,-0.24466856,-0.19805308,-0.009728563,-0.45232832,0.0,0.0,0.0,0.0,0.0,0.0,-0.0,0.0,0.0,0.0
108365136,-0.25137484,-0.19237173,-0.008167048,-0.45255145,0.0,0.0,0.0,0.0,0.0,0.0,-0.0,0.0,0.0,0.0
108469072,-0.25345573,-0.18837589,-0.0070861774,-0.45317584,0.0,0.0,0.0,0.0,0.0,0.0,-0.0,0.0,0.0,0.0
108569589,-0.25409517,-0.18563975,-0.0057846513,-0.4536486,0.0,0.0,0.0,0.0,0.0,0.0,-0.0,0.0,0.0,0.0
108673588,-0.24865945,-0.18280955,0.0019858368,-0.45407858,0.0,0.0,0.0,0.0,0.0,0.0,-0.0,0.0,0.0,0.0
108773049,-0.24265961,-0.18036501,0.009398739,-0.45452946,0.0,0.0,0.0,0.0,0.0,0.0,-0.0,0.0,0.0,0.0
108873471,-0.23435928,-0.17759892,0.016771248,-0.4549309,0.0,0.0,0.0,0.0,0.0,0.0,-0.0,0.0,0.0,0.0
108978278,-0.22652377,-0.17460746,0.02425161,-0.4553362,0.0,0.0,0.0,0.0,0.0,0.0,-0.0,0.0,0.0,0.0
109077905,-0.21929689,-0.17158486,0.0325416,-0.4556542,0.0,0.0,0.0,0.0,0.0,0.0,-0.0,0.0,0.0,0.0
109178162,-0.2121786,-0.16855657,0.040395003,-0.4560035,0.0,0.0,0.0,0.0,0.0,0.0,-0.0,0.0,0.0,0.0
109282167,-0.20486005,-0.16609812,0.04502935,-0.45641777,0.0,0.0,0.0,0.0,0.0,0.0,-0.0,0.0,0.0,0.0
109381898,-0.1987628,-0.1639488,0.04935786,-0.4568168,0.0,0.0,0.0,0.0,0.0,0.0,-0.0,0.0,0.0,0.0
109482225,-0.19297327,-0.16224316,0.04832998,-0.45723325,0.0,0.0,0.0,0.0,0.0,0.0,-0.0,0.0,0.0,0.0
109586316,-0.18792114,-0.16065452,0.04690751,-0.457674,0.0,0.0,0.0,0.0,0.0,0.0,-0.0,0.0,0.0,0.0
109685871,-0.18406208,-0.15959087,0.048019856,-0.45809865,0.0,0.0,0.0,0.0,0.0,0.0,-0.0,0.0,0.0,0.0
109789900,-0.18087725,-0.15865166,0.049147297,-0.45849845,0.0,0.0,0.0,0.0,0.0,0.0,-0.0,0.0,0.0,0.0
109890345,-0.17651239,-0.15872793,0.046615697,-0.45891592,0.0,0.0,0.0,0.0,0.0,0.0,-0.0,0.0,0.0,0.0
109990818,-0.1721671,-0.1588087,0.044157878,-0.45932397,0.0,0.0,0.0,0.0,0.0,0.0,-0.0,0.0,0.0,0.0
110091316,-0.16789308,-0.15949188,0.036204644,-0.45976484,0.0,0.0,0.0,0.0,0.0,0.0,-0.0,0.0,0.0,0.0
110195224,-0.16376933,-0.16007388,0.029377356,-0.4601852,0.0,0.0,0.0,0.0,0.0,0.0,-0.0,0.0,0.0,0.0
110294685,-0.16014881,-0.16039953,0.024105283,-0.46053073,0.0,0.0,0.0,0.0,0.0,0.0,-0.0,0.0,0.0,0.0
110398703,-0.1569175,-0.16078068,0.021082517,-0.46094778,0.0,0.0,0.0,0.0,0.0,0.0,-0.0,0.0,0.0,0.0
110499218,-0.15457915,-0.16128857,0.022541054,-0.46130416,0.0,0.0,0.0,0.0,0.0,0.0,-0.0,0.0,0.0,0.0
110598678,-0.15249088,-0.16166398,0.02690846,-0.46157098,0.0,0.0,0.0,0.0,0.0,0.0,-0.0,0.0,0.0,0.0
110702695,-0.15077889,-0.16222206,0.035676688,-0.46191937,0.0,0.0,0.0,0.0,0.0,0.0,-0.0,0.0,0.0,0.0
110802955,-0.14948347,-0.16250296,0.042353664,-0.46224955,0.0,0.0,0.0,0.0,0.0,0.0,-0.0,0.0,0.0,0.0
110902716,-0.14846505,-0.16233845,0.04513027,-0.4625918,0.0,0.0,0.0,0.0,0.0,0.0,-0.0,0.0,0.0,0.0
111006704,-0.14795062,-0.16190876,0.044070918,-0.46296966,0.0,0.0,0.0,0.0,0.0,0.0,-0.0,0.0,0.0,0.0
111106942,-0.1481291,-0.16112886,0.037241615,-0.46336097,0.0,0.0,0.0,0.0,0.0,0.0,-0.0,0.0,0.0,0.0
111207490,-0.14827034,-0.16027132,0.030838229,-0.46376982,0.0,0.0,0.0,0.0,0.0,0.0,-0.0,0.0,0.0,0.0
111311529,-0.14877029,-0.15970989,0.024723541,-0.46420345,0.0,0.0,0.0,0.0,0.0,0.0,-0.0,0.0,0.0,0.0
111412310,-0.14933173,-0.15916198,0.01934825,-0.46458283,0.0,0.0,0.0,0.0,0.0,0.0,-0.0,0.0,0.0,0.0
111515994,-0.15001051,-0.15875897,0.018064639,-0.46492675,0.0,0.0,0.0,0.0,0.0,0.0,-0.0,0.0,0.0,0.0
111615538,-0.15051104,-0.15825695,0.019023677,-0.46529174,0.0,0.0,0.0,0.0,0.0,0.0,-0.0,0.0,0.0,0.0
111715979,-0.15083387,-0.15791023,0.031127319,-0.46556595,0.0,0.0,0.0,0.0,0.0,0.0,-0.0,0.0,0.0,0.0
111820138,-0.15124652,-0.15765306,0.042621654,-0.465892,0.0,0.0,0.0,0.0,0.0,0.0,-0.0,0.0,0.0,0.0
111919519,-0.1523687,-0.15799113,0.05236208,-0.46618026,0.0,0.0,0.0,0.0,0.0,0.0,-0.0,0.0,0.0,0.0
112019838,-0.15367378,-0.1587292,0.06041556,-0.46653187,0.0,0.0,0.0,0.0,0.0,0.0,-0.0,0.0,0.0,0.0
112123995,-0.1549818,-0.15986548,0.06655898,-0.4669057,0.0,0.0,0.0,0.0,0.0,0.0,-0.0,0.0,0.0,0.0
112223529,-0.15542991,-0.16051754,0.0662421,-0.46727127,0.0,0.0,0.0,0.0,0.0,0.0,-0.0,0.0,0.0,0.0
112327510,-0.15458497,-0.16047189,0.058996554,-0.46768937,0.0,0.0,0.0,0.0,0.0,0.0,-0.0,0.0,0.0,0.0
112428794,-0.1537345,-0.16041966,0.04988407,-0.4681349,0.0,0.0,0.0,0.0,0.0,0.0,-0.0,0.0,0.0,0.0
112528300,-0.15299664,-0.1602878,0.040936872,-0.46854943,0.0,0.0,0.0,0.0,0.0,0.0,-0.0,0.0,0.0,0.0
112628719,-0.15290661,-0.16065212,0.025191057,-0.46893114,0.0,0.0,0.0,0.0,0.0,0.0,-0.0,0.0,0.0,0.0
112732561,-0.15331662,-0.16125193,0.007294624,-0.46936044,0.0,0.0,0.0,0.0,0.0,0.0,-0.0,0.0,0.0,0.0
112832261,-0.15341532,-0.16160902,-0.0075732456,-0.46971664,0.0,0.0,0.0,0.0,0.0,0.0,-0.0,0.0,0.0,0.0
112936274,-0.1531896,-0.1616707,-0.021658216,-0.47006422,0.0,0.0,0.0,0.0,0.0,0.0,-0.0,0.0,0.0,0.0
113036561,-0.15323775,-0.16177118,-0.02519598,-0.470357,0.0,0.0,0.0,0.0,0.0,0.0,-0.0,0.0,0.0,0.0
113136322,-0.15344274,-0.16178198,-0.024029596,-0.47064742,0.0,0.0,0.0,0.0,0.0,0.0,-0.0,0.0,0.0,0.0
113240286,-0.1529858,-0.16192257,-0.013897013,-0.47091898,0.0,0.0,0.0,0.0,0.0,0.0,-0.0,0.0,0.0,0.0
113341490,-0.15183704,-0.16210793,0.0010777459,-0.47113016,0.0,0.0,0.0,0.0,0.0,0.0,-0.0,0.0,0.0,0.0
113441087,-0.15081769,-0.16215141,0.01520325,-0.4713608,0.0,0.0,0.0,0.0,0.0,0.0,-0.0,0.0,0.0,0.0
113545155,-0.14988323,-0.1620646,0.029760914,-0.47160015,0.0,0.0,0.0,0.0,0.0,0.0,-0.0,0.0,0.0,0.0
113645564,-0.1499185,-0.1621694,0.03209699,-0.4719156,0.0,0.0,0.0,0.0,0.0,0.0,-0.0,0.0,0.0,0.0
113745130,-0.15033826,-0.16218509,0.031605754,-0.47226933,0.0,0.0,0.0,0.0,0.0,0.0,-0.0,0.0,0.0,0.0
113849051,-0.15001287,-0.16210297,0.030810717,-0.47259727,0.0,0.0,0.0,0.0,0.0,0.0,-0.0,0.0,0.0,0.0
113949597,-0.14839129,-0.16188814,0.030659312,-0.47291583,0.0,0.0,0.0,0.0,0.0,0.0,-0.0,0.0,0.0,0.0
114049103,-0.14841607,-0.16244593,0.034393944,-0.4731901,0.0,0.0,0.0,0.0,0.0,0.0,-0.0,0.0,0.0,0.0
114153092,-0.14890598,-0.16325375,0.038435027,-0.47351596,0.0,0.0,0.0,0.0,0.0,0.0,-0.0,0.0,0.0,0.0
114253573,-0.14988387,-0.16393466,0.041970685,-0.47383276,0.0,0.0,0.0,0.0,0.0,0.0,-0.0,0.0,0.0,0.0
114357696,-0.15093362,-0.16443385,0.045351025,-0.47413975,0.0,0.0,0.0,0.0,0.0,0.0,-0.0,0.0,0.0,0.0
114457091,-0.15151775,-0.16423899,0.04302353,-0.4744293,0.0,0.0,0.0,0.0,0.0,0.0,-0.0,0.0,0.0,0.0
114557646,-0.15163165,-0.16318622,0.036482766,-0.47472024,0.0,0.0,0.0,0.0,0.0,0.0,-0.0,0.0,0.0,0.0
114662378,-0.1512516,-0.16150452,0.033209153,-0.47501272,0.0,0.0,0.0,0.0,0.0,0.0,-0.0,0.0,0.0,0.0
114761872,-0.1504605,-0.15948305,0.032476645,-0.47529685,0.0,0.0,0.0,0.0,0.0,0.0,-0.0,0.0,0.0,0.0
114862375,-0.14946762,-0.1584401,0.04063125,-0.4755459,0.0,0.0,0.0,0.0,0.0,0.0,-0.0,0.0,0.0,0.0
114966406,-0.14834686,-0.15821265,0.052701607,-0.4758242,0.0,0.0,0.0,0.0,0.0,0.0,-0.0,0.0,0.0,0.0
115065891,-0.14823909,-0.15878537,0.05807429,-0.47610804,0.0,0.0,0.0,0.0,0.0,0.0,-0.0,0.0,0.0,0.0
115166582,-0.14889665,-0.15988268,0.061186306,-0.4764017,0.0,0.0,0.0,0.0,0.0,0.0,-0.0,0.0,0.0,0.0
115270136,-0.14925201,-0.16177054,0.055476017,-0.47672096,0.0,0.0,0.0,0.0,0.0,0.0,-0.0,0.0,0.0,0.0
115369917,-0.1490885,-0.16410385,0.04499176,-0.477044,0.0,0.0,0.0,0.0,0.0,0.0,-0.0,0.0,0.0,0.0
115473887,-0.14828677,-0.1655984,0.04185378,-0.47736967,0.0,0.0,0.0,0.0,0.0,0.0,-0.0,0.0,0.0,0.0
115574314,-0.14687152,-0.16577846,0.044360302,-0.47765145,0.0,0.0,0.0,0.0,0.0,0.0,-0.0,0.0,0.0,0.0
115674690,-0.1450215,-0.16546153,0.04284361,-0.47792137,0.0,0.0,0.0,0.0,0.0,0.0,-0.0,0.0,0.0,0.0
115775073,-0.14274068,-0.16472198,0.03981432,-0.47818968,0.0,0.0,0.0,0.0,0.0,0.0,-0.0,0.0,0.0,0.0
115879086,-0.1402218,-0.16378143,0.03288943,-0.47846717,0.0,0.0,0.0,0.0,0.0,0.0,-0.0,0.0,0.0,0.0
115979055,-0.13766316,-0.16274853,0.025770362,-0.4787448,0.0,0.0,0.0,0.0,0.0,0.0,-0.0,0.0,0.0,0.0
116082661,-0.13554987,-0.16067497,0.021704158,-0.47901148,0.0,0.0,0.0,0.0,0.0,0.0,-0.0,0.0,0.0,0.0
116182937,-0.13371167,-0.15830627,0.018099684,-0.47925386,0.0,0.0,0.0,0.0,0.0,0.0,-0.0,0.0,0.0,0.0
116282716,-0.13192396,-0.15650703,0.013218458,-0.47953203,0.0,0.0,0.0,0.0,0.0,0.0,-0.0,0.0,0.0,0.0
116386692,-0.13021809,-0.1547689,0.009533755,-0.47982875,0.0,0.0,0.0,0.0,0.0,0.0,-0.0,0.0,0.0,0.0
116487378,-0.12951241,-0.15383995,0.011964576,-0.4800723,0.0,0.0,0.0,0.0,0.0,0.0,-0.0,0.0,0.0,0.0
116586682,-0.12889497,-0.1531554,0.015079364,-0.48031804,0.0,0.0,0.0,0.0,0.0,0.0,-0.0,0.0,0.0,0.0
116690703,-0.1288711,-0.15320712,0.020686997,-0.48056132,0.0,0.0,0.0,0.0,0.0,0.0,-0.0,0.0,0.0,0.0
116791091,-0.12900488,-0.15347703,0.026437873,-0.48079726,0.0,0.0,0.0,0.0,0.0,0.0,-0.0,0.0,0.0,0.0
116895244,-0.12910476,-0.15383992,0.03252127,-0.4809998,0.0,0.0,0.0,0.0,0.0,0.0,-0.0,0.0,0.0,0.0
116995485,-0.12926969,-0.15418246,0.034888774,-0.4812727,0.0,0.0,0.0,0.0,0.0,0.0,-0.0,0.0,0.0,0.0
117095954,-0.13021189,-0.15484661,0.03103297,-0.48154736,0.0,0.0,0.0,0.0,0.0,0.0,-0.0,0.0,0.0,0.0
117195548,-0.1309654,-0.15543592,0.026968721,-0.48181206,0.0,0.0,0.0,0.0,0.0,0.0,-0.0,0.0,0.0,0.0
117299569,-0.13168755,-0.15606293,0.021833863,-0.4821009,0.0,0.0,0.0,0.0,0.0,0.0,-0.0,0.0,0.0,0.0
117400220,-0.13221295,-0.15633671,0.018967466,-0.48232785,0.0,0.0,0.0,0.0,0.0,0.0,-0.0,0.0,0.0,0.0
117503834,-0.13254353,-0.15578525,0.022427158,-0.48258606,0.0,0.0,0.0,0.0,0.0,0.0,-0.0,0.0,0.0,0.0
117603564,-0.13311246,-0.15524322,0.026685853,-0.48284674,0.0,0.0,0.0,0.0,0.0,0.0,-0.0,0.0,0.0,0.0
117703840,-0.13445331,-0.15489648,0.032562256,-0.48307988,0.0,0.0,0.0,0.0,0.0,0.0,-0.0,0.0,0.0,0.0
117807954,-0.13584717,-0.15480572,0.03574035,-0.4833769,0.0,0.0,0.0,0.0,0.0,0.0,-0.0,0.0,0.0,0.0
117907595,-0.13713491,-0.15523098,0.03507237,-0.48363167,0.0,0.0,0.0,0.0,0.0,0.0,-0.0,0.0,0.0,0.0
118007825,-0.13834143,-0.15651411,0.028456917,-0.48388073,0.0,0.0,0.0,0.0,0.0,0.0,-0.0,0.0,0.0,0.0
118112762,-0.13941748,-0.15928544,0.012848171,-0.48420206,0.0,0.0,0.0,0.0,0.0,0.0,-0.0,0.0,0.0,0.0
118212260,-0.14039855,-0.16207469,0.0016454324,-0.48441207,0.0,0.0,0.0,0.0,0.0,0.0,-0.0,0.0,0.0,0.0
118312563,-0.141441,-0.16488339,-0.004303009,-0.4846609,0.0,0.0,0.0,0.0,0.0,0.0,-0.0,0.0,0.0,0.0
118416637,-0.14271288,-0.16745561,-0.007569671,-0.48494807,0.0,0.0,0.0,0.0,0.0,0.0,-0.0,0.0,0.0,0.0
118516536,-0.14404672,-0.16948383,-0.00899438,-0.48515767,0.0,0.0,0.0,0.0,0.0,0.0,-0.0,0.0,0.0,0.0
118620269,-0.14546645,-0.17129669,-0.0089148665,-0.4854299,0.0,0.0,0.0,0.0,0.0,0.0,-0.0,0.0,0.0,0.0
118720556,-0.14675093,-0.17280315,-0.007490983,-0.48562714,0.0,0.0,0.0,0.0,0.0,0.0,-0.0,0.0,0.0,0.0
118820279,-0.14771794,-0.17395549,-0.0056985654,-0.48585945,0.0,0.0,0.0,0.0,0.0,0.0,-0.0,0.0,0.0,0.0
118924298,-0.14842404,-0.17481305,-0.0034798414,-0.48607454,0.0,0.0,0.0,0.0,0.0,0.0,-0.0,0.0,0.0,0.0
119024599,-0.14894457,-0.175113,-0.004752448,-0.48627758,0.0,0.0,0.0,0.0,0.0,0.0,-0.0,0.0,0.0,0.0
119125141,-0.14939547,-0.1749876,-0.009117121,-0.48649856,0.0,0.0,0.0,0.0,0.0,0.0,-0.0,0.0,0.0,0.0
119229110,-0.1493722,-0.17457424,-0.019510634,-0.48673335,0.0,0.0,0.0,0.0,0.0,0.0,-0.0,0.0,0.0,0.0
119329561,-0.14858684,-0.17400403,-0.035898443,-0.48694324,0.0,0.0,0.0,0.0,0.0,0.0,-0.0,0.0,0.0,0.0
119429151,-0.1483449,-0.17346525,-0.042434856,-0.48719567,0.0,0.0,0.0,0.0,0.0,0.0,-0.0,0.0,0.0,0.0
119533093,-0.14838511,-0.17285854,-0.04548167,-0.4873807,0.0,0.0,0.0,0.0,0.0,0.0,-0.0,0.0,0.0,0.0
119633751,-0.14805396,-0.17231835,-0.049285885,-0.4875554,0.0,0.0,0.0,0.0,0.0,0.0,-0.0,0.0,0.0,0.0
119733118,-0.14736627,-0.1718693,-0.05362342,-0.48774502,0.0,0.0,0.0,0.0,0.0,0.0,-0.0,0.0,0.0,0.0
119837088,-0.14757985,-0.17118533,-0.05561011,-0.48794243,0.0,0.0,0.0,0.0,0.0,0.0,-0.0,0.0,0.0,0.0
119937367,-0.14849225,-0.17040531,-0.05656315,-0.48813334,0.0,0.0,0.0,0.0,0.0,0.0,-0.0,0.0,0.0,0.0
120041559,-0.14895502,-0.16927971,-0.054694302,-0.48834172,0.0,0.0,0.0,0.0,0.0,0.0,-0.0,0.0,0.0,0.0
120141068,-0.14900829,-0.16801341,-0.05198406,-0.48846516,0.0,0.0,0.0,0.0,0.0,0.0,-0.0,0.0,0.0,0.0
120242328,-0.14948444,-0.1671201,-0.05819068,-0.48867086,0.0,0.0,0.0,0.0,0.0,0.0,-0.0,0.0,0.0,0.0
120346165,-0.15026006,-0.16651641,-0.06909543,-0.48888427,0.0,0.0,0.0,0.0,0.0,0.0,-0.0,0.0,0.0,0.0
120445879,-0.15072364,-0.16567364,-0.06419658,-0.48913106,0.0,0.0,0.0,0.0,0.0,0.0,-0.0,0.0,0.0,0.0
120546455,-0.15105972,-0.16466561,-0.056981925,-0.48934582,0.0,0.0,0.0,0.0,0.0,0.0,-0.0,0.0,0.0,0.0
120650281,-0.15030743,-0.16391742,-0.05525118,-0.48955154,0.0,0.0,0.0,0.0,0.0,0.0,-0.0,0.0,0.0,0.0
120750281,-0.14908926,-0.16330048,-0.05517163,-0.48972702,0.0,0.0,0.0,0.0,0.0,0.0,-0.0,0.0,0.0,0.0
120850389,-0.14823386,-0.16308966,-0.06189931,-0.48992515,0.0,0.0,0.0,0.0,0.0,0.0,-0.0,0.0,0.0,0.0
120954410,-0.14750005,-0.16292965,-0.07026912,-0.49015793,0.0,0.0,0.0,0.0,0.0,0.0,-0.0,0.0,0.0,0.0
121053945,-0.14591087,-0.16305946,-0.07486922,-0.4903685,0.0,0.0,0.0,0.0,0.0,0.0,-0.0,0.0,0.0,0.0
