timestamp,voltage5V_v,voltage3V3_v,v3v3_valid,usb_connected,brick_valid,usb_valid,servo_valid,periph_5V_OC,hipower_5V_OC
5304718,5.0208983,3.3209472,1,0,1,0,1,0,0
5804717,5.082129,3.3177245,1,0,1,0,1,0,0
6314718,5.0966306,3.319336,1,0,1,0,1,0,0
6814718,5.077295,3.3209472,1,0,1,0,1,0,0
7314719,5.082129,3.319336,1,0,1,0,1,0,0
7814718,5.0756836,3.3177245,1,0,1,0,1,0,0
8314718,5.078906,3.319336,1,0,1,0,1,0,0
8814717,5.0950193,3.319336,1,0,1,0,1,0,0
9314717,5.078906,3.319336,1,0,1,0,1,0,0
9814717,5.091797,3.319336,1,0,1,0,1,0,0
10314717,5.0740724,3.319336,1,0,1,0,1,0,0
10814717,5.0740724,3.3177245,1,0,1,0,1,0,0
11314718,5.078906,3.319336,1,0,1,0,1,0,0
11814717,5.0950193,3.319336,1,0,1,0,1,0,0
12314717,5.0740724,3.319336,1,0,1,0,1,0,0
12814717,5.0756836,3.319336,1,0,1,0,1,0,0
13314717,5.0950193,3.319336,1,0,1,0,1,0,0
13814733,5.0756836,3.319336,1,0,1,0,1,0,0
14314717,5.0756836,3.3209472,1,0,1,0,1,0,0
14814720,5.0756836,3.3177245,1,0,1,0,1,0,0
15314717,5.0869627,3.319336,1,0,1,0,1,0,0
15824717,5.093408,3.319336,1,0,1,0,1,0,0
16324717,5.0982423,3.319336,1,0,1,0,1,0,0
16824717,5.0966306,3.3209472,1,0,1,0,1,0,0
17324717,5.078906,3.3209472,1,0,1,0,1,0,0
17824727,5.088574,3.319336,1,0,1,0,1,0,0
18324717,5.0724607,3.3177245,1,0,1,0,1,0,0
18824717,5.064404,3.319336,1,0,1,0,1,0,0
19324717,5.0950193,3.319336,1,0,1,0,1,0,0
19824717,5.093408,3.319336,1,0,1,0,1,0,0
20324717,5.0966306,3.319336,1,0,1,0,1,0,0
20824717,5.0724607,3.319336,1,0,1,0,1,0,0
21324717,5.08374,3.319336,1,0,1,0,1,0,0
21824719,5.093408,3.319336,1,0,1,0,1,0,0
22324717,5.0740724,3.3209472,1,0,1,0,1,0,0
22824717,5.0740724,3.319336,1,0,1,0,1,0,0
23324717,5.0853515,3.319336,1,0,1,0,1,0,0
23824717,5.082129,3.319336,1,0,1,0,1,0,0
24324727,5.0982423,3.319336,1,0,1,0,1,0,0
24824717,5.091797,3.319336,1,0,1,0,1,0,0
25324717,5.078906,3.319336,1,0,1,0,1,0,0
25834718,5.08374,3.3177245,1,0,1,0,1,0,0
26334717,5.077295,3.319336,1,0,1,0,1,0,0
26834717,5.093408,3.3177245,1,0,1,0,1,0,0
27334717,5.0869627,3.3177245,1,0,1,0,1,0,0
27834717,5.082129,3.3177245,1,0,1,0,1,0,0
28334729,5.0756836,3.319336,1,0,1,0,1,0,0
28834717,5.0966306,3.319336,1,0,1,0,1,0,0
29344717,5.088574,3.3209472,1,0,1,0,1,0,0
29844717,5.0901856,3.319336,1,0,1,0,1,0,0
30344717,5.0869627,3.319336,1,0,1,0,1,0,0
30844717,5.0740724,3.319336,1,0,1,0,1,0,0
31344718,5.088574,3.319336,1,0,1,0,1,0,0
31844717,5.0982423,3.3209472,1,0,1,0,1,0,0
32344717,5.0982423,3.319336,1,0,1,0,1,0,0
32844732,5.0708494,3.319336,1,0,1,0,1,0,0
33344717,5.091797,3.319336,1,0,1,0,1,0,0
33844717,5.0740724,3.319336,1,0,1,0,1,0,0
34344717,5.064404,3.3209472,1,0,1,0,1,0,0
34844730,5.0966306,3.3209472,1,0,1,0,1,0,0
35344725,5.091797,3.3177245,1,0,1,0,1,0,0
35844717,5.0756836,3.319336,1,0,1,0,1,0,0
36344717,5.0950193,3.3209472,1,0,1,0,1,0,0
36844717,5.0756836,3.319336,1,0,1,0,1,0,0
37344717,5.0740724,3.319336,1,0,1,0,1,0,0
37844717,5.091797,3.319336,1,0,1,0,1,0,0
38344717,5.078906,3.3177245,1,0,1,0,1,0,0
38854717,5.077295,3.3177245,1,0,1,0,1,0,0
39354728,5.0756836,3.3209472,1,0,1,0,1,0,0
39854717,5.088574,3.319336,1,0,1,0,1,0,0
40354717,5.0724607,3.319336,1,0,1,0,1,0,0
40854717,5.0740724,3.3177245,1,0,1,0,1,0,0
41354718,5.0740724,3.3209472,1,0,1,0,1,0,0
41854718,5.0756836,3.319336,1,0,1,0,1,0,0
42354717,5.0611815,3.319336,1,0,1,0,1,0,0
42854717,5.091797,3.319336,1,0,1,0,1,0,0
43354728,5.0805173,3.3177245,1,0,1,0,1,0,0
43854725,5.0708494,3.3177245,1,0,1,0,1,0,0
44354717,5.091797,3.319336,1,0,1,0,1,0,0
44864765,5.0950193,3.319336,1,0,1,0,1,0,0
45364717,5.0724607,3.3209472,1,0,1,0,1,0,0
45864717,5.0740724,3.319336,1,0,1,0,1,0,0
46364717,5.091797,3.3209472,1,0,1,0,1,0,0
46864717,5.078906,3.319336,1,0,1,0,1,0,0
47364718,5.0740724,3.3161132,1,0,1,0,1,0,0
47864729,5.0724607,3.319336,1,0,1,0,1,0,0
48364718,5.0724607,3.319336,1,0,1,0,1,0,0
48864717,5.0660157,3.3177245,1,0,1,0,1,0,0
49364717,5.093408,3.3209472,1,0,1,0,1,0,0
49864717,5.091797,3.319336,1,0,1,0,1,0,0
50364718,5.0805173,3.319336,1,0,1,0,1,0,0
50864717,5.082129,3.3177245,1,0,1,0,1,0,0
51364718,5.088574,3.319336,1,0,1,0,1,0,0
51874717,5.091797,3.3209472,1,0,1,0,1,0,0
52374717,5.0724607,3.319336,1,0,1,0,1,0,0
52874724,5.078906,3.319336,1,0,1,0,1,0,0
53374717,5.077295,3.3209472,1,0,1,0,1,0,0
53874717,5.078906,3.3177245,1,0,1,0,1,0,0
54374717,5.077295,3.319336,1,0,1,0,1,0,0
54874717,5.078906,3.319336,1,0,1,0,1,0,0
55374717,5.0998535,3.3177245,1,0,1,0,1,0,0
55874717,5.0950193,3.319336,1,0,1,0,1,0,0
56374717,5.093408,3.319336,1,0,1,0,1,0,0
56874717,5.0950193,3.3177245,1,0,1,0,1,0,0
57374718,5.091797,3.3225586,1,0,1,0,1,0,0
57874717,5.0966306,3.319336,1,0,1,0,1,0,0
58374718,5.091797,3.3209472,1,0,1,0,1,0,0
58874717,5.0370116,3.319336,1,0,1,0,1,0,0
59374720,5.077295,3.319336,1,0,1,0,1,0,0
59884718,5.082129,3.3209472,1,0,1,0,1,0,0
60384717,5.091797,3.319336,1,0,1,0,1,0,0
60884717,5.0982423,3.319336,1,0,1,0,1,0,0
61384718,5.0966306,3.319336,1,0,1,0,1,0,0
61884718,5.0756836,3.319336,1,0,1,0,1,0,0
62384717,5.0966306,3.319336,1,0,1,0,1,0,0
62884718,5.0950193,3.319336,1,0,1,0,1,0,0
63394718,5.077295,3.319336,1,0,1,0,1,0,0
63894725,5.0950193,3.3209472,1,0,1,0,1,0,0
64394718,5.062793,3.319336,1,0,1,0,1,0,0
64894718,5.0982423,3.319336,1,0,1,0,1,0,0
65394717,5.0982423,3.3177245,1,0,1,0,1,0,0
65894717,5.077295,3.319336,1,0,1,0,1,0,0
66394717,5.069238,3.319336,1,0,1,0,1,0,0
66894717,5.078906,3.319336,1,0,1,0,1,0,0
67404718,5.0950193,3.319336,1,0,1,0,1,0,0
67904717,5.0998535,3.3209472,1,0,1,0,1,0,0
68404717,5.08374,3.319336,1,0,1,0,1,0,0
68904717,5.078906,3.319336,1,0,1,0,1,0,0
69404717,5.1014647,3.3209472,1,0,1,0,1,0,0
69904717,5.077295,3.3177245,1,0,1,0,1,0,0
70404717,5.077295,3.3177245,1,0,1,0,1,0,0
70904717,5.0950193,3.3209472,1,0,1,0,1,0,0
71404717,5.082129,3.319336,1,0,1,0,1,0,0
71904717,5.0805173,3.319336,1,0,1,0,1,0,0
72404731,5.077295,3.3177245,1,0,1,0,1,0,0
72904717,5.0756836,3.3225586,1,0,1,0,1,0,0
73404717,5.0982423,3.3209472,1,0,1,0,1,0,0
73904725,5.0901856,3.319336,1,0,1,0,1,0,0
74404717,5.0724607,3.319336,1,0,1,0,1,0,0
74904717,5.0950193,3.3209472,1,0,1,0,1,0,0
75404717,5.0724607,3.319336,1,0,1,0,1,0,0
75904717,5.0740724,3.319336,1,0,1,0,1,0,0
76404717,5.077295,3.319336,1,0,1,0,1,0,0
76904717,5.0950193,3.3177245,1,0,1,0,1,0,0
77404717,5.0756836,3.319336,1,0,1,0,1,0,0
77914718,5.0756836,3.319336,1,0,1,0,1,0,0
78414717,5.091797,3.319336,1,0,1,0,1,0,0
78914717,5.077295,3.319336,1,0,1,0,1,0,0
79414717,5.0740724,3.3177245,1,0,1,0,1,0,0
79914717,5.0805173,3.319336,1,0,1,0,1,0,0
80414718,5.069238,3.3177245,1,0,1,0,1,0,0
80914718,5.08374,3.3177245,1,0,1,0,1,0,0
81414718,5.091797,3.3209472,1,0,1,0,1,0,0
81914718,5.0982423,3.319336,1,0,1,0,1,0,0
82414718,5.0740724,3.319336,1,0,1,0,1,0,0
82914717,5.0756836,3.3177245,1,0,1,0,1,0,0
83414717,5.093408,3.319336,1,0,1,0,1,0,0
83914717,5.0756836,3.3209472,1,0,1,0,1,0,0
84424757,5.0950193,3.319336,1,0,1,0,1,0,0
84924717,5.078906,3.319336,1,0,1,0,1,0,0
85424717,5.0982423,3.319336,1,0,1,0,1,0,0
85924717,5.069238,3.319336,1,0,1,0,1,0,0
86424725,5.0950193,3.3209472,1,0,1,0,1,0,0
86924719,5.0724607,3.3209472,1,0,1,0,1,0,0
87424717,5.082129,3.3177245,1,0,1,0,1,0,0
87924717,5.069238,3.3209472,1,0,1,0,1,0,0
88424718,5.0740724,3.319336,1,0,1,0,1,0,0
88924717,5.0901856,3.319336,1,0,1,0,1,0,0
89424717,5.0982423,3.3209472,1,0,1,0,1,0,0
89924717,5.077295,3.3177245,1,0,1,0,1,0,0
90424717,5.091797,3.3209472,1,0,1,0,1,0,0
90924717,5.0756836,3.3209472,1,0,1,0,1,0,0
91424717,5.0740724,3.319336,1,0,1,0,1,0,0
91924717,5.093408,3.319336,1,0,1,0,1,0,0
92424718,5.082129,3.319336,1,0,1,0,1,0,0
92924717,5.082129,3.319336,1,0,1,0,1,0,0
93424718,5.0740724,3.319336,1,0,1,0,1,0,0
93934718,5.0756836,3.319336,1,0,1,0,1,0,0
94434717,5.0708494,3.319336,1,0,1,0,1,0,0
94934718,5.0756836,3.319336,1,0,1,0,1,0,0
95434717,5.0740724,3.3209472,1,0,1,0,1,0,0
95934717,5.0756836,3.319336,1,0,1,0,1,0,0
96434717,5.077295,3.319336,1,0,1,0,1,0,0
96934719,5.0950193,3.319336,1,0,1,0,1,0,0
97444717,5.0998535,3.319336,1,0,1,0,1,0,0
97944717,5.0982423,3.319336,1,0,1,0,1,0,0
98444717,5.0740724,3.319336,1,0,1,0,1,0,0
98944718,5.0756836,3.319336,1,0,1,0,1,0,0
99444717,5.077295,3.3209472,1,0,1,0,1,0,0
99944717,5.0708494,3.3209472,1,0,1,0,1,0,0
100454724,5.0901856,3.319336,1,0,1,0,1,0,0
100954717,5.08374,3.319336,1,0,1,0,1,0,0
101454717,5.08374,3.3177245,1,0,1,0,1,0,0
101954717,5.0756836,3.3177245,1,0,1,0,1,0,0
102454718,5.078906,3.319336,1,0,1,0,1,0,0
102954717,5.091797,3.319336,1,0,1,0,1,0,0
103454717,5.0805173,3.319336,1,0,1,0,1,0,0
103964717,5.0724607,3.319336,1,0,1,0,1,0,0
104464717,5.0950193,3.319336,1,0,1,0,1,0,0
104964718,5.0853515,3.319336,1,0,1,0,1,0,0
105464717,5.0950193,3.319336,1,0,1,0,1,0,0
105964718,5.0740724,3.319336,1,0,1,0,1,0,0
106464717,5.0756836,3.3177245,1,0,1,0,1,0,0
106964722,5.0708494,3.319336,1,0,1,0,1,0,0
107474718,5.091797,3.3177245,1,0,1,0,1,0,0
107974717,5.078906,3.319336,1,0,1,0,1,0,0
108474717,5.0740724,3.319336,1,0,1,0,1,0,0
108974717,5.082129,3.319336,1,0,1,0,1,0,0
109474721,5.0982423,3.319336,1,0,1,0,1,0,0
109984718,5.0966306,3.3177245,1,0,1,0,1,0,0
110484717,5.077295,3.3177245,1,0,1,0,1,0,0
110984717,5.093408,3.3177245,1,0,1,0,1,0,0
111484718,5.0756836,3.319336,1,0,1,0,1,0,0
111984718,5.0756836,3.319336,1,0,1,0,1,0,0
112494717,5.082129,3.3209472,1,0,1,0,1,0,0
112994717,5.0901856,3.319336,1,0,1,0,1,0,0
113494755,5.0756836,3.319336,1,0,1,0,1,0,0
113994719,5.0740724,3.319336,1,0,1,0,1,0,0
114494720,5.0756836,3.319336,1,0,1,0,1,0,0
114994717,5.0853515,3.319336,1,0,1,0,1,0,0
115494717,5.077295,3.319336,1,0,1,0,1,0,0
116004717,5.0756836,3.3177245,1,0,1,0,1,0,0
116504717,5.091797,3.319336,1,0,1,0,1,0,0
117004717,5.0740724,3.319336,1,0,1,0,1,0,0
117504729,5.0708494,3.319336,1,0,1,0,1,0,0
118004718,5.0950193,3.3177245,1,0,1,0,1,0,0
118504717,5.0950193,3.319336,1,0,1,0,1,0,0
119004717,5.0708494,3.319336,1,0,1,0,1,0,0
119504717,5.0805173,3.3177245,1,0,1,0,1,0,0
120004717,5.0756836,3.319336,1,0,1,0,1,0,0
120504717,5.0756836,3.319336,1,0,1,0,1,0,0
121004717,5.088574,3.319336,1,0,1,0,1,0,0
121504717,5.0756836,3.319336,1,0,1,0,1,0,0
122004717,5.0756836,3.319336,1,0,1,0,1,0,0
122504718,5.0756836,3.319336,1,0,1,0,1,0,0
123004717,5.077295,3.319336,1,0,1,0,1,0,0
123504717,5.0756836,3.319336,1,0,1,0,1,0,0
124004717,5.0853515,3.3209472,1,0,1,0,1,0,0
124504717,5.069238,3.3209472,1,0,1,0,1,0,0
125004717,5.062793,3.319336,1,0,1,0,1,0,0
125514718,5.077295,3.319336,1,0,1,0,1,0,0
126014717,5.08374,3.319336,1,0,1,0,1,0,0
126514717,5.0740724,3.3177245,1,0,1,0,1,0,0
127014718,5.0901856,3.3128905,1,0,1,0,1,0,0
127514718,5.077295,3.3209472,1,0,1,0,1,0,0
128014718,5.0708494,3.319336,1,0,1,0,1,0,0
128514725,5.0740724,3.319336,1,0,1,0,1,0,0
129014722,5.077295,3.319336,1,0,1,0,1,0,0
129514717,5.077295,3.3209472,1,0,1,0,1,0,0
130014718,5.0724607,3.3209472,1,0,1,0,1,0,0
130514717,5.078906,3.319336,1,0,1,0,1,0,0
131014717,5.091797,3.319336,1,0,1,0,1,0,0
131514717,5.0740724,3.319336,1,0,1,0,1,0,0
132024718,5.0950193,3.319336,1,0,1,0,1,0,0
132524717,5.0724607,3.3209472,1,0,1,0,1,0,0
133024718,5.077295,3.319336,1,0,1,0,1,0,0
133524718,5.093408,3.3209472,1,0,1,0,1,0,0
134024717,5.0901856,3.319336,1,0,1,0,1,0,0
134524718,5.091797,3.319336,1,0,1,0,1,0,0
135024719,5.088574,3.3209472,1,0,1,0,1,0,0
135524718,5.0853515,3.3177245,1,0,1,0,1,0,0
136024717,5.078906,3.319336,1,0,1,0,1,0,0
136524718,5.078906,3.319336,1,0,1,0,1,0,0
137024717,5.0966306,3.319336,1,0,1,0,1,0,0
137524717,5.077295,3.314502,1,0,1,0,1,0,0
138034717,5.0982423,3.319336,1,0,1,0,1,0,0
138534726,5.0901856,3.319336,1,0,1,0,1,0,0
139034717,5.0756836,3.3209472,1,0,1,0,1,0,0
139534720,5.0740724,3.319336,1,0,1,0,1,0,0
140034718,5.0740724,3.319336,1,0,1,0,1,0,0
140534717,5.088574,3.3225586,1,0,1,0,1,0,0
141034717,5.0660157,3.319336,1,0,1,0,1,0,0
141534717,5.0660157,3.319336,1,0,1,0,1,0,0
142034717,5.0869627,3.3209472,1,0,1,0,1,0,0
142534717,5.0724607,3.319336,1,0,1,0,1,0,0
143034718,5.0740724,3.319336,1,0,1,0,1,0,0
143534717,5.0869627,3.319336,1,0,1,0,1,0,0
144034717,5.0724607,3.319336,1,0,1,0,1,0,0
144534717,5.091797,3.319336,1,0,1,0,1,0,0
145044717,5.0660157,3.319336,1,0,1,0,1,0,0
145544717,5.077295,3.3209472,1,0,1,0,1,0,0
146044718,5.0756836,3.3177245,1,0,1,0,1,0,0
146544717,5.0853515,3.319336,1,0,1,0,1,0,0
147044717,5.0756836,3.319336,1,0,1,0,1,0,0
147544718,5.0853515,3.319336,1,0,1,0,1,0,0
148044718,5.077295,3.319336,1,0,1,0,1,0,0
148544717,5.0708494,3.3209472,1,0,1,0,1,0,0
149044717,5.0660157,3.319336,1,0,1,0,1,0,0
149544717,5.0982423,3.3209472,1,0,1,0,1,0,0
150044717,5.077295,3.319336,1,0,1,0,1,0,0
150544717,5.0869627,3.3209472,1,0,1,0,1,0,0
151044717,5.0966306,3.319336,1,0,1,0,1,0,0
151544717,5.078906,3.319336,1,0,1,0,1,0,0
152044717,5.0756836,3.319336,1,0,1,0,1,0,0
152544718,5.067627,3.319336,1,0,1,0,1,0,0
153044717,5.0370116,3.3177245,1,0,1,0,1,0,0
153544717,5.093408,3.3209472,1,0,1,0,1,0,0
154044717,5.0724607,3.319336,1,0,1,0,1,0,0
154544717,5.0966306,3.319336,1,0,1,0,1,0,0
155054717,5.088574,3.319336,1,0,1,0,1,0,0
155554717,5.0756836,3.319336,1,0,1,0,1,0,0
156054717,5.0756836,3.3177245,1,0,1,0,1,0,0
156554717,5.0724607,3.319336,1,0,1,0,1,0,0
157054717,5.0756836,3.3177245,1,0,1,0,1,0,0
157554718,5.0724607,3.319336,1,0,1,0,1,0,0
158054719,5.0724607,3.319336,1,0,1,0,1,0,0
158554719,5.0982423,3.319336,1,0,1,0,1,0,0
159054717,5.0966306,3.3209472,1,0,1,0,1,0,0
159554717,5.08374,3.319336,1,0,1,0,1,0,0
160064717,5.0950193,3.319336,1,0,1,0,1,0,0
160564717,5.0966306,3.319336,1,0,1,0,1,0,0
161064717,5.0740724,3.319336,1,0,1,0,1,0,0
161564717,5.0740724,3.3209472,1,0,1,0,1,0,0
162064718,5.0950193,3.319336,1,0,1,0,1,0,0
162564719,5.0740724,3.319336,1,0,1,0,1,0,0
163064717,5.08374,3.319336,1,0,1,0,1,0,0
163574718,5.0740724,3.319336,1,0,1,0,1,0,0
164074728,5.0901856,3.319336,1,0,1,0,1,0,0
164574718,5.0805173,3.319336,1,0,1,0,1,0,0
165074717,5.077295,3.3177245,1,0,1,0,1,0,0
165574717,5.0756836,3.319336,1,0,1,0,1,0,0
166074717,5.0724607,3.319336,1,0,1,0,1,0,0
166584728,5.0901856,3.319336,1,0,1,0,1,0,0
167084717,5.0756836,3.319336,1,0,1,0,1,0,0
167584717,5.078906,3.319336,1,0,1,0,1,0,0
168084717,5.077295,3.319336,1,0,1,0,1,0,0
168584717,5.0740724,3.319336,1,0,1,0,1,0,0
169084717,5.0756836,3.319336,1,0,1,0,1,0,0
169584717,5.078906,3.319336,1,0,1,0,1,0,0
170094718,5.0966306,3.3209472,1,0,1,0,1,0,0
170594718,5.0950193,3.3177245,1,0,1,0,1,0,0
171094720,5.0740724,3.319336,1,0,1,0,1,0,0
171594717,5.077295,3.319336,1,0,1,0,1,0,0
172094718,5.0740724,3.319336,1,0,1,0,1,0,0
172594728,5.077295,3.3177245,1,0,1,0,1,0,0
173094717,5.078906,3.319336,1,0,1,0,1,0,0
173594717,5.0853515,3.3209472,1,0,1,0,1,0,0
174094718,5.082129,3.3209472,1,0,1,0,1,0,0
174594717,5.077295,3.319336,1,0,1,0,1,0,0
175094725,5.078906,3.319336,1,0,1,0,1,0,0
175594717,5.082129,3.319336,1,0,1,0,1,0,0
176094718,5.0853515,3.3177245,1,0,1,0,1,0,0
176594718,5.0982423,3.319336,1,0,1,0,1,0,0
177104717,5.088574,3.3177245,1,0,1,0,1,0,0
177604717,5.091797,3.319336,1,0,1,0,1,0,0
178104717,5.0950193,3.3209472,1,0,1,0,1,0,0
178604717,5.0950193,3.319336,1,0,1,0,1,0,0
179104717,5.0950193,3.319336,1,0,1,0,1,0,0
179604719,5.0756836,3.319336,1,0,1,0,1,0,0
180104717,5.078906,3.319336,1,0,1,0,1,0,0
180604717,5.08374,3.319336,1,0,1,0,1,0,0
181104717,5.0982423,3.319336,1,0,1,0,1,0,0
181604717,5.091797,3.319336,1,0,1,0,1,0,0
182104717,5.0901856,3.319336,1,0,1,0,1,0,0
182614722,5.0756836,3.319336,1,0,1,0,1,0,0
183114719,5.0869627,3.3209472,1,0,1,0,1,0,0
183614719,5.0740724,3.3209472,1,0,1,0,1,0,0
184114718,5.077295,3.3209472,1,0,1,0,1,0,0
184614717,5.0950193,3.319336,1,0,1,0,1,0,0
185114717,5.0756836,3.319336,1,0,1,0,1,0,0
185614718,5.077295,3.319336,1,0,1,0,1,0,0
186124717,5.093408,3.3209472,1,0,1,0,1,0,0
186624717,5.0966306,3.319336,1,0,1,0,1,0,0
187124717,5.0805173,3.319336,1,0,1,0,1,0,0
187624722,5.0756836,3.319336,1,0,1,0,1,0,0
188124717,5.0982423,3.319336,1,0,1,0,1,0,0
188624717,5.0950193,3.319336,1,0,1,0,1,0,0
189124717,5.0756836,3.319336,1,0,1,0,1,0,0
189624717,5.077295,3.319336,1,0,1,0,1,0,0
190124717,5.078906,3.3209472,1,0,1,0,1,0,0
190624718,5.0756836,3.319336,1,0,1,0,1,0,0
191124717,5.0756836,3.3209472,1,0,1,0,1,0,0
191624718,5.0982423,3.319336,1,0,1,0,1,0,0
192124725,5.0756836,3.3177245,1,0,1,0,1,0,0
192624717,5.0740724,3.3177245,1,0,1,0,1,0,0
193124717,5.1014647,3.319336,1,0,1,0,1,0,0
193624717,5.0740724,3.319336,1,0,1,0,1,0,0
194124717,5.077295,3.3209472,1,0,1,0,1,0,0
194624717,5.069238,3.3177245,1,0,1,0,1,0,0
195124717,5.0966306,3.3209472,1,0,1,0,1,0,0
195634718,5.0724607,3.319336,1,0,1,0,1,0,0
196134718,5.078906,3.319336,1,0,1,0,1,0,0
196634717,5.077295,3.319336,1,0,1,0,1,0,0
197134721,5.0756836,3.319336,1,0,1,0,1,0,0
197634717,5.0853515,3.3177245,1,0,1,0,1,0,0
198134717,5.0740724,3.3209472,1,0,1,0,1,0,0
198644717,5.0950193,3.3209472,1,0,1,0,1,0,0
199144718,5.093408,3.319336,1,0,1,0,1,0,0
199644717,5.077295,3.319336,1,0,1,0,1,0,0
200144718,5.078906,3.3177245,1,0,1,0,1,0,0
200644717,5.078906,3.319336,1,0,1,0,1,0,0
201144717,5.0982423,3.3177245,1,0,1,0,1,0,0
201644717,5.077295,3.3177245,1,0,1,0,1,0,0
202144717,5.08374,3.319336,1,0,1,0,1,0,0
202654719,5.0756836,3.319336,1,0,1,0,1,0,0
203154717,5.0950193,3.319336,1,0,1,0,1,0,0
203654717,5.0756836,3.3177245,1,0,1,0,1,0,0
204154718,5.0998535,3.319336,1,0,1,0,1,0,0
204654717,5.0740724,3.319336,1,0,1,0,1,0,0
205154751,5.0982423,3.319336,1,0,1,0,1,0,0
205654717,5.0966306,3.319336,1,0,1,0,1,0,0
206154717,5.077295,3.3209472,1,0,1,0,1,0,0
206654717,5.0756836,3.3177245,1,0,1,0,1,0,0
207154717,5.0756836,3.319336,1,0,1,0,1,0,0
207654717,5.078906,3.319336,1,0,1,0,1,0,0
208154718,5.088574,3.319336,1,0,1,0,1,0,0
208654718,5.091797,3.3177245,1,0,1,0,1,0,0
209154721,5.0901856,3.319336,1,0,1,0,1,0,0
209654717,5.0756836,3.319336,1,0,1,0,1,0,0
210154717,5.077295,3.319336,1,0,1,0,1,0,0
210654717,5.077295,3.3177245,1,0,1,0,1,0,0
211154717,5.0756836,3.3209472,1,0,1,0,1,0,0
211654718,5.08374,3.3177245,1,0,1,0,1,0,0
212154717,5.0805173,3.3209472,1,0,1,0,1,0,0
212664717,5.0724607,3.319336,1,0,1,0,1,0,0
213164717,5.0982423,3.319336,1,0,1,0,1,0,0
213664718,5.0950193,3.319336,1,0,1,0,1,0,0
214164718,5.0966306,3.319336,1,0,1,0,1,0,0
214674718,5.0756836,3.319336,1,0,1,0,1,0,0
215174718,5.0869627,3.3177245,1,0,1,0,1,0,0
215674717,5.078906,3.3209472,1,0,1,0,1,0,0
216174717,5.0740724,3.319336,1,0,1,0,1,0,0
216674717,5.078906,3.319336,1,0,1,0,1,0,0
217174717,5.082129,3.319336,1,0,1,0,1,0,0
217674717,5.0966306,3.319336,1,0,1,0,1,0,0
218174717,5.082129,3.319336,1,0,1,0,1,0,0
218684717,5.0756836,3.3177245,1,0,1,0,1,0,0
219184717,5.077295,3.3177245,1,0,1,0,1,0,0
219684717,5.0805173,3.319336,1,0,1,0,1,0,0
220184717,5.0998535,3.319336,1,0,1,0,1,0,0
220684717,5.0740724,3.319336,1,0,1,0,1,0,0
221194718,5.0756836,3.3177245,1,0,1,0,1,0,0
221694717,5.0901856,3.319336,1,0,1,0,1,0,0
222194717,5.069238,3.319336,1,0,1,0,1,0,0
222694717,5.0950193,3.3177245,1,0,1,0,1,0,0
223194717,5.082129,3.319336,1,0,1,0,1,0,0
223694717,5.077295,3.3209472,1,0,1,0,1,0,0
224194717,5.077295,3.319336,1,0,1,0,1,0,0
224704717,5.0756836,3.3209472,1,0,1,0,1,0,0
225204717,5.0724607,3.3209472,1,0,1,0,1,0,0
225704717,5.0966306,3.319336,1,0,1,0,1,0,0
226204717,5.078906,3.3177245,1,0,1,0,1,0,0
226704717,5.078906,3.319336,1,0,1,0,1,0,0
227204718,5.091797,3.319336,1,0,1,0,1,0,0
227714717,5.093408,3.3209472,1,0,1,0,1,0,0
228214717,5.0740724,3.3177245,1,0,1,0,1,0,0
228714718,5.0950193,3.319336,1,0,1,0,1,0,0
229214717,5.0756836,3.319336,1,0,1,0,1,0,0
229714717,5.0708494,3.3177245,1,0,1,0,1,0,0
230214718,5.0756836,3.319336,1,0,1,0,1,0,0
230714717,5.0805173,3.3177245,1,0,1,0,1,0,0
231214717,5.0756836,3.3177245,1,0,1,0,1,0,0
231714718,5.0869627,3.319336,1,0,1,0,1,0,0
232214718,5.0724607,3.319336,1,0,1,0,1,0,0
232714718,5.0805173,3.3209472,1,0,1,0,1,0,0
233214718,5.067627,3.3177245,1,0,1,0,1,0,0
233714717,5.0724607,3.3177245,1,0,1,0,1,0,0
234224717,5.0756836,3.319336,1,0,1,0,1,0,0
234724717,5.0901856,3.3177245,1,0,1,0,1,0,0
235224725,5.064404,3.3161132,1,0,1,0,1,0,0
235724717,5.0998535,3.3209472,1,0,1,0,1,0,0
236224718,5.0853515,3.319336,1,0,1,0,1,0,0
236724717,5.0869627,3.319336,1,0,1,0,1,0,0
237224718,5.0740724,3.319336,1,0,1,0,1,0,0
237724717,5.0805173,3.319336,1,0,1,0,1,0,0
238224717,5.0869627,3.319336,1,0,1,0,1,0,0
238724717,5.0966306,3.3209472,1,0,1,0,1,0,0
239224718,5.0966306,3.3177245,1,0,1,0,1,0,0
239724717,5.091797,3.319336,1,0,1,0,1,0,0
240224717,5.0756836,3.319336,1,0,1,0,1,0,0
240734717,5.08374,3.3209472,1,0,1,0,1,0,0
241234717,5.0756836,3.3177245,1,0,1,0,1,0,0
241734717,5.0740724,3.319336,1,0,1,0,1,0,0
242234718,5.103076,3.319336,1,0,1,0,1,0,0
242734717,5.0756836,3.319336,1,0,1,0,1,0,0
243234717,5.0805173,3.3209472,1,0,1,0,1,0,0
243734718,5.0660157,3.319336,1,0,1,0,1,0,0
244234718,5.0724607,3.319336,1,0,1,0,1,0,0
244734718,5.0756836,3.319336,1,0,1,0,1,0,0
245234717,5.077295,3.3177245,1,0,1,0,1,0,0
245734717,5.069238,3.319336,1,0,1,0,1,0,0
246234717,5.0950193,3.319336,1,0,1,0,1,0,0
246734717,5.0966306,3.319336,1,0,1,0,1,0,0
247234717,5.0756836,3.319336,1,0,1,0,1,0,0
247734717,5.0901856,3.319336,1,0,1,0,1,0,0
248234717,5.0966306,3.319336,1,0,1,0,1,0,0
248734718,5.0756836,3.3177245,1,0,1,0,1,0,0
249234717,5.078906,3.319336,1,0,1,0,1,0,0
249734718,5.093408,3.319336,1,0,1,0,1,0,0
250234718,5.082129,3.3177245,1,0,1,0,1,0,0
250744717,5.0756836,3.3177245,1,0,1,0,1,0,0
251244718,5.0756836,3.319336,1,0,1,0,1,0,0
251744717,5.082129,3.319336,1,0,1,0,1,0,0
252244717,5.0756836,3.319336,1,0,1,0,1,0,0
252744718,5.0724607,3.319336,1,0,1,0,1,0,0
253244717,5.0966306,3.3177245,1,0,1,0,1,0,0
253744717,5.077295,3.319336,1,0,1,0,1,0,0
254244717,5.0740724,3.319336,1,0,1,0,1,0,0
254744717,5.0756836,3.3177245,1,0,1,0,1,0,0
255244717,5.08374,3.319336,1,0,1,0,1,0,0
255744717,5.0756836,3.319336,1,0,1,0,1,0,0
256244717,5.0950193,3.319336,1,0,1,0,1,0,0
256744717,5.077295,3.319336,1,0,1,0,1,0,0
257254721,5.0740724,3.3177245,1,0,1,0,1,0,0
257754717,5.0950193,3.319336,1,0,1,0,1,0,0
258254717,5.0901856,3.3177245,1,0,1,0,1,0,0
258754717,5.077295,3.319336,1,0,1,0,1,0,0
259254717,5.0756836,3.319336,1,0,1,0,1,0,0
259754717,5.078906,3.319336,1,0,1,0,1,0,0
260254729,5.054736,3.314502,1,0,1,0,1,0,0
260764718,5.0982423,3.3177245,1,0,1,0,1,0,0
261264722,5.0708494,3.319336,1,0,1,0,1,0,0
261764760,5.0982423,3.319336,1,0,1,0,1,0,0
262264717,5.091797,3.3209472,1,0,1,0,1,0,0
262764717,5.077295,3.3177245,1,0,1,0,1,0,0
263264717,5.0724607,3.3177245,1,0,1,0,1,0,0
263764719,5.0869627,3.3177245,1,0,1,0,1,0,0
264264718,5.0901856,3.319336,1,0,1,0,1,0,0
264764717,5.0966306,3.3209472,1,0,1,0,1,0,0
265264717,5.0724607,3.319336,1,0,1,0,1,0,0
265764719,5.078906,3.319336,1,0,1,0,1,0,0
266274724,5.078906,3.319336,1,0,1,0,1,0,0
266774717,5.0740724,3.319336,1,0,1,0,1,0,0
267274718,5.0853515,3.319336,1,0,1,0,1,0,0
267774721,5.0966306,3.3177245,1,0,1,0,1,0,0
268274717,5.0853515,3.319336,1,0,1,0,1,0,0
268774717,5.0982423,3.319336,1,0,1,0,1,0,0
269274717,5.0740724,3.319336,1,0,1,0,1,0,0
269774717,5.077295,3.319336,1,0,1,0,1,0,0
270274717,5.0724607,3.319336,1,0,1,0,1,0,0
270774717,5.077295,3.319336,1,0,1,0,1,0,0
271274724,5.0805173,3.319336,1,0,1,0,1,0,0
271774718,5.0805173,3.3209472,1,0,1,0,1,0,0
272274717,5.078906,3.319336,1,0,1,0,1,0,0
272774718,5.0805173,3.3177245,1,0,1,0,1,0,0
273284717,5.078906,3.3209472,1,0,1,0,1,0,0
273784717,5.0998535,3.319336,1,0,1,0,1,0,0
274284717,5.0982423,3.319336,1,0,1,0,1,0,0
274784717,5.0805173,3.319336,1,0,1,0,1,0,0
275284717,5.0805173,3.319336,1,0,1,0,1,0,0
275784717,5.091797,3.3177245,1,0,1,0,1,0,0
276284717,5.088574,3.319336,1,0,1,0,1,0,0
276784717,5.077295,3.319336,1,0,1,0,1,0,0
277284717,5.0982423,3.3209472,1,0,1,0,1,0,0
277784717,5.078906,3.319336,1,0,1,0,1,0,0
278284718,5.0756836,3.3209472,1,0,1,0,1,0,0
278784717,5.0853515,3.319336,1,0,1,0,1,0,0
279284717,5.078906,3.319336,1,0,1,0,1,0,0
279784717,5.078906,3.319336,1,0,1,0,1,0,0
280284717,5.088574,3.319336,1,0,1,0,1,0,0
280784717,5.0901856,3.319336,1,0,1,0,1,0,0
281284717,5.0740724,3.319336,1,0,1,0,1,0,0
281784717,5.091797,3.3177245,1,0,1,0,1,0,0
282284717,5.0724607,3.319336,1,0,1,0,1,0,0
282784718,5.0756836,3.3177245,1,0,1,0,1,0,0
283294717,5.078906,3.319336,1,0,1,0,1,0,0
283794717,5.0756836,3.319336,1,0,1,0,1,0,0
284294721,5.077295,3.319336,1,0,1,0,1,0,0
284794718,5.093408,3.3177245,1,0,1,0,1,0,0
285294718,5.078906,3.3209472,1,0,1,0,1,0,0
285794717,5.082129,3.319336,1,0,1,0,1,0,0
286294718,5.077295,3.319336,1,0,1,0,1,0,0
286794717,5.0966306,3.319336,1,0,1,0,1,0,0
287294717,5.0998535,3.319336,1,0,1,0,1,0,0
287794717,5.0756836,3.319336,1,0,1,0,1,0,0
288294717,5.0756836,3.319336,1,0,1,0,1,0,0
288794717,5.077295,3.319336,1,0,1,0,1,0,0
289294718,5.077295,3.3209472,1,0,1,0,1,0,0
289804717,5.0724607,3.319336,1,0,1,0,1,0,0
290304717,5.0724607,3.319336,1,0,1,0,1,0,0
290804717,5.077295,3.319336,1,0,1,0,1,0,0
291304717,5.0966306,3.319336,1,0,1,0,1,0,0
291804717,5.0966306,3.319336,1,0,1,0,1,0,0
292304717,5.091797,3.319336,1,0,1,0,1,0,0
292804717,5.0901856,3.319336,1,0,1,0,1,0,0
293304717,5.077295,3.319336,1,0,1,0,1,0,0
293804717,5.0740724,3.3177245,1,0,1,0,1,0,0
294304717,5.08374,3.319336,1,0,1,0,1,0,0
294814717,5.077295,3.3177245,1,0,1,0,1,0,0
295314726,5.0998535,3.319336,1,0,1,0,1,0,0
295814718,5.0901856,3.319336,1,0,1,0,1,0,0
296324717,5.082129,3.319336,1,0,1,0,1,0,0
296824718,5.0982423,3.319336,1,0,1,0,1,0,0
297324717,5.0740724,3.319336,1,0,1,0,1,0,0
297824718,5.093408,3.319336,1,0,1,0,1,0,0
298324717,5.0740724,3.319336,1,0,1,0,1,0,0
298834717,5.0740724,3.319336,1,0,1,0,1,0,0
299334725,5.091797,3.319336,1,0,1,0,1,0,0
299834717,5.0756836,3.3177245,1,0,1,0,1,0,0
300334717,5.0950193,3.3209472,1,0,1,0,1,0,0
300834717,5.078906,3.319336,1,0,1,0,1,0,0
301334718,5.078906,3.3225586,1,0,1,0,1,0,0
301834718,5.0756836,3.3209472,1,0,1,0,1,0,0
302344717,5.082129,3.319336,1,0,1,0,1,0,0
302844717,5.088574,3.3177245,1,0,1,0,1,0,0
303344717,5.0756836,3.319336,1,0,1,0,1,0,0
303844726,5.0756836,3.319336,1,0,1,0,1,0,0
304344717,5.078906,3.319336,1,0,1,0,1,0,0
304854717,5.0740724,3.319336,1,0,1,0,1,0,0
305354717,5.0982423,3.319336,1,0,1,0,1,0,0
305854717,5.093408,3.319336,1,0,1,0,1,0,0
306354717,5.0998535,3.319336,1,0,1,0,1,0,0
306854717,5.091797,3.319336,1,0,1,0,1,0,0
307354718,5.067627,3.3177245,1,0,1,0,1,0,0
307854717,5.0724607,3.3209472,1,0,1,0,1,0,0
308354719,5.082129,3.3209472,1,0,1,0,1,0,0
308854720,5.0966306,3.319336,1,0,1,0,1,0,0
309354718,5.078906,3.319336,1,0,1,0,1,0,0
309854719,5.0740724,3.3177245,1,0,1,0,1,0,0
310354717,5.078906,3.319336,1,0,1,0,1,0,0
310854726,5.088574,3.319336,1,0,1,0,1,0,0
311364723,5.0869627,3.319336,1,0,1,0,1,0,0
311864717,5.08374,3.319336,1,0,1,0,1,0,0
312364717,5.082129,3.319336,1,0,1,0,1,0,0
312864717,5.078906,3.319336,1,0,1,0,1,0,0
313364717,5.078906,3.319336,1,0,1,0,1,0,0
313864717,5.0950193,3.319336,1,0,1,0,1,0,0
314364717,5.0756836,3.3209472,1,0,1,0,1,0,0
314864723,5.077295,3.3209472,1,0,1,0,1,0,0
315364717,5.091797,3.319336,1,0,1,0,1,0,0
315864717,5.08374,3.319336,1,0,1,0,1,0,0
316364717,5.0756836,3.319336,1,0,1,0,1,0,0
316864717,5.0901856,3.3177245,1,0,1,0,1,0,0
317364717,5.0966306,3.319336,1,0,1,0,1,0,0
317874718,5.0724607,3.319336,1,0,1,0,1,0,0
318374719,5.077295,3.319336,1,0,1,0,1,0,0
318874717,5.091797,3.3209472,1,0,1,0,1,0,0
319374717,5.0740724,3.3209472,1,0,1,0,1,0,0
319874717,5.0950193,3.3209472,1,0,1,0,1,0,0
