timestamp,rollspeed,pitchspeed,yawspeed,q[0],q[1],q[2],q[3],delta_q_reset[0],delta_q_reset[1],delta_q_reset[2],delta_q_reset[3],quat_reset_counter
58338347,0.0002535656,0.0031075613,0.00765276,0.99646926,0.0030653505,0.003786305,0.083817385,1.0,0.0,0.0,0.0,0
58342430,-0.0010173612,0.0016176561,0.0066938372,0.99646914,0.003070524,0.0038130675,0.08381719,1.0,0.0,0.0,0.0,0
58374409,0.00029003853,0.0020262233,0.003884815,0.9964702,0.0031310376,0.0040065614,0.08379381,1.0,0.0,0.0,0.0,0
58406362,-0.001707502,0.0015993104,0.0015832935,0.99646896,0.003159,0.004132317,0.08380214,1.0,0.0,0.0,0.0,0
58438388,-1.7275568e-05,0.00084443204,0.0012088723,0.99646777,0.0031958008,0.0042237784,0.0838101,1.0,0.0,0.0,0.0,0
58470359,-0.0005492051,0.0021098596,-2.5684945e-05,0.9964665,0.0032176443,0.004290346,0.08381938,1.0,0.0,0.0,0.0,0
58502376,-0.0008660229,0.0025060484,0.0009321682,0.9964658,0.0032418657,0.004329224,0.083825864,1.0,0.0,0.0,0.0,0
58534382,0.0007085088,0.002823778,0.0024319366,0.99646485,0.0032648654,0.0043605855,0.08383464,1.0,0.0,0.0,0.0,0
58566436,0.00029402226,0.0030352084,0.005567587,0.996464,0.0032873766,0.004382734,0.083841614,1.0,0.0,0.0,0.0,0
58598406,0.0003604018,0.0019322999,0.0068640565,0.996472,0.0032881848,0.004355733,0.08374887,1.0,0.0,0.0,0.0,0
58626408,-0.0002605063,0.0013483579,-0.003144067,0.99648786,0.0032793968,0.0043031764,0.083562225,1.0,0.0,0.0,0.0,0
58658350,0.0006949268,0.0012513695,0.00041071163,0.9965051,0.003264065,0.00423066,0.08336078,1.0,0.0,0.0,0.0,0
58690394,0.0024867514,0.002187438,0.00038698944,0.9965227,0.0032551284,0.004160933,0.08315413,1.0,0.0,0.0,0.0,0
58722374,0.00058209384,0.002642211,0.004161164,0.9965409,0.0032365944,0.0040949234,0.08294041,1.0,0.0,0.0,0.0,0
58754490,-0.00027524214,0.0034000059,0.008181086,0.996558,0.0032177714,0.004026423,0.082738005,1.0,0.0,0.0,0.0,0
58786406,0.0013787993,0.0015672669,0.008549427,0.99657553,0.0032535119,0.0038885535,0.082532495,1.0,0.0,0.0,0.0,0
58818383,0.00040133623,0.001364148,0.008492572,0.9965927,0.0033087828,0.0037274861,0.082329735,1.0,0.0,0.0,0.0,0
58850440,-0.000878152,0.00093689025,0.008530904,0.9966084,0.0033767617,0.0035703913,0.08214407,1.0,0.0,0.0,0.0,0
58878374,0.00019422174,0.0031236727,0.0032671164,0.9966251,0.0034300443,0.003442053,0.08194349,1.0,0.0,0.0,0.0,0
58910345,0.0007130727,0.0018512746,0.0058286665,0.99664265,0.0034991063,0.0033002545,0.0817331,1.0,0.0,0.0,0.0,0
58942405,-0.00066991197,0.0015485089,0.0076431944,0.99666065,0.003569813,0.0031729816,0.08151484,1.0,0.0,0.0,0.0,0
58974426,-0.00023323204,0.00040874165,0.0081966,0.9966783,0.003631048,0.0030540708,0.08130129,1.0,0.0,0.0,0.0,0
59006484,0.00051719835,0.0013671722,0.007399584,0.9966947,0.0036577627,0.0029067667,0.08110476,1.0,0.0,0.0,0.0,0
59038381,0.0008368301,0.00060387095,0.0053883027,0.9967109,0.0036771249,0.0027641202,0.08090977,1.0,0.0,0.0,0.0,0
59070367,0.0005204631,0.0012242331,0.0020678344,0.9967284,0.0036932933,0.002636133,0.08069675,1.0,0.0,0.0,0.0,0
59102365,-0.0002259356,4.373351e-05,0.0016784125,0.99674445,0.0037016838,0.0025246467,0.080501065,1.0,0.0,0.0,0.0,0
59130395,-0.000870541,0.0022074017,0.0072938656,0.9967574,0.0037060222,0.002450364,0.08034373,1.0,0.0,0.0,0.0,0
59162461,0.0005021193,0.0012315514,0.006468567,0.9967729,0.003697281,0.0023698343,0.08015388,1.0,0.0,0.0,0.0,0
59194442,-0.00013469532,0.00076443073,0.005529844,0.99678534,0.0036980796,0.0022599793,0.0800024,1.0,0.0,0.0,0.0,0
59226336,-0.0008806288,0.0008678436,0.0024089285,0.9967957,0.0036880241,0.0021195032,0.07987713,1.0,0.0,0.0,0.0,0
59258364,-0.0015159913,1.5874393e-06,0.00084817497,0.99680644,0.0036784322,0.0019801012,0.079746425,1.0,0.0,0.0,0.0,0
59290390,-0.0013047892,-0.00063667423,-0.0016158093,0.99681544,0.0036688151,0.001849346,0.07963732,1.0,0.0,0.0,0.0,0
59322389,-0.0019317493,-0.0013921142,-0.0028456245,0.99682426,0.00366534,0.0017190712,0.079530165,1.0,0.0,0.0,0.0,0
59354439,0.00092103565,8.123438e-05,-0.0031871544,0.99683166,0.0036527908,0.0015999014,0.07944058,1.0,0.0,0.0,0.0,0
59382376,-0.00021879422,0.0013341319,0.0021282905,0.99683946,0.0035954155,0.0015325431,0.07934632,1.0,0.0,0.0,0.0,0
59414426,-0.0004226165,-0.000582946,-0.0007540048,0.9968534,0.0035061196,0.0014894798,0.07917587,1.0,0.0,0.0,0.0,0
59446508,-0.0016963079,-0.0004884845,-0.0025908155,0.9968657,0.003409172,0.0014615962,0.079026595,1.0,0.0,0.0,0.0,0
59478363,-0.00094968034,-0.0009241202,-0.0039103916,0.996878,0.0033160287,0.001441632,0.07887381,1.0,0.0,0.0,0.0,0
59510370,-0.000114069786,0.0005519518,-0.004003682,0.9968922,0.0032230718,0.0014355192,0.07869928,1.0,0.0,0.0,0.0,0
59542394,-0.0010610232,-0.00019896566,-0.003197946,0.99690735,0.0031258676,0.0014376465,0.0785114,1.0,0.0,0.0,0.0,0
59574426,-0.00065374235,0.000968372,-0.0005674351,0.99692166,0.003040159,0.0014539842,0.078331694,1.0,0.0,0.0,0.0,0
59606370,0.0002045231,-0.00016983878,0.00094279624,0.9969352,0.002951915,0.0014063389,0.0781636,1.0,0.0,0.0,0.0,0
59634375,0.0012772977,-0.0006136717,-0.0032514348,0.9969472,0.0028880017,0.001372361,0.078013696,1.0,0.0,0.0,0.0,0
59667257,-0.0010484471,0.00068384176,-0.0031405285,0.99695975,0.0028183863,0.0013327224,0.07785695,1.0,0.0,0.0,0.0,0
59699207,-0.00094532594,-5.818135e-05,-0.00021218078,0.99697065,0.0027616937,0.0012898488,0.077720046,1.0,0.0,0.0,0.0,0
59731275,-0.00082490034,0.0010130182,0.00274234,0.9969799,0.002713492,0.0012444813,0.077603295,1.0,0.0,0.0,0.0,0
59763266,0.0006248923,0.00088255084,0.004683248,0.9969879,0.002677242,0.0012014126,0.07750334,1.0,0.0,0.0,0.0,0
59795243,0.0005489839,0.0012855545,0.005595807,0.9969952,0.0026478488,0.001140872,0.077410415,1.0,0.0,0.0,0.0,0
59823213,-0.000838154,0.00044683786,-0.003340638,0.9970024,0.0026506511,0.0010556715,0.07731784,1.0,0.0,0.0,0.0,0
59855236,1.622457e-05,0.001277688,-0.0010510263,0.997008,0.0026676832,0.0009666984,0.077246815,1.0,0.0,0.0,0.0,0
59887260,0.0004550889,7.510418e-06,0.0008558553,0.99701166,0.002677427,0.00088098424,0.077200115,1.0,0.0,0.0,0.0,0
59919202,0.00043822685,0.001189872,0.0044649113,0.99701506,0.002705824,0.0007966213,0.0771565,1.0,0.0,0.0,0.0,0
59951234,-0.00021056738,-0.00042174687,0.0067252126,0.9970173,0.002724416,0.0007191365,0.07712642,1.0,0.0,0.0,0.0,0
59983218,-0.0014128298,0.0009979487,0.008107089,0.9970171,0.002743489,0.0006402462,0.07713015,1.0,0.0,0.0,0.0,0
60015232,-7.9222955e-06,-0.0005183825,0.0061716195,0.99701613,0.0027785744,0.0005500137,0.07714238,1.0,0.0,0.0,0.0,0
60047227,-0.00044222176,0.00019733608,0.0052515576,0.99701345,0.0028171563,0.00047079645,0.077176176,1.0,0.0,0.0,0.0,0
60079204,-0.0012718714,-0.00034894864,0.00071009906,0.99701184,0.0028429276,0.00040014856,0.077196,1.0,0.0,0.0,0.0,0
60107216,0.0005168924,0.0005277165,0.0050196825,0.99700934,0.0028671117,0.00033382062,0.077227466,1.0,0.0,0.0,0.0,0
60139216,-0.000120867975,0.00043294532,0.005936397,0.9970064,0.0028914101,0.00026788554,0.07726551,1.0,0.0,0.0,0.0,0
60171291,-0.00067079486,-0.0012827613,0.006436185,0.99700284,0.0029139696,0.00020896872,0.07731105,1.0,0.0,0.0,0.0,0
60203302,-0.0011815622,-0.0013082365,0.0036406817,0.99699795,0.0029688617,0.0001232659,0.07737107,1.0,0.0,0.0,0.0,0
60235224,-0.0013809425,-0.00024381699,0.0029643385,0.9969941,0.0030207841,4.3766056e-05,0.07741858,1.0,0.0,0.0,0.0,0
60267201,-0.00019810954,-0.0010201405,4.2556203e-05,0.99699074,0.0030715342,-3.1766434e-05,0.07746012,1.0,0.0,0.0,0.0,0
60299225,0.0005586762,-0.0011204933,-0.0020428386,0.99698657,0.003127038,-0.000104832405,0.077512346,1.0,0.0,0.0,0.0,0
60327203,0.0012795278,0.001170869,0.0070868656,0.99698174,0.003169152,-0.00015370741,0.077572,1.0,0.0,0.0,0.0,0
60359229,0.0006308593,0.000731564,0.004937466,0.99697787,0.0032218334,-0.00019994225,0.077619605,1.0,0.0,0.0,0.0,0
60391261,-0.0010301794,-0.0012448928,0.003677948,0.99697316,0.003279396,-0.00026083158,0.07767737,1.0,0.0,0.0,0.0,0
60423262,3.429223e-05,-0.0012599498,-0.0006242733,0.99696875,0.0033317988,-0.00032697042,0.07773218,1.0,0.0,0.0,0.0,0
60455207,-0.00038846117,-0.0017947946,-0.0021848246,0.9969648,0.0033799931,-0.0003902669,0.077779315,1.0,0.0,0.0,0.0,0
60487198,0.000692565,-0.0013752454,-0.0031204582,0.99696106,0.0034315418,-0.0004452163,0.07782555,1.0,0.0,0.0,0.0,0
60519180,0.00038099242,-0.0021131635,-0.0035791856,0.9969572,0.0034766935,-0.0005061627,0.0778731,1.0,0.0,0.0,0.0,0
60551281,0.00089879194,-0.00039080204,-0.0043984894,0.99695295,0.0035209856,-0.00054874684,0.07792451,1.0,0.0,0.0,0.0,0
60583185,-0.0007295166,-0.001746004,-0.0018480672,0.99694884,0.0035375208,-0.00061137805,0.07797618,1.0,0.0,0.0,0.0,0
60611216,3.7831254e-05,-0.00016344083,-0.0009236826,0.9969457,0.0035495546,-0.0006764507,0.078014724,1.0,0.0,0.0,0.0,0
60643204,0.00023836922,-0.0019866766,-0.0022520681,0.99694306,0.0035550834,-0.00076171005,0.07804747,1.0,0.0,0.0,0.0,0
60675194,-0.0015546565,-0.0037836567,-0.0047749705,0.9969404,0.0035450137,-0.0008425422,0.078081734,1.0,0.0,0.0,0.0,0
60707252,3.2017007e-05,-0.0009952523,-0.0039795465,0.9969375,0.0035416814,-0.00091418193,0.07811801,1.0,0.0,0.0,0.0,0
60739290,-0.0006314784,-0.0022557825,-0.0028617405,0.9969342,0.003532709,-0.000979868,0.078159295,1.0,0.0,0.0,0.0,0
60771213,0.000560042,-0.00046130014,0.000897347,0.9969305,0.0035258203,-0.0010390697,0.078206725,1.0,0.0,0.0,0.0,0
60803212,0.00059196865,0.0009706003,0.0027818906,0.9969282,0.003506655,-0.0010867706,0.07823536,1.0,0.0,0.0,0.0,0
60831968,-0.00033383863,-0.0008761927,-0.004564847,0.9969274,0.0034810253,-0.0011245771,0.07824668,1.0,0.0,0.0,0.0,0
60863986,0.0006189137,-0.00064541074,-0.001176063,0.99692714,0.0034616408,-0.0011491562,0.07825075,1.0,0.0,0.0,0.0,0
60895979,0.0005087531,-0.0018056869,0.00082907313,0.9969272,0.0034429647,-0.0011783668,0.07824975,1.0,0.0,0.0,0.0,0
60928035,0.00125325,-0.00084451283,0.001132526,0.9969276,0.0034172672,-0.0011977063,0.078244746,1.0,0.0,0.0,0.0,0
60959994,0.00060949335,-0.00210475,0.0044378615,0.9969283,0.0034022813,-0.0012217492,0.07823795,1.0,0.0,0.0,0.0,0
60991946,-3.9963983e-05,-0.00038481783,0.0055834167,0.996928,0.003377469,-0.0012386758,0.078241736,1.0,0.0,0.0,0.0,0
61023975,0.0010233172,-0.0012276596,0.00667222,0.9969288,0.0033431589,-0.0012568361,0.07823213,1.0,0.0,0.0,0.0,0
61051972,0.0011366177,0.00043957809,0.00038470235,0.9969299,0.003313525,-0.0012669537,0.07822012,1.0,0.0,0.0,0.0,0
61083972,-0.0009939203,-0.0012536589,0.0016905714,0.9969291,0.0032802538,-0.0012780785,0.0782305,1.0,0.0,0.0,0.0,0
61116046,-0.00056956615,-0.00049136253,0.004541776,0.99692917,0.003248008,-0.0012926083,0.0782308,1.0,0.0,0.0,0.0,0
61147976,-0.00014853617,-0.00069600623,0.006040457,0.9969285,0.0032124796,-0.0013113283,0.07824044,1.0,0.0,0.0,0.0,0
61179983,-0.0007858968,-0.00090373727,0.006792659,0.99692774,0.0031870017,-0.0013331433,0.078250974,1.0,0.0,0.0,0.0,0
61211975,-0.00093311584,-3.492809e-05,0.007082658,0.9969272,0.0031748377,-0.0013440804,0.07825893,1.0,0.0,0.0,0.0,0
61243956,0.00023628026,-0.0013134086,0.0066706883,0.99692667,0.003164332,-0.0013678576,0.07826472,1.0,0.0,0.0,0.0,0
61275994,-0.00071758055,-0.0006823547,0.004848645,0.99692607,0.003156848,-0.0013811117,0.078272186,1.0,0.0,0.0,0.0,0
61304013,0.00066214893,0.00017822348,0.00622065,0.9969255,0.003154852,-0.001389058,0.07827951,1.0,0.0,0.0,0.0,0
61335994,-0.00050970586,0.00060920476,0.0071559655,0.9969247,0.0031536717,-0.0013985274,0.07828979,1.0,0.0,0.0,0.0,0
61367989,-0.00010498846,-0.00087519805,0.0065625133,0.99692386,0.003158924,-0.0014087119,0.07830018,1.0,0.0,0.0,0.0,0
61400025,0.00021240395,-0.0002406328,0.005285753,0.99692225,0.0031793509,-0.0014350355,0.07831931,1.0,0.0,0.0,0.0,0
61431993,-0.00042545656,-0.0025787002,0.0055200583,0.99692076,0.003201958,-0.0014729921,0.07833679,1.0,0.0,0.0,0.0,0
61464082,-0.0006312202,-0.0012172973,0.00062139094,0.99691874,0.0032262835,-0.001509897,0.07836069,1.0,0.0,0.0,0.0,0
61495958,-0.00020463904,-0.0003705914,-0.0008657049,0.99691725,0.0032506327,-0.0015431427,0.078378245,1.0,0.0,0.0,0.0,0
61527978,-0.00052484684,-0.0026037341,-0.00076723384,0.99691546,0.003276156,-0.0015715569,0.07839975,1.0,0.0,0.0,0.0,0
61556037,0.0006346721,9.610434e-05,0.006986551,0.9969127,0.0033010426,-0.0015929091,0.07843269,1.0,0.0,0.0,0.0,0
61587982,0.00020323554,-0.00020672427,0.005148951,0.9969099,0.0033331711,-0.0015964801,0.07846746,1.0,0.0,0.0,0.0,0
61619992,-0.00011056429,-0.00012545148,0.0018497956,0.99690604,0.0033534435,-0.001553994,0.07851551,1.0,0.0,0.0,0.0,0
61651980,-0.0007485463,-0.0015121836,0.00068998104,0.9969023,0.0033762737,-0.0015091738,0.07856449,1.0,0.0,0.0,0.0,0
61683981,-0.0005321265,-0.0008887884,-0.002500548,0.9968981,0.0033930955,-0.0014651965,0.07861616,1.0,0.0,0.0,0.0,0
61716043,-0.00053846743,-0.0023684083,-0.0032997173,0.99689335,0.0034099016,-0.0014183975,0.07867627,1.0,0.0,0.0,0.0,0
61744807,-0.00011454336,-0.0008440893,0.0027439785,0.99688816,0.003427831,-0.0013712043,0.07874215,1.0,0.0,0.0,0.0,0
61776867,-0.00021921284,-0.00022865552,0.0011304773,0.9968838,0.0034362837,-0.0013220896,0.078798726,1.0,0.0,0.0,0.0,0
61808773,-0.00033946196,-0.0008090788,-0.0013924798,0.9968787,0.0034507483,-0.0012467782,0.078863606,1.0,0.0,0.0,0.0,0
61840755,8.762814e-05,-0.0015668033,-0.0020627538,0.9968738,0.003459584,-0.0011761516,0.0789267,1.0,0.0,0.0,0.0,0
61872848,-0.0002271249,-0.0012653575,-0.0056202374,0.9968705,0.0034666443,-0.001104285,0.07896939,1.0,0.0,0.0,0.0,0
61904832,0.00061795535,-0.00094068213,-0.0027589453,0.9968673,0.0034636273,-0.0010416498,0.07900966,1.0,0.0,0.0,0.0,0
61936827,-0.0006576604,0.00013655238,-0.0018185719,0.99686414,0.0034682988,-0.0009740782,0.07905017,1.0,0.0,0.0,0.0,0
61968819,0.00031091645,-0.00015475298,0.00074615714,0.9968607,0.0034788735,-0.0009194769,0.079094365,1.0,0.0,0.0,0.0,0
61996762,-0.00041796034,-0.0014453563,-0.0023479906,0.99685776,0.003484845,-0.00087486365,0.07913149,1.0,0.0,0.0,0.0,0
62028760,0.0006493828,-0.0019063342,-0.004959466,0.9968549,0.0035026832,-0.00083507935,0.07916608,1.0,0.0,0.0,0.0,0
62060770,0.0013913815,-0.00018589245,-0.00370922,0.99685234,0.0035071925,-0.0007859085,0.07919947,1.0,0.0,0.0,0.0,0
62092793,0.0015969398,-6.9550704e-05,-0.0026740774,0.9968495,0.0035193039,-0.0007533912,0.07923464,1.0,0.0,0.0,0.0,0
62124873,-0.00032290258,-0.00079895766,0.00021091563,0.9968461,0.0035232778,-0.0007284713,0.07927825,1.0,0.0,0.0,0.0,0
62156824,0.00020159129,6.4038904e-05,0.0023414008,0.9968435,0.0035236166,-0.0007105255,0.07931063,1.0,0.0,0.0,0.0,0
62188797,-6.127218e-05,0.0005188021,0.004210971,0.99684143,0.0035225006,-0.0006922095,0.07933731,1.0,0.0,0.0,0.0,0
62220793,0.0005888366,0.00062836986,0.0049683424,0.99684167,0.003511383,-0.0006868071,0.07933503,1.0,0.0,0.0,0.0,0
62248793,0.0007114415,-0.001548768,-0.0033576,0.9968422,0.0035086947,-0.00068632385,0.079327196,1.0,0.0,0.0,0.0,0
62280779,-0.0005820785,0.0009167632,-0.00093876815,0.99684256,0.003503938,-0.00069344917,0.079323806,1.0,0.0,0.0,0.0,0
62312802,0.0013375315,-0.0006624358,0.0011187118,0.99684274,0.0034912312,-0.00069808855,0.07932276,1.0,0.0,0.0,0.0,0
62344850,0.00079640653,0.0007261459,0.0032600544,0.9968438,0.0034809224,-0.0007064971,0.07930912,1.0,0.0,0.0,0.0,0
62376791,-0.00030796044,-0.0010972181,0.0054807756,0.99684423,0.0034616499,-0.0007106447,0.07930449,1.0,0.0,0.0,0.0,0
62408798,-0.0012612401,7.726252e-05,0.007214981,0.99684536,0.003441509,-0.00072505797,0.07929113,1.0,0.0,0.0,0.0,0
62440771,-0.00072528515,0.00049238745,0.0052948208,0.996846,0.0034205462,-0.00074406643,0.07928317,1.0,0.0,0.0,0.0,0
62472881,0.00012592273,0.00092979614,0.004239359,0.9968472,0.0033976934,-0.00075476395,0.079268776,1.0,0.0,0.0,0.0,0
62500780,0.001617026,0.00050449045,0.004051109,0.996849,0.0033926591,-0.0007704569,0.07924709,1.0,0.0,0.0,0.0,0
62532780,-9.4352756e-05,-0.0009880827,0.0054760342,0.9968495,0.0033764986,-0.0007979753,0.079240955,1.0,0.0,0.0,0.0,0
62564850,0.0003412119,-0.0011990627,0.0069784503,0.99684983,0.0033648608,-0.00081182766,0.079237245,1.0,0.0,0.0,0.0,0
62596760,1.5774276e-05,0.0016085427,0.00729499,0.99685013,0.0033463931,-0.00080624636,0.07923384,1.0,0.0,0.0,0.0,0
62628781,-0.00040281564,0.001068952,0.005069552,0.99685043,0.0033446965,-0.0007929599,0.079231255,1.0,0.0,0.0,0.0,0
62660768,-0.0021118375,0.001272155,0.0025129511,0.9968509,0.0033346128,-0.0007695977,0.079225294,1.0,0.0,0.0,0.0,0
62692757,0.00044829305,-0.0009749534,0.0012420188,0.99685144,0.003320949,-0.00075140334,0.07922,1.0,0.0,0.0,0.0,0
62724863,-0.00040331716,-0.0012134204,-0.0027156612,0.9968524,0.003321322,-0.00074072025,0.0792071,1.0,0.0,0.0,0.0,0
62752852,-0.0012575018,0.00022319797,0.0067410567,0.9968512,0.003319739,-0.00072601106,0.079222515,1.0,0.0,0.0,0.0,0
62784845,-3.7406571e-06,0.00048768613,0.005893662,0.9968514,0.003308309,-0.0007125967,0.0792201,1.0,0.0,0.0,0.0,0
62816765,0.00031568436,0.00036762631,0.0040728846,0.9968521,0.0032975925,-0.0007153819,0.07921275,1.0,0.0,0.0,0.0,0
62848747,0.00021294737,-0.0011340722,-0.00038752187,0.9968537,0.0032951434,-0.00072002213,0.07919236,1.0,0.0,0.0,0.0,0
62880795,-0.0021257717,-0.00061268266,-0.0013656449,0.9968546,0.0032809211,-0.00071765,0.07918097,1.0,0.0,0.0,0.0,0
62912854,0.0022383728,-0.0015949912,-0.0033976126,0.9968557,0.0032739602,-0.00072862365,0.07916779,1.0,0.0,0.0,0.0,0
62944862,-0.0006287629,-0.0014985914,-0.0035380907,0.99685556,0.0032766205,-0.0007342221,0.07916896,1.0,0.0,0.0,0.0,0
62976799,-0.0011121468,-0.00048239483,-0.0039765523,0.99685645,0.0032726342,-0.0007435181,0.07915738,1.0,0.0,0.0,0.0,0
63004855,-0.001762303,-9.898259e-05,0.001410468,0.99685615,0.0032721176,-0.00078592816,0.079161406,1.0,0.0,0.0,0.0,0
63036824,0.00069247046,-0.00087312446,-9.052927e-05,0.9968561,0.0032734668,-0.0008262478,0.07916168,1.0,0.0,0.0,0.0,0
63068773,-0.0009110854,0.00017576362,-0.0025616973,0.996856,0.0032896653,-0.000870872,0.07916156,1.0,0.0,0.0,0.0,0
63100765,0.00047595054,-0.002179765,-0.004596016,0.99685544,0.0033061197,-0.00092161767,0.07916731,1.0,0.0,0.0,0.0,0
63133593,5.6420453e-05,-0.0003604258,-0.0023817453,0.9968546,0.0033241762,-0.00096531183,0.07917687,1.0,0.0,0.0,0.0,0
63165572,0.0008945996,0.0003840425,-0.0006938272,0.99685425,0.003330732,-0.0010024861,0.07918042,1.0,0.0,0.0,0.0,0
63197573,0.00072566094,-0.00023213681,0.0019545816,0.99685204,0.0033324063,-0.0009981903,0.07920872,1.0,0.0,0.0,0.0,0
63225571,-0.000659036,-0.0011063237,-0.0037447447,0.9968517,0.0033258074,-0.0009924447,0.079212606,1.0,0.0,0.0,0.0,0
63257568,-0.0010726305,-0.0013263139,-0.004070849,0.99685085,0.0033252034,-0.0009821313,0.07922403,1.0,0.0,0.0,0.0,0
63289575,-0.00011849869,-0.0009053827,-0.0024957908,0.99684995,0.003310961,-0.0009731022,0.0792367,1.0,0.0,0.0,0.0,0
63321651,0.00019308459,-0.001323333,-0.00080659764,0.9968483,0.0033014212,-0.00095951505,0.079256915,1.0,0.0,0.0,0.0,0
63353568,0.0010516178,-0.00034170365,0.0017434068,0.99684626,0.003290788,-0.0009432394,0.0792841,1.0,0.0,0.0,0.0,0
63385590,0.00062318565,0.0008112998,0.0039734356,0.99684495,0.0032819891,-0.0009184982,0.079301186,1.0,0.0,0.0,0.0,0
63417558,0.00051072147,-0.00022918917,0.007497498,0.996843,0.0032744512,-0.00090473157,0.07932618,1.0,0.0,0.0,0.0,0
63449556,0.0006183828,0.001048795,0.0071916487,0.9968407,0.0032714552,-0.00089458545,0.079354204,1.0,0.0,0.0,0.0,0
63477576,0.00063236617,-0.0011434704,-0.0026023397,0.9968403,0.0032657986,-0.0008871227,0.07936007,1.0,0.0,0.0,0.0,0
63509591,0.001262669,-0.00028563803,-0.0005982168,0.99683875,0.0032630258,-0.0008842237,0.079379976,1.0,0.0,0.0,0.0,0
63541580,-0.00022819964,-0.000356002,0.0041085915,0.9968371,0.003260797,-0.0008765554,0.07940159,1.0,0.0,0.0,0.0,0
63573626,-0.00044175657,0.00039585633,0.0042749275,0.99683595,0.00325789,-0.00087956095,0.07941479,1.0,0.0,0.0,0.0,0
63605583,-0.00027900143,0.0005877379,0.00715954,0.9968347,0.0032109083,-0.0008829989,0.079432935,1.0,0.0,0.0,0.0,0
63637584,-0.00070409756,0.00026820786,0.00644065,0.996834,0.0031761327,-0.0008845653,0.07944357,1.0,0.0,0.0,0.0,0
63669590,0.00016716914,0.00036904356,0.005909683,0.996834,0.0031434374,-0.00088973047,0.07944467,1.0,0.0,0.0,0.0,0
63701571,-0.001643995,-6.568921e-05,0.0039021275,0.9968337,0.0031091543,-0.0008957438,0.07945029,1.0,0.0,0.0,0.0,0
63729614,-0.0006942884,5.8271224e-05,0.0047612605,0.99683404,0.003069045,-0.000906035,0.07944674,1.0,0.0,0.0,0.0,0
63761690,-0.00029628957,0.0005860529,0.006282014,0.9968334,0.0030330003,-0.00091740827,0.07945598,1.0,0.0,0.0,0.0,0
63793588,-8.492032e-05,0.0018699606,0.007667509,0.9968328,0.0030170525,-0.0008972263,0.07946362,1.0,0.0,0.0,0.0,0
63825571,-0.00061518187,0.00078514125,0.0075879833,0.9968321,0.0030135748,-0.0008861405,0.079473235,1.0,0.0,0.0,0.0,0
63857570,-0.00029572612,-0.00047541712,0.0067561828,0.99683094,0.0030147166,-0.00086773443,0.079487935,1.0,0.0,0.0,0.0,0
63889558,-7.601362e-05,0.0002425178,0.0015422722,0.9968307,0.0030090988,-0.00084837025,0.07949042,1.0,0.0,0.0,0.0,0
63921651,-0.00039613387,-0.0005029754,-0.0005745282,0.9968305,0.003019521,-0.0008388873,0.079492286,1.0,0.0,0.0,0.0,0
63953596,0.00025089784,-0.0008317472,-0.0017382624,0.99682987,0.0030216118,-0.0008220723,0.0795023,1.0,0.0,0.0,0.0,0
63981561,-5.2172225e-05,-0.000542026,0.0061971783,0.99682856,0.0030325435,-0.00081312814,0.07951786,1.0,0.0,0.0,0.0,0
64013567,0.00047489675,-0.00086433603,0.0053761154,0.996828,0.0030519187,-0.0008158955,0.07952414,1.0,0.0,0.0,0.0,0
64045644,-0.00037342822,-0.00087335217,0.003592439,0.9968267,0.0030763731,-0.00083161873,0.07953928,1.0,0.0,0.0,0.0,0
64077584,-0.00037345057,-0.0008719121,0.0011249956,0.99682516,0.0030893977,-0.00084014796,0.07955723,1.0,0.0,0.0,0.0,0
64109573,-0.0005659186,-0.00035129464,-0.0017372923,0.996823,0.003104943,-0.0008360324,0.0795837,1.0,0.0,0.0,0.0,0
64141596,-0.0008931807,-0.0013127134,-0.0033518062,0.9968217,0.003129162,-0.000836192,0.079599224,1.0,0.0,0.0,0.0,0
64173603,-0.00046792673,-0.001967442,-0.0036848476,0.9968206,0.0031402668,-0.0008485006,0.07961313,1.0,0.0,0.0,0.0,0
64201592,0.0007304526,-0.0008123582,0.0041925623,0.99681884,0.0031561123,-0.00084914046,0.079634696,1.0,0.0,0.0,0.0,0
64234444,-0.0007460001,-0.0011384634,-0.00058910076,0.99681747,0.0031842305,-0.0008418819,0.079650514,1.0,0.0,0.0,0.0,0
64266404,-0.0002094754,-0.00094269076,-0.0036872558,0.9968173,0.0032008954,-0.0008487401,0.07965215,1.0,0.0,0.0,0.0,0
64298397,-0.002124007,-0.0007349502,-0.0039240085,0.99681705,0.0032082554,-0.00084672763,0.079655156,1.0,0.0,0.0,0.0,0
64330360,-0.0008510393,-0.0014795063,-0.00466233,0.9968167,0.0032259491,-0.00083614874,0.079657964,1.0,0.0,0.0,0.0,0
64362352,0.0018992145,-0.00042214314,-0.0015984322,0.99681556,0.0032369809,-0.00083535985,0.079671994,1.0,0.0,0.0,0.0,0
64394382,0.00018877024,-0.0005178475,-0.0005481857,0.9968152,0.0032542408,-0.0008262482,0.079676405,1.0,0.0,0.0,0.0,0
64422419,0.0010508127,-0.0012741138,-0.00465205,0.9968151,0.003262906,-0.0007975486,0.07967733,1.0,0.0,0.0,0.0,0
64454505,-0.0013956754,-0.0012753231,-0.0052033383,0.99681634,0.0032564718,-0.00076235464,0.079663,1.0,0.0,0.0,0.0,0
64486356,0.00040563894,-0.00041757687,-0.003736478,0.9968161,0.003258437,-0.0007303534,0.07966509,1.0,0.0,0.0,0.0,0
64518376,0.00029798504,-0.000952651,-0.0034406297,0.9968164,0.0032595433,-0.00070416956,0.07966139,1.0,0.0,0.0,0.0,0
64550415,-0.00044987118,-0.00031367992,-0.0006977419,0.99681646,0.0032635028,-0.0006757073,0.07966081,1.0,0.0,0.0,0.0,0
64582431,-0.00019299146,0.0006371143,0.0022366128,0.9968163,0.0032748461,-0.0006506676,0.07966368,1.0,0.0,0.0,0.0,0
64614413,0.0010823007,0.00042709243,0.0026713642,0.99681675,0.0032776862,-0.0006351616,0.07965773,1.0,0.0,0.0,0.0,0
64646364,0.00096240547,0.00013654027,0.0051092063,0.996817,0.0032878018,-0.0006183528,0.07965461,1.0,0.0,0.0,0.0,0
64674417,0.00023415312,-0.000231585,-0.0034671419,0.9968181,0.0032889245,-0.0006086579,0.07963962,1.0,0.0,0.0,0.0,0
64706473,-8.729566e-05,-0.00076184375,-0.0018820423,0.9968185,0.0032925424,-0.0006078313,0.079634935,1.0,0.0,0.0,0.0,0
64738372,0.00022790954,-0.00097005186,0.0008732505,0.9968178,0.0032943727,-0.00060944096,0.079643235,1.0,0.0,0.0,0.0,0
64770386,0.0007100217,0.0013416727,0.001795836,0.99681765,0.0032997269,-0.00060086505,0.07964564,1.0,0.0,0.0,0.0,0
64802400,0.00028469553,0.001678793,0.004334049,0.99681693,0.0033287774,-0.00057338685,0.079652496,1.0,0.0,0.0,0.0,0
64834365,0.00018785661,-0.0009773602,0.0056136483,0.9968172,0.0033627257,-0.0005535386,0.07964844,1.0,0.0,0.0,0.0,0
64866424,-0.00024950877,-0.0003283911,0.005936539,0.9968161,0.0033903588,-0.0005453211,0.07966111,1.0,0.0,0.0,0.0,0
64898386,-0.0014108124,0.00040637772,0.005328886,0.9968167,0.0034077028,-0.00053886225,0.07965367,1.0,0.0,0.0,0.0,0
64926395,0.00028717006,-0.0015292179,0.002338468,0.99681646,0.0034271346,-0.0005302455,0.07965625,1.0,0.0,0.0,0.0,0
64958407,-0.0009874224,-0.0013085571,0.003914375,0.99681497,0.003449533,-0.0005223271,0.07967263,1.0,0.0,0.0,0.0,0
64990428,0.00093184505,-0.0006982868,0.0042284066,0.99681455,0.0034631277,-0.0005139247,0.07967888,1.0,0.0,0.0,0.0,0
65022416,-0.0018446292,-0.0002489253,0.006461571,0.9968147,0.0034746078,-0.00051334134,0.079676025,1.0,0.0,0.0,0.0,0
65054450,-0.0004554903,7.843692e-05,0.007518384,0.99681425,0.0034853073,-0.000505936,0.07968004,1.0,0.0,0.0,0.0,0
65086368,-0.00077315234,0.000898537,0.0054154,0.9968139,0.0034830496,-0.0005153451,0.07968564,1.0,0.0,0.0,0.0,0
65118385,-3.1083822e-05,0.0011025276,0.0032907922,0.99681413,0.0034889544,-0.00051986874,0.079682454,1.0,0.0,0.0,0.0,0
65150433,0.00028463034,0.0006731318,0.0026623742,0.99681383,0.0035048623,-0.0005195799,0.07968539,1.0,0.0,0.0,0.0,0
65178355,-0.0004592901,0.00067563774,0.00547475,0.99681354,0.0035090283,-0.0005255758,0.07968862,1.0,0.0,0.0,0.0,0
65210382,-0.0009876098,0.00015332899,0.0071502626,0.9968143,0.003522597,-0.0005403502,0.079678096,1.0,0.0,0.0,0.0,0
65242371,-0.0010987471,-0.0012428856,0.005924592,0.9968141,0.0035270776,-0.00055537425,0.07968118,1.0,0.0,0.0,0.0,0
65274403,-0.0020481779,-9.3054725e-05,0.004106498,0.9968152,0.0035244934,-0.00057170814,0.07966684,1.0,0.0,0.0,0.0,0
65306406,-0.0004441142,-0.00020197732,0.0024247644,0.99681634,0.0035323794,-0.00059161446,0.07965291,1.0,0.0,0.0,0.0,0
65338392,-0.00225593,-0.00063412474,-0.0004448024,0.9968166,0.0035287472,-0.0006036902,0.07964957,1.0,0.0,0.0,0.0,0
65371218,-8.406676e-05,-0.0017427474,-0.0037111244,0.9968168,0.003520809,-0.0006177976,0.07964568,1.0,0.0,0.0,0.0,0
65403218,-0.0004066499,-0.0012957738,-0.0049306727,0.99681675,0.0035359506,-0.0006359259,0.079646,1.0,0.0,0.0,0.0,0
65435169,0.00032633124,0.00020548352,-0.0029821536,0.99681693,0.0035434682,-0.00064779416,0.07964329,1.0,0.0,0.0,0.0,0
65467274,0.00076801656,-0.0011773393,-0.0026352815,0.99681675,0.00354346,-0.0006765106,0.079644516,1.0,0.0,0.0,0.0,0
65499237,0.00063019944,0.0010541561,0.0005662555,0.9968164,0.0035566373,-0.00068292103,0.07964978,1.0,0.0,0.0,0.0,0
65531232,0.0006238385,-0.0005283863,0.0038799092,0.996816,0.0035700307,-0.00070256845,0.07965407,1.0,0.0,0.0,0.0,0
65563235,0.00010115886,0.0012783806,0.004687641,0.99681556,0.0035695692,-0.00071606884,0.079658546,1.0,0.0,0.0,0.0,0
65595225,-0.00034371065,0.00075862976,0.0062802844,0.99681544,0.0035798599,-0.000735323,0.07966005,1.0,0.0,0.0,0.0,0
65627256,-0.0007702557,0.00020147976,0.0055551124,0.99681497,0.0035765353,-0.0007478011,0.079666026,1.0,0.0,0.0,0.0,0
65659263,7.7878125e-05,0.0006401872,0.0057331086,0.9968151,0.003581624,-0.0007623914,0.07966391,1.0,0.0,0.0,0.0,0
65691223,-0.00012456812,0.0007662405,0.004610024,0.996815,0.0035851826,-0.0007806812,0.079664014,1.0,0.0,0.0,0.0,0
65723191,-0.0006554988,-0.0010027373,0.0009517573,0.996815,0.003587125,-0.00079417607,0.07966436,1.0,0.0,0.0,0.0,0
65755196,0.00011360878,-0.0005710451,0.0005198461,0.9968149,0.0035831612,-0.00080395653,0.07966533,1.0,0.0,0.0,0.0,0
65787257,-1.1417083e-05,-0.0010747593,-0.0029561096,0.9968149,0.0035831032,-0.00081332086,0.07966626,1.0,0.0,0.0,0.0,0
65815235,0.00039336644,-0.00014013378,0.007649003,0.9968146,0.0035852487,-0.00083092495,0.07966904,1.0,0.0,0.0,0.0,0
65847210,-0.0016389552,-0.0004829748,0.004717741,0.99681485,0.0035783728,-0.0008559565,0.079666026,1.0,0.0,0.0,0.0,0
65879256,-7.853378e-06,0.00026427396,0.003614333,0.99681497,0.003573661,-0.00087072473,0.07966508,1.0,0.0,0.0,0.0,0
65911275,0.0008289451,-0.0017948153,0.0003258879,0.9968155,0.0035669834,-0.0008953688,0.07965826,1.0,0.0,0.0,0.0,0
65943226,-0.0012967791,-0.000288276,-0.0016249088,0.9968153,0.0035562408,-0.0009161317,0.079660185,1.0,0.0,0.0,0.0,0
65975216,-2.22628e-05,-0.0013033652,-0.00444524,0.9968164,0.0035528878,-0.00093246426,0.07964619,1.0,0.0,0.0,0.0,0
66007203,0.0002947785,-0.0015857008,-0.0033595448,0.99681604,0.003545047,-0.00096166297,0.07965171,1.0,0.0,0.0,0.0,0
66039294,-0.00054456806,0.00043019303,-0.004806095,0.99681675,0.003535211,-0.0009820415,0.07964297,1.0,0.0,0.0,0.0,0
66067227,-0.001002003,-0.000851596,0.00072906236,0.99681634,0.0035311396,-0.0010002203,0.07964874,1.0,0.0,0.0,0.0,0
66099248,-0.00024417043,0.0004189033,-0.0015000043,0.99681634,0.0035231363,-0.001016469,0.079647526,1.0,0.0,0.0,0.0,0
66131231,-0.00045354664,-0.001595258,-0.0023976257,0.9968168,0.0035227626,-0.0010457283,0.07964219,1.0,0.0,0.0,0.0,0
66163217,-0.00034637563,-0.0013849563,-0.0036761567,0.99681693,0.00351596,-0.0010607,0.07964064,1.0,0.0,0.0,0.0,0
66195209,-0.0005366313,-0.0015621707,-0.0046060644,0.99681675,0.0035217013,-0.0010678603,0.07964203,1.0,0.0,0.0,0.0,0
66227257,0.0016203863,-0.0003613066,-0.0038357766,0.9968174,0.0035230748,-0.0010680065,0.07963348,1.0,0.0,0.0,0.0,0
66259236,0.00042733457,-0.00122218,-0.0034082553,0.996818,0.0035337252,-0.0010730162,0.07962633,1.0,0.0,0.0,0.0,0
66291199,0.0008372632,0.00071570603,-7.9255144e-05,0.9968177,0.0035434829,-0.0010702887,0.079628915,1.0,0.0,0.0,0.0,0
66319287,-0.0003228942,-0.0014805384,-0.0049941605,0.99681824,0.0035414537,-0.0010750447,0.07962304,1.0,0.0,0.0,0.0,0
66351209,-8.124858e-06,-0.0004921218,-0.002728464,0.9968191,0.003540797,-0.0010699717,0.07961287,1.0,0.0,0.0,0.0,0
66383211,0.0012667826,-0.0015152029,-0.003630538,0.9968195,0.0035496433,-0.001067836,0.07960742,1.0,0.0,0.0,0.0,0
66415238,0.00021716999,0.0009291619,-0.0039680144,0.99681926,0.0035555111,-0.0010595375,0.07960883,1.0,0.0,0.0,0.0,0
66447318,-0.00033538835,-0.0003495689,-0.0011365862,0.99681973,0.0035574706,-0.0010574661,0.07960352,1.0,0.0,0.0,0.0,0
66479213,0.000748958,0.00020405464,0.0025530485,0.99681956,0.0035620825,-0.0010472105,0.07960555,1.0,0.0,0.0,0.0,0
66511978,0.0011543017,0.0005284082,0.0057664756,0.9968196,0.0035666632,-0.0010440774,0.07960414,1.0,0.0,0.0,0.0,0
66539980,0.0008334047,-0.00090017566,-0.0034961072,0.9968208,0.0035641869,-0.0010400958,0.07958936,1.0,0.0,0.0,0.0,0
66571973,0.00082994765,0.00017647445,-0.0013728023,0.9968214,0.0035724,-0.001029211,0.07958268,1.0,0.0,0.0,0.0,0
66604028,0.0006035855,0.000546166,0.0017044923,0.9968212,0.0035684423,-0.0010134582,0.07958477,1.0,0.0,0.0,0.0,0
66635966,0.00038687466,-0.0005004101,0.0052084834,0.996822,0.0035663305,-0.0010009006,0.079576135,1.0,0.0,0.0,0.0,0
66667967,0.0011284449,0.0011033948,0.006574263,0.9968231,0.0035698223,-0.000984122,0.079561606,1.0,0.0,0.0,0.0,0
66700025,0.0002805111,0.00046758843,0.00743189,0.99682397,0.0035625566,-0.0009645086,0.07955124,1.0,0.0,0.0,0.0,0
66732062,-0.001739122,0.00099308,0.006472165,0.9968246,0.0035579097,-0.00094909244,0.079544425,1.0,0.0,0.0,0.0,0
66763995,-0.00067359046,0.00034611416,0.0047748894,0.9968251,0.0035461795,-0.0009443729,0.079537876,1.0,0.0,0.0,0.0,0
66791969,0.0011102604,0.00026015635,0.0034949426,0.9968254,0.0035370733,-0.00093033287,0.07953405,1.0,0.0,0.0,0.0,0
66823970,0.0005744635,0.0003816348,0.0063576736,0.99682623,0.0035276243,-0.00091049867,0.079525396,1.0,0.0,0.0,0.0,0
66856019,0.00014884723,0.000380032,0.006252967,0.9968265,0.0035133096,-0.00089803134,0.07952135,1.0,0.0,0.0,0.0,0
66887990,0.0003542225,0.000912511,0.006249875,0.9968267,0.0035117497,-0.0008759995,0.07952043,1.0,0.0,0.0,0.0,0
66919961,-0.00091214455,-0.00037056743,0.004982341,0.9968269,0.003501124,-0.0008654122,0.07951882,1.0,0.0,0.0,0.0,0
66951979,-0.0006964267,-6.504357e-05,0.002531254,0.9968275,0.0034899674,-0.0008576646,0.07951191,1.0,0.0,0.0,0.0,0
66983993,0.00015418883,-0.0015712723,0.0009138208,0.9968278,0.0034920843,-0.0008466784,0.07950826,1.0,0.0,0.0,0.0,0
67016021,0.00031759497,-0.00032887212,-0.0010929946,0.99682784,0.003494475,-0.00084098143,0.07950651,1.0,0.0,0.0,0.0,0
67044025,9.287521e-05,0.0003429018,0.0055937013,0.9968268,0.00350178,-0.0008443051,0.0795192,1.0,0.0,0.0,0.0,0
67075969,0.0011583059,-0.0003004803,0.0043230574,0.9968278,0.0035232345,-0.00085992785,0.07950612,1.0,0.0,0.0,0.0,0
67107983,0.0008392753,-0.0015784462,0.0039071804,0.9968274,0.003538659,-0.0008750389,0.07950969,1.0,0.0,0.0,0.0,0
67139972,-0.00022036489,-0.0014907841,0.00048821035,0.99682736,0.003558514,-0.0008837835,0.07951031,1.0,0.0,0.0,0.0,0
67171989,-0.00043036696,-0.00064751366,-0.0014231259,0.9968276,0.0035739872,-0.00089738163,0.07950537,1.0,0.0,0.0,0.0,0
67203984,-0.00021632342,-0.0010822131,-0.0042934758,0.9968281,0.00357965,-0.000915173,0.079499066,1.0,0.0,0.0,0.0,0
67235966,0.0003176015,-0.0006590425,-0.0047417926,0.99682885,0.0035934197,-0.00092884945,0.07948968,1.0,0.0,0.0,0.0,0
67267993,-0.0010659369,-0.0005554124,-0.0049667303,0.9968294,0.003603381,-0.00094040734,0.07948184,1.0,0.0,0.0,0.0,0
67295971,-0.00022201566,-0.00020846305,3.8865866e-05,0.9968288,0.0036112876,-0.00095226703,0.0794895,1.0,0.0,0.0,0.0,0
67327974,-0.0013898376,-0.0014966929,-0.0023090972,0.99682933,0.0036162331,-0.0009660738,0.079481035,1.0,0.0,0.0,0.0,0
67359998,-0.00032494403,-0.0017143956,-0.0033686878,0.9968307,0.0036236765,-0.0009794555,0.079464234,1.0,0.0,0.0,0.0,0
67391974,0.0015925863,-0.0017204487,-0.0045382176,0.9968323,0.003640842,-0.0009819836,0.07944393,1.0,0.0,0.0,0.0,0
67424005,0.0011466406,-0.00043886108,-0.00584241,0.996833,0.0036459644,-0.0009900477,0.07943404,1.0,0.0,0.0,0.0,0
67456016,0.0003989148,-0.00074825436,-0.004143991,0.9968347,0.0036523545,-0.0009966828,0.07941236,1.0,0.0,0.0,0.0,0
67484798,-0.0015292596,-0.0010735164,-0.003180731,0.9968354,0.0036458932,-0.0009965111,0.07940316,1.0,0.0,0.0,0.0,0
67516770,-0.00045967568,-0.0011874321,-0.0052282303,0.99683744,0.0036468124,-0.0009941299,0.079378136,1.0,0.0,0.0,0.0,0
67548803,0.00029833242,-0.00096516847,-0.0042833267,0.9968392,0.003650662,-0.0009866687,0.07935476,1.0,0.0,0.0,0.0,0
67580776,-8.792151e-06,-0.00017119315,-0.0031413366,0.9968407,0.0036458976,-0.0009809164,0.079336956,1.0,0.0,0.0,0.0,0
67612792,0.0012735431,-0.00090624206,-0.001107759,0.99684155,0.003650217,-0.00096804684,0.07932645,1.0,0.0,0.0,0.0,0
67644812,-0.001716082,8.311146e-05,0.0032283862,0.99684256,0.003646021,-0.00094928924,0.07931508,1.0,0.0,0.0,0.0,0
67676766,-0.00011738017,0.00039611524,0.0045316275,0.99684334,0.0036362528,-0.0009313757,0.07930477,1.0,0.0,0.0,0.0,0
67708795,0.0009516217,0.0011409601,0.0049697724,0.99684346,0.003647863,-0.00090327073,0.07930384,1.0,0.0,0.0,0.0,0
67736760,0.0011721551,3.4804223e-05,-0.0031301589,0.9968443,0.0036541547,-0.0008872441,0.07929355,1.0,0.0,0.0,0.0,0
67768814,0.0013858164,0.00015584077,-0.0014693758,0.9968447,0.0036608086,-0.0008735721,0.079286836,1.0,0.0,0.0,0.0,0
67800778,-5.3688884e-05,-5.123904e-05,0.0009985882,0.9968459,0.0036612973,-0.00086893985,0.07927289,1.0,0.0,0.0,0.0,0
67832817,6.245216e-05,0.00080788997,0.0035486144,0.9968467,0.003641445,-0.00086083997,0.07926362,1.0,0.0,0.0,0.0,0
67864851,-0.0009066183,-0.0008849967,0.0051695383,0.99684787,0.0036173475,-0.0008602626,0.079249986,1.0,0.0,0.0,0.0,0
67896763,-0.0006984968,0.0001822852,0.005606655,0.9968485,0.003604563,-0.0008560353,0.0792416,1.0,0.0,0.0,0.0,0
67928794,-0.00027129054,-0.0001332208,0.0064854193,0.9968486,0.0035944975,-0.0008569538,0.07924235,1.0,0.0,0.0,0.0,0
67960815,-0.0009049296,-0.00013700663,0.0035109548,0.996849,0.0035806124,-0.00085686357,0.07923702,1.0,0.0,0.0,0.0,0
67988770,0.002264346,0.00092439726,0.00342245,0.99685013,0.0035708777,-0.00085059425,0.07922415,1.0,0.0,0.0,0.0,0
68020803,-0.0010444247,0.0015893717,0.0069598574,0.99684995,0.0035451367,-0.0008323477,0.079226635,1.0,0.0,0.0,0.0,0
68052760,-0.0008279099,0.000619001,0.008161456,0.9968497,0.0035148605,-0.00083604484,0.07923143,1.0,0.0,0.0,0.0,0
68084837,3.1551812e-05,0.0001926301,0.005924796,0.99684966,0.0034944278,-0.0008326625,0.07923262,1.0,0.0,0.0,0.0,0
68116798,-0.00029470725,-0.0007760895,0.0037103076,0.99685025,0.003480452,-0.00083754363,0.07922692,1.0,0.0,0.0,0.0,0
68148794,0.0005521318,-0.0006673841,0.0029651162,0.99685127,0.0034661274,-0.0008453758,0.079214245,1.0,0.0,0.0,0.0,0
68180820,4.2503234e-05,-0.000128594,-0.00044903165,0.99685204,0.003452232,-0.0008423451,0.079205245,1.0,0.0,0.0,0.0,0
68212878,-0.0020825886,-0.0010958256,-0.0031344625,0.9968522,0.00344196,-0.000834175,0.07920267,1.0,0.0,0.0,0.0,0
68240776,-0.0002808934,0.0019268058,0.0068527665,0.9968519,0.0034371475,-0.0008188424,0.07920853,1.0,0.0,0.0,0.0,0
68272778,-0.0011332429,0.0011747645,0.005914801,0.9968521,0.0034301502,-0.0008118768,0.07920545,1.0,0.0,0.0,0.0,0
68304803,-0.0007067465,9.597326e-05,0.002090047,0.99685323,0.0034301565,-0.0008076945,0.07919106,1.0,0.0,0.0,0.0,0
68336770,-0.0012327521,-0.00055620354,0.001219608,0.996854,0.0034293623,-0.0008039946,0.079181425,1.0,0.0,0.0,0.0,0
68368795,-0.0012254894,-0.0012181622,-0.0034671319,0.9968545,0.00343396,-0.00080181146,0.0791751,1.0,0.0,0.0,0.0,0
68400773,-0.000116755255,-0.0008990774,-0.004015869,0.9968554,0.003440385,-0.0007930579,0.07916302,1.0,0.0,0.0,0.0,0
68432777,0.0010571256,-0.0014495181,-0.0042467336,0.99685556,0.0034619893,-0.00078748376,0.07916113,1.0,0.0,0.0,0.0,0
68464850,-1.6086735e-05,-0.0016494028,-0.004912174,0.9968567,0.0034844526,-0.0007871287,0.07914503,1.0,0.0,0.0,0.0,0
68492762,-1.2263656e-05,0.00073744054,-0.0003927647,0.9968568,0.0035048868,-0.000778944,0.07914266,1.0,0.0,0.0,0.0,0
68524852,-0.0006549973,-0.0010886986,-0.0018827063,0.9968576,0.0035301,-0.0007767981,0.07913264,1.0,0.0,0.0,0.0,0
68556764,0.00019011181,-0.0009950094,-0.00317484,0.99685764,0.003551687,-0.00076661404,0.07912986,1.0,0.0,0.0,0.0,0
68588808,0.0008221925,-0.0008957819,-0.0044575306,0.9968582,0.0035810452,-0.0007532739,0.0791229,1.0,0.0,0.0,0.0,0
68620865,-0.0008782267,-0.0007919362,-0.0053346544,0.9968589,0.003596227,-0.0007496993,0.07911307,1.0,0.0,0.0,0.0,0
68652764,0.00017550588,-0.0012093671,-0.0028002185,0.9968591,0.003597569,-0.0007451236,0.07911159,1.0,0.0,0.0,0.0,0
68685575,7.625669e-05,0.00042696157,0.001004077,0.9968594,0.0036037536,-0.0007369799,0.079107165,1.0,0.0,0.0,0.0,0
68713641,-0.00024318695,-0.0012016916,-0.004678413,0.9968595,0.0035936495,-0.0007357658,0.07910697,1.0,0.0,0.0,0.0,0
68745594,-0.00024269521,-0.0015248882,-0.004253267,0.9968596,0.003604122,-0.0007318976,0.079105124,1.0,0.0,0.0,0.0,0
68777567,-0.00055879727,-3.6216108e-05,-0.004170633,0.99685884,0.003604894,-0.0007181502,0.07911399,1.0,0.0,0.0,0.0,0
68809555,-0.00030137412,-0.00019116071,-0.0013276282,0.99685794,0.0035864764,-0.00070275564,0.07912639,1.0,0.0,0.0,0.0,0
68841626,-0.00029914314,0.0015222017,0.00015116292,0.9968571,0.0035593437,-0.0006785327,0.07913824,1.0,0.0,0.0,0.0,0
68873580,0.0005459669,-0.00035573007,0.004526767,0.99685675,0.0035414726,-0.000650444,0.07914353,1.0,0.0,0.0,0.0,0
68905580,0.0005421997,-0.00088558416,0.0065565384,0.99685663,0.003515802,-0.0006346702,0.0791468,1.0,0.0,0.0,0.0,0
68937586,0.0015120171,0.00017349748,0.0054044067,0.99685645,0.0034997773,-0.0006101945,0.0791507,1.0,0.0,0.0,0.0,0
68965640,0.00077212416,0.0006506387,-0.0017712789,0.99685764,0.003485197,-0.00059443567,0.07913438,1.0,0.0,0.0,0.0,0
68997568,-0.000837588,-0.00018865312,-0.0002770151,0.996859,0.0034496263,-0.00057838584,0.07911994,1.0,0.0,0.0,0.0,0
69029570,0.0005365666,0.00026954245,0.002896406,0.9968601,0.0034324543,-0.0005614837,0.07910692,1.0,0.0,0.0,0.0,0
69061556,0.0006379327,-0.00077806716,0.0061025186,0.99686116,0.0034066031,-0.0005495293,0.07909493,1.0,0.0,0.0,0.0,0
69093631,-0.00084710657,0.00059746695,0.006538219,0.9968622,0.0033896118,-0.0005345606,0.07908323,1.0,0.0,0.0,0.0,0
69125610,0.0005347249,0.0006913957,0.004322416,0.99686295,0.0033711267,-0.00053523266,0.07907396,1.0,0.0,0.0,0.0,0
69157580,-0.0013798373,-5.180179e-05,0.003491266,0.996864,0.003356854,-0.0005318483,0.079060964,1.0,0.0,0.0,0.0,0
69189574,-0.00039920397,0.0011975633,0.0013668111,0.99686503,0.0033475035,-0.0005254851,0.079048514,1.0,0.0,0.0,0.0,0
69217558,0.00076468615,-0.0011125994,0.005544713,0.9968652,0.0033416646,-0.0005326233,0.07904692,1.0,0.0,0.0,0.0,0
69249593,0.00034805387,0.00036016223,0.005883407,0.9968655,0.0033467088,-0.00054399256,0.079042025,1.0,0.0,0.0,0.0,0
69281570,0.00076543726,-0.0012353512,0.0049614706,0.9968666,0.0033511762,-0.0005565007,0.079028524,1.0,0.0,0.0,0.0,0
69313613,0.0002401094,-6.664381e-05,0.0046501346,0.9968678,0.003358065,-0.000566187,0.0790129,1.0,0.0,0.0,0.0,0
69345629,-0.001146704,-0.0006089534,0.002818623,0.99686825,0.0033597187,-0.0005777877,0.07900703,1.0,0.0,0.0,0.0,0
69377588,0.0006666742,2.7145259e-05,-0.0005514687,0.9968679,0.003366195,-0.00059037126,0.07901119,1.0,0.0,0.0,0.0,0
69409620,3.915094e-05,-0.0013967268,-0.0023396339,0.9968671,0.003382075,-0.0006243852,0.0790198,1.0,0.0,0.0,0.0,0
69441570,-0.00027223863,-0.00012817583,-0.003954179,0.9968662,0.003389449,-0.0006495901,0.07903075,1.0,0.0,0.0,0.0,0
69469613,-0.0015507347,0.0005497169,0.0047548977,0.99686533,0.0033901373,-0.00066303427,0.0790425,1.0,0.0,0.0,0.0,0
69501573,4.3670647e-05,0.0015978238,0.002831548,0.99686575,0.003401043,-0.00067840266,0.079035744,1.0,0.0,0.0,0.0,0
69533676,-0.00037207827,-0.0015909844,0.0010738894,0.9968654,0.0034151832,-0.0006988086,0.07903945,1.0,0.0,0.0,0.0,0
69565564,-0.0032543035,-0.0014088296,-0.0027110977,0.99686664,0.0034199231,-0.00072574697,0.07902312,1.0,0.0,0.0,0.0,0
69597536,-0.0013389171,-0.0016314297,-0.0043943105,0.996867,0.0034220424,-0.0007542043,0.079018965,1.0,0.0,0.0,0.0,0
69629587,0.00047012884,-0.0004611872,-0.004641973,0.9968677,0.0034364846,-0.00077422947,0.07900915,1.0,0.0,0.0,0.0,0
69661580,-0.0015533266,-0.00015405356,-0.0028527663,0.99686784,0.0034360345,-0.0007788246,0.079007834,1.0,0.0,0.0,0.0,0
69693556,0.0004734397,-0.0004738993,-0.0029555922,0.99686825,0.003444094,-0.0007847294,0.0790019,1.0,0.0,0.0,0.0,0
69721644,0.00058212597,-0.001810991,-0.0006635502,0.99686694,0.0034500544,-0.0008001267,0.07901766,1.0,0.0,0.0,0.0,0
69753573,-0.0008151042,-0.0016213211,-0.0033280195,0.99686646,0.0034500186,-0.0008165672,0.07902413,1.0,0.0,0.0,0.0,0
69785635,3.6437996e-05,-0.00088941865,-0.006752476,0.99686587,0.003448805,-0.00082869455,0.07903054,1.0,0.0,0.0,0.0,0
69817562,0.00045875506,-0.0009462929,-0.005382627,0.9968667,0.003452673,-0.00085001916,0.07902081,1.0,0.0,0.0,0.0,0
69849556,-0.00060150307,-0.0015700276,-0.004325943,0.99686706,0.0034514035,-0.00087401236,0.07901479,1.0,0.0,0.0,0.0,0
69881616,-7.348647e-05,-0.000491695,-0.0016879733,0.99686694,0.0034516067,-0.0008951687,0.079016574,1.0,0.0,0.0,0.0,0
69913643,-0.0004883497,-0.0006997918,0.00017825078,0.9968666,0.0034494528,-0.00092086097,0.07902143,1.0,0.0,0.0,0.0,0
69945562,3.0730385e-05,0.0012484265,0.0040050317,0.99686664,0.0034489369,-0.0009344351,0.079019666,1.0,0.0,0.0,0.0,0
69973630,0.000715042,-0.0009372907,-0.0044194814,0.99686664,0.003450757,-0.00094655436,0.079020165,1.0,0.0,0.0,0.0,0
70006415,-0.00024619885,0.00023051188,-0.0027473131,0.99686617,0.0034656418,-0.0009691761,0.079024024,1.0,0.0,0.0,0.0,0
70038378,6.6428445e-05,-6.2319916e-05,0.0005888715,0.99686533,0.0034751117,-0.000991763,0.079034,1.0,0.0,0.0,0.0,0
70070354,0.00060363486,-5.8296835e-05,0.00200919,0.99686486,0.0034929947,-0.0010083325,0.079039045,1.0,0.0,0.0,0.0,0
70102373,0.0003840588,0.0003962675,0.0063668475,0.9968637,0.003503349,-0.001021842,0.07905336,1.0,0.0,0.0,0.0,0
70134456,-0.0010110491,0.0010411784,0.005099312,0.99686277,0.0035171704,-0.0010314112,0.079064764,1.0,0.0,0.0,0.0,0
70162379,0.00016629603,2.8070062e-05,-0.0021128121,0.99686354,0.0035307896,-0.0010318031,0.079054065,1.0,0.0,0.0,0.0,0
70194394,-0.0003415197,0.00046107592,-0.0005374092,0.99686325,0.0035453977,-0.0010431467,0.07905814,1.0,0.0,0.0,0.0,0
70226361,-0.0004453156,0.0001531567,0.0015815763,0.9968623,0.00355401,-0.001052264,0.079068795,1.0,0.0,0.0,0.0,0
70258367,0.0008306117,-0.0012031768,0.0023325246,0.99686193,0.0035794731,-0.0010627178,0.07907182,1.0,0.0,0.0,0.0,0
70290438,-0.00077084685,-0.0008719773,0.0047708806,0.996862,0.0035922355,-0.0010652404,0.07907056,1.0,0.0,0.0,0.0,0
70322440,-0.00024242187,0.0007395765,0.0074113947,0.9968622,0.0036049318,-0.0010696098,0.07906867,1.0,0.0,0.0,0.0,0
70354354,0.00041443855,0.00039508054,0.0034043696,0.9968627,0.0036250884,-0.0010627998,0.07905976,1.0,0.0,0.0,0.0,0
70386404,-0.0015009807,-0.000567148,0.0028882814,0.9968637,0.003638552,-0.0010671533,0.079046875,1.0,0.0,0.0,0.0,0
70414460,-0.00011996785,-0.00013807183,0.0035918392,0.9968645,0.0036536835,-0.0010671237,0.079037234,1.0,0.0,0.0,0.0,0
70446477,-0.0011833026,0.0019977964,0.0049374923,0.9968649,0.0036698962,-0.0010633104,0.07903038,1.0,0.0,0.0,0.0,0
70478367,-0.00011898717,0.00094009633,0.0061324937,0.9968653,0.0036721816,-0.0010640409,0.07902605,1.0,0.0,0.0,0.0,0
70510429,-0.00013440521,0.0004126851,0.006664767,0.9968655,0.0036770504,-0.0010670145,0.079023294,1.0,0.0,0.0,0.0,0
70542393,0.0013635289,0.0017840615,0.004546447,0.9968667,0.0036978666,-0.0010584884,0.07900668,1.0,0.0,0.0,0.0,0
70574402,-0.00085703586,-0.00088760443,0.0022364468,0.99686754,0.0037061397,-0.0010533403,0.078996025,1.0,0.0,0.0,0.0,0
70606361,-0.00013439637,0.00027144118,0.00044803612,0.99686843,0.003698965,-0.0010567796,0.078983665,1.0,0.0,0.0,0.0,0
70638408,-0.00034759426,-0.0013198247,-0.001366391,0.9968688,0.0036967592,-0.0010466061,0.07898117,1.0,0.0,0.0,0.0,0
70666466,-0.0009833316,-1.1869706e-05,0.005483704,0.9968693,0.003691542,-0.0010519305,0.07897437,1.0,0.0,0.0,0.0,0
70698400,0.0008209455,-0.00075774547,0.0052884575,0.996871,0.0036877873,-0.0010522509,0.078953855,1.0,0.0,0.0,0.0,0
70730387,-0.0008754546,-0.0002482452,0.0014593432,0.9968725,0.0036929026,-0.0010468747,0.07893367,1.0,0.0,0.0,0.0,0
70762397,0.00040900335,-0.0006789528,0.00043646048,0.99687374,0.0036896393,-0.0010447366,0.078918375,1.0,0.0,0.0,0.0,0
70794400,-0.0025723598,-0.0006669797,-0.0016980608,0.9968758,0.0036828306,-0.0010370286,0.07889192,1.0,0.0,0.0,0.0,0
70826482,-2.1079555e-05,-0.00047184643,-0.003874809,0.99687755,0.003677453,-0.0010294138,0.07887109,1.0,0.0,0.0,0.0,0
70858346,-0.001297575,-0.0016386141,-0.004799663,0.9968793,0.0036532227,-0.0010168056,0.07885153,1.0,0.0,0.0,0.0,0
70890369,0.0005069035,-0.0002595156,-0.004182781,0.9968802,0.0036497114,-0.0010098362,0.07883969,1.0,0.0,0.0,0.0,0
70918429,0.00029030629,0.00040002936,0.00082099513,0.9968809,0.00365103,-0.0009972355,0.078830354,1.0,0.0,0.0,0.0,0
70950407,-0.0022629863,-0.0020528832,-0.0018413399,0.9968825,0.0036431658,-0.0009942607,0.07880943,1.0,0.0,0.0,0.0,0
70982393,-0.00045843842,-0.0017438552,-0.0051967055,0.99688303,0.0036356468,-0.000988037,0.07880419,1.0,0.0,0.0,0.0,0
71014425,-0.0002509365,-0.0008876482,-0.005233941,0.9968839,0.0036179624,-0.0009788505,0.07879374,1.0,0.0,0.0,0.0,0
71046444,7.4625015e-05,-0.000574538,-0.005973775,0.9968846,0.0036174075,-0.00096353644,0.07878532,1.0,0.0,0.0,0.0,0
71078369,-0.00025254488,5.8865407e-05,-0.004419662,0.99688566,0.0035951457,-0.0009551379,0.07877347,1.0,0.0,0.0,0.0,0
71110354,-0.0012089943,0.0005988099,-0.0017774177,0.99688625,0.0035908858,-0.000952332,0.0787654,1.0,0.0,0.0,0.0,0
71139215,-3.7350692e-05,-0.0010279787,-0.006481367,0.99688643,0.0035836669,-0.0009450538,0.07876366,1.0,0.0,0.0,0.0,0
71171274,0.0007070247,-0.0013075531,-0.0035683932,0.9968868,0.003568935,-0.0009385143,0.078759454,1.0,0.0,0.0,0.0,0
71203230,0.00067639956,0.0016130503,-0.0030939574,0.99688727,0.003549474,-0.00091291196,0.07875609,1.0,0.0,0.0,0.0,0
71235188,0.00077708345,0.0010885901,-0.0028620355,0.99688846,0.0035306439,-0.000885212,0.078741565,1.0,0.0,0.0,0.0,0
71267261,-0.00039371848,0.00013038074,0.00047503275,0.9968889,0.0035050835,-0.00086841633,0.078737445,1.0,0.0,0.0,0.0,0
71299297,-0.00028996263,0.0007651616,0.0021455102,0.99688923,0.0034835206,-0.00085515104,0.07873412,1.0,0.0,0.0,0.0,0
71331181,0.00024812948,0.001837373,0.0056430274,0.99688923,0.0034637307,-0.0008332602,0.078736104,1.0,0.0,0.0,0.0,0
71363261,-0.000505568,0.0002528301,0.0068748253,0.9968894,0.0034479601,-0.0008155056,0.07873477,1.0,0.0,0.0,0.0,0
71391205,-0.00082492037,-6.620167e-05,-0.001951583,0.9968907,0.003438221,-0.0007995589,0.07871876,1.0,0.0,0.0,0.0,0
71423217,0.0015304205,0.0012295613,-0.00012651726,0.9968914,0.0034335814,-0.000776292,0.078709304,1.0,0.0,0.0,0.0,0
71455205,0.00013039401,0.0009060276,0.0025545193,0.99689233,0.0034295884,-0.0007524156,0.07869861,1.0,0.0,0.0,0.0,0
71487192,1.5924219e-05,0.0001683156,0.0038300543,0.99689364,0.0034247744,-0.0007314494,0.07868214,1.0,0.0,0.0,0.0,0
71519272,-0.00060908124,4.583178e-05,0.005674752,0.99689484,0.0034190537,-0.00071542495,0.07866637,1.0,0.0,0.0,0.0,0
71551226,-0.00042921025,0.0015675564,0.005753927,0.99689585,0.0034168058,-0.00069515023,0.078654304,1.0,0.0,0.0,0.0,0
71583232,0.00020277034,0.0013268747,0.004098188,0.99689776,0.0034111943,-0.0006723814,0.07863163,1.0,0.0,0.0,0.0,0
71611314,0.00030861422,0.00024344656,0.0015163898,0.9968994,0.0034073996,-0.00065398845,0.078610554,1.0,0.0,0.0,0.0,0
71643185,-0.00031834142,-4.63787e-05,0.0041180155,0.99690104,0.0033898444,-0.0006496713,0.078591265,1.0,0.0,0.0,0.0,0
71675200,-0.000842436,0.0007886025,0.0038682104,0.9969028,0.003375871,-0.00063629803,0.07856799,1.0,0.0,0.0,0.0,0
71707287,-0.0015184656,0.0009150398,0.0056320596,0.9969043,0.0033522309,-0.0006223039,0.078550585,1.0,0.0,0.0,0.0,0
71739256,-7.052906e-06,6.692298e-05,0.006057426,0.9969052,0.003345803,-0.0006159692,0.07853902,1.0,0.0,0.0,0.0,0
71771225,0.0015938804,0.0013282266,0.002678329,0.99690676,0.0033414692,-0.0006090799,0.07852101,1.0,0.0,0.0,0.0,0
71803241,0.0002669217,-0.0005514384,0.0009468262,0.9969078,0.0033563944,-0.0006228886,0.07850599,1.0,0.0,0.0,0.0,0
71835194,-0.00059365854,-0.000876775,-0.0028801889,0.9969093,0.0033740345,-0.0006416578,0.07848676,1.0,0.0,0.0,0.0,0
71867177,0.0006050314,-0.001419042,-0.0038181508,0.9969105,0.0033922398,-0.00067036174,0.07846929,1.0,0.0,0.0,0.0,0
71895232,0.0018457724,0.0016308031,0.005280089,0.9969101,0.0034173857,-0.00068569416,0.07847334,1.0,0.0,0.0,0.0,0
71927294,-0.00019120146,-8.439971e-05,0.0049119038,0.9969106,0.0034362592,-0.0007027276,0.078467146,1.0,0.0,0.0,0.0,0
71959315,-0.00016831327,-0.0009478119,0.0015994905,0.99691164,0.0034534265,-0.00073240494,0.07845194,1.0,0.0,0.0,0.0,0
71991215,-0.0008012161,0.0007376319,-0.0016509215,0.99691284,0.003470892,-0.00074031256,0.078436054,1.0,0.0,0.0,0.0,0
72023236,-0.00049553625,-0.0013952402,-0.004879756,0.9969138,0.0034844968,-0.00075758545,0.078423016,1.0,0.0,0.0,0.0,0
72055227,-4.8232265e-05,-0.001292232,-0.004752134,0.9969147,0.0035027373,-0.0007591725,0.07841162,1.0,0.0,0.0,0.0,0
72087214,0.0007038801,-0.00011050212,-0.0060329475,0.9969152,0.0035260357,-0.00076354475,0.07840274,1.0,0.0,0.0,0.0,0
72115224,-0.00018026354,0.00091014686,0.0034038392,0.99691486,0.003537875,-0.00076753285,0.078407645,1.0,0.0,0.0,0.0,0
72147231,-0.00079787034,-0.0009415804,5.7442783e-05,0.99691564,0.0035407543,-0.0007723377,0.07839792,1.0,0.0,0.0,0.0,0
72179277,0.001002756,-0.0003097332,-0.0024751993,0.99691635,0.003550711,-0.00076900766,0.07838784,1.0,0.0,0.0,0.0,0
72211237,-0.00026358757,-0.00039692177,-0.0027741634,0.9969165,0.0035603917,-0.0007654937,0.078385085,1.0,0.0,0.0,0.0,0
72243207,-0.00025199354,-0.00059245154,-0.0034881388,0.99691653,0.0035640204,-0.00075545686,0.07838537,1.0,0.0,0.0,0.0,0
72275200,0.00026114052,-0.0012618112,-0.004312538,0.99691767,0.0035735578,-0.0007405004,0.07837102,1.0,0.0,0.0,0.0,0
72307989,5.1102135e-05,0.00078940927,0.00047091895,0.9969184,0.0035866962,-0.0007272306,0.07836073,1.0,0.0,0.0,0.0,0
72335964,-0.0011138567,-0.0015726767,-0.0040826714,0.9969188,0.0035938632,-0.0007198235,0.07835542,1.0,0.0,0.0,0.0,0
72367995,0.00037395954,-0.0015571914,-0.0052592843,0.9969194,0.003599094,-0.0007082764,0.078348085,1.0,0.0,0.0,0.0,0
72399982,0.00016093999,-0.0010235312,-0.0046322145,0.99691993,0.0036015948,-0.0006799696,0.078340836,1.0,0.0,0.0,0.0,0
72432065,0.001011787,-0.0008092269,-0.0043147807,0.99692076,0.0036076326,-0.0006547455,0.078330114,1.0,0.0,0.0,0.0,0
72463996,0.00079973787,-0.00048229913,-0.0019884314,0.996922,0.003614661,-0.000640127,0.07831469,1.0,0.0,0.0,0.0,0
72495958,-0.0010140284,0.00070688035,0.0014028124,0.9969229,0.003620287,-0.0006256707,0.07830189,1.0,0.0,0.0,0.0,0
72527982,-0.00080755213,0.0006147155,0.004168558,0.9969238,0.0036159195,-0.00061521237,0.0782915,1.0,0.0,0.0,0.0,0
72559999,-0.0008070101,-0.0002329566,0.00460373,0.9969253,0.0036064556,-0.00060069124,0.07827313,1.0,0.0,0.0,0.0,0
72587989,-0.0005032676,-0.00027076574,-0.003375436,0.9969277,0.003609791,-0.00059141556,0.07824228,1.0,0.0,0.0,0.0,0
72619995,0.00034644082,0.00026879366,-0.002113982,0.9969295,0.0035922297,-0.0005773147,0.07821978,1.0,0.0,0.0,0.0,0
72651959,0.00023375824,-0.0004569257,0.0012858937,0.9969305,0.003575547,-0.0005715578,0.078208484,1.0,0.0,0.0,0.0,0
72683964,-0.00019440847,0.00040552998,0.0034120376,0.9969313,0.003560354,-0.00056814007,0.07819947,1.0,0.0,0.0,0.0,0
72716053,1.4816411e-05,0.0011642782,0.006064821,0.996932,0.0035457567,-0.0005542578,0.07819039,1.0,0.0,0.0,0.0,0
72747990,-0.0010490485,0.0010560595,0.0057436572,0.9969331,0.0035182177,-0.00054051285,0.07817795,1.0,0.0,0.0,0.0,0
72779970,-0.00030282,-1.808023e-05,0.006072317,0.9969346,0.0035013226,-0.0005349792,0.07815942,1.0,0.0,0.0,0.0,0
72811983,0.0012973626,0.0016747523,0.0036196199,0.9969363,0.003485818,-0.0005347412,0.07813922,1.0,0.0,0.0,0.0,0
72839984,0.0015097111,0.0003938987,0.0030818684,0.9969377,0.003489148,-0.0005450938,0.07812079,1.0,0.0,0.0,0.0,0
72871988,0.0009735911,0.00040940824,0.006061334,0.9969384,0.0034870254,-0.00055347855,0.07811243,1.0,0.0,0.0,0.0,0
72903963,0.0003377213,0.0013611896,0.0047752457,0.9969395,0.0034777487,-0.0005443792,0.07809896,1.0,0.0,0.0,0.0,0
72935967,0.0013999077,-0.0005474824,0.0063814125,0.99694026,0.0034816526,-0.0005536155,0.07808848,1.0,0.0,0.0,0.0,0
72968016,-0.00072425674,-0.00066732964,0.0036253915,0.99694186,0.003476041,-0.00056392123,0.07806842,1.0,0.0,0.0,0.0,0
72999972,-0.00038963696,6.085378e-05,0.002242329,0.9969426,0.0034730104,-0.0005771627,0.07805867,1.0,0.0,0.0,0.0,0
73031999,-0.0009240741,-6.0052378e-05,0.0004239272,0.996943,0.003470066,-0.0005914216,0.07805274,1.0,0.0,0.0,0.0,0
73064063,-0.00048445072,0.00013704412,-0.0022593366,0.99694335,0.003473958,-0.00060316705,0.078048676,1.0,0.0,0.0,0.0,0
73091956,-0.00018332805,0.0015698485,0.0061661606,0.99694204,0.0034758425,-0.0006018557,0.07806505,1.0,0.0,0.0,0.0,0
73123970,-0.00028839568,0.002625058,0.004355212,0.99694157,0.003478665,-0.0005980594,0.078071885,1.0,0.0,0.0,0.0,0
73156002,-0.000392959,0.0010177742,0.0020292155,0.99694157,0.0034744781,-0.0006138823,0.07807142,1.0,0.0,0.0,0.0,0
73188013,-0.0005017705,-0.0010031231,-0.00040686163,0.9969419,0.0034816673,-0.0006275107,0.07806607,1.0,0.0,0.0,0.0,0
73220806,-0.00028295908,-0.00018601259,-0.0059590843,0.99694234,0.0034904324,-0.00062913593,0.07806039,1.0,0.0,0.0,0.0,0
73252800,0.0010986682,-0.0012345468,-0.0048978454,0.9969424,0.003489472,-0.000632324,0.078060195,1.0,0.0,0.0,0.0,0
73280789,-0.00051610824,0.00093276845,0.0040641613,0.9969409,0.0034910697,-0.0006220977,0.07807921,1.0,0.0,0.0,0.0,0
73312810,-0.002532169,0.00049389154,0.00045345424,0.9969406,0.003488239,-0.000618871,0.07808354,1.0,0.0,0.0,0.0,0
73344842,-0.0013515614,-0.00025717705,-0.0031655568,0.9969414,0.00348328,-0.000619239,0.07807334,1.0,0.0,0.0,0.0,0
73376795,0.00088641513,-0.0010274092,-0.0048798043,0.99694115,0.0034882582,-0.00060908555,0.07807623,1.0,0.0,0.0,0.0,0
73408763,0.0010571182,-0.0012808479,-0.0049969745,0.99694115,0.003521707,-0.00062578404,0.07807371,1.0,0.0,0.0,0.0,0
73440761,-0.00022097258,-8.166069e-06,-0.0042813723,0.9969407,0.0035539572,-0.0006422986,0.07807915,1.0,0.0,0.0,0.0,0
73472861,-0.00012197485,-0.00010924763,-0.003333963,0.9969396,0.003588931,-0.0006589006,0.07809118,1.0,0.0,0.0,0.0,0
73504840,0.0010465425,-0.0010442615,-0.0019534861,0.99693865,0.0036192106,-0.0006854893,0.07810081,1.0,0.0,0.0,0.0,0
73532786,-0.00012455182,-0.0016966783,-0.0027396053,0.9969377,0.0036580362,-0.0007028554,0.07811292,1.0,0.0,0.0,0.0,0
73564845,0.0005112374,-0.0014991609,-0.0045577474,0.99693745,0.003699934,-0.00072887517,0.0781121,1.0,0.0,0.0,0.0,0
73596751,-5.506631e-05,-0.001399518,-0.004691692,0.99693686,0.003727605,-0.00075620937,0.078119226,1.0,0.0,0.0,0.0,0
73628798,-0.0002608099,-0.00023693102,-0.005142783,0.99693614,0.0037372282,-0.0007823064,0.07812777,1.0,0.0,0.0,0.0,0
73660761,-0.00048798881,-9.440398e-05,-0.000885912,0.99693435,0.0037314733,-0.00080421916,0.078150354,1.0,0.0,0.0,0.0,0
73692756,-0.00037759403,0.0003301995,-0.0009059798,0.9969335,0.0037288566,-0.0008324187,0.07816072,1.0,0.0,0.0,0.0,0
73724878,0.0005842033,-0.00050354353,0.0021984472,0.9969327,0.0037225182,-0.00085091154,0.07817091,1.0,0.0,0.0,0.0,0
73756816,-0.00016078679,0.00013258797,0.002857941,0.99693215,0.0037067174,-0.0008625112,0.07817902,1.0,0.0,0.0,0.0,0
73784874,-0.0005672765,9.113923e-05,-0.004603051,0.9969319,0.0036903683,-0.0008718397,0.078181654,1.0,0.0,0.0,0.0,0
73816757,-0.0012054536,0.0001082411,-0.003433936,0.9969315,0.0036871105,-0.0008796013,0.07818746,1.0,0.0,0.0,0.0,0
73848767,-0.00013598893,0.00054877065,-0.00059062254,0.99693096,0.0036938803,-0.0008865713,0.07819473,1.0,0.0,0.0,0.0,0
73880780,0.00049705803,0.0009875044,0.0011281862,0.99693066,0.0037037584,-0.00089099735,0.07819819,1.0,0.0,0.0,0.0,0
73912770,0.00026680483,-5.9379032e-05,0.0043465896,0.99692935,0.0037081537,-0.0008951705,0.078214265,1.0,0.0,0.0,0.0,0
73944834,0.00049458584,0.00090995966,0.0065997164,0.996928,0.0037119421,-0.00088849483,0.07823176,1.0,0.0,0.0,0.0,0
73976810,0.0013310239,0.0008278091,0.0066176024,0.9969261,0.0037327153,-0.0008867412,0.07825305,1.0,0.0,0.0,0.0,0
74008784,-0.00058132317,0.0007143123,0.006214924,0.9969248,0.0037375689,-0.00087242894,0.07827084,1.0,0.0,0.0,0.0,0
74036796,0.000696206,0.00015636557,0.0018781133,0.9969245,0.0037365973,-0.00087239034,0.07827489,1.0,0.0,0.0,0.0,0
74068770,0.000580132,0.0009056821,0.004125438,0.9969235,0.0037274326,-0.0008559114,0.07828832,1.0,0.0,0.0,0.0,0
74100759,6.332202e-05,0.0009237472,0.0054425467,0.9969221,0.0037135223,-0.0008390079,0.07830703,1.0,0.0,0.0,0.0,0
74132821,-0.00026482018,0.00027112523,0.0039820476,0.99692154,0.0036997315,-0.0008202609,0.0783153,1.0,0.0,0.0,0.0,0
74164823,-0.00015143678,0.0008051763,0.0046174256,0.9969205,0.0036957422,-0.0008055661,0.07832839,1.0,0.0,0.0,0.0,0
74196757,-0.00070526684,0.0015655266,0.0036605904,0.99691975,0.0036825757,-0.000790564,0.0783381,1.0,0.0,0.0,0.0,0
74228814,0.00057842536,-3.7069898e-05,0.0023158267,0.9969191,0.0036668251,-0.0007856459,0.07834681,1.0,0.0,0.0,0.0,0
74260755,-0.0002778815,-0.00036494946,-0.0008993557,0.9969187,0.003652054,-0.0007703019,0.07835282,1.0,0.0,0.0,0.0,0
74288790,0.00036312733,0.0012452157,0.005968927,0.9969183,0.0036445395,-0.0007594566,0.07835807,1.0,0.0,0.0,0.0,0
74320829,0.00014419202,0.0006005359,0.004718455,0.9969178,0.0036275391,-0.00074248225,0.07836677,1.0,0.0,0.0,0.0,0
74352846,0.00034863362,0.00038701296,0.0035544,0.99691707,0.0036244637,-0.00073645613,0.07837635,1.0,0.0,0.0,0.0,0
74384859,-0.00017208373,-2.7898699e-05,0.0026086832,0.9969162,0.0036186813,-0.00073430664,0.07838693,1.0,0.0,0.0,0.0,0
74416762,4.368089e-05,0.00037804712,-0.000728221,0.99691653,0.0036183707,-0.0007306137,0.078382425,1.0,0.0,0.0,0.0,0
74448774,-0.0007024016,-0.0012302327,-0.0018754505,0.99691665,0.0036108298,-0.00072292273,0.07838211,1.0,0.0,0.0,0.0,0
74480793,0.00047556683,-0.0016787283,-0.004334164,0.9969169,0.0036070065,-0.00071938906,0.078379616,1.0,0.0,0.0,0.0,0
74512846,-0.00060009165,-0.001780709,-0.004248452,0.9969161,0.003601611,-0.0007133525,0.07838818,1.0,0.0,0.0,0.0,0
