timestamp,time_utc_usec,lat,lon,alt,alt_ellipsoid,pos_itow,fix_quality,sacc,s_variance_m_s,c_variance_rad,eph,epv,hdop,vdop,noise_per_ms,jamming_indicator,vel_m_s,vel_n_m_s,vel_e_m_s,vel_d_m_s,cog_rad,timestamp_time_relative,fix_type,vel_ned_valid,satellites_used
5381320,0,307872066,1038586443,566003,525724,357604200,0,0,0.0,0.0,0.009000001,0.008,0.79999995,1.61,0,0,0.0,0.0,0.0,0.0,-1.5707965,-5381320,6,1,18
5549074,0,307872066,1038586443,566008,525729,357604400,0,0,0.0,0.0,0.008,0.007,0.79999995,1.61,0,0,0.06,0.0,0.0,-0.06,-1.5707965,-5549074,6,1,18
5773055,0,307872065,1038586443,566004,525725,357604600,0,0,0.0,0.0,0.008,0.007,0.79999995,1.61,0,0,0.06,0.0,0.0,-0.06,-1.5707965,-5773055,6,1,18
5939917,0,307872066,1038586443,566005,525726,357604800,0,0,0.0,0.0,0.008,0.007,0.79999995,1.61,0,0,0.02,0.02,0.0,0.0,-1.5707965,-5939917,6,1,18
6185943,0,307872066,1038586443,566004,525725,357605000,0,0,0.0,0.0,0.008,0.007,0.79999995,1.61,0,0,0.12,0.01,0.0,-0.12,-1.5707965,-6185943,6,1,18
6351962,0,307872065,1038586443,566002,525723,357605200,0,0,0.0,0.0,0.008,0.007,0.79999995,1.61,0,0,0.03,0.0,0.0,0.03,-1.5707965,-6351962,6,1,18
6578262,0,307872066,1038586442,566006,525727,357605400,0,0,0.0,0.0,0.008,0.007,0.79999995,1.61,0,0,0.089999996,0.0,0.0,-0.089999996,-1.5707965,-6578262,6,1,18
6744926,0,307872066,1038586442,566008,525729,357605600,0,0,0.0,0.0,0.008,0.007,0.79999995,1.61,0,0,0.089999996,0.0,0.0,-0.089999996,-1.5707965,-6744926,6,1,18
6991159,0,307872066,1038586442,566008,525729,357605800,0,0,0.0,0.0,0.008,0.007,0.79999995,1.61,0,0,0.07,-0.01,0.0,-0.06,-1.5707965,-6991159,6,1,18
7140862,0,307872066,1038586442,566008,525729,357606000,0,0,0.0,0.0,0.008,0.007,0.79999995,1.61,0,0,0.06,0.02,0.01,-0.049999997,-1.5707965,-7140862,6,1,18
7388915,0,307872066,1038586442,566008,525729,357606200,0,0,0.0,0.0,0.008,0.007,0.79999995,1.61,0,0,0.06,0.02,0.0,-0.06,-1.5707965,-7388915,6,1,18
7535112,0,307872066,1038586442,566005,525726,357606400,0,0,0.0,0.0,0.008,0.008,0.79999995,1.61,0,0,0.03,0.02,0.0,0.0,-1.5707965,-7535112,6,1,18
7779990,0,307872066,1038586442,566007,525728,357606600,0,0,0.0,0.0,0.009000001,0.008,0.79999995,1.61,0,0,0.01,0.0,0.0,0.0,-1.5707965,-7779990,6,1,18
7948083,0,307872065,1038586442,566009,525730,357606800,0,0,0.0,0.0,0.009000001,0.008,0.79999995,1.61,0,0,0.03,-0.01,-0.01,-0.03,-1.5707965,-7948083,6,1,18
8173946,0,307872066,1038586442,566009,525730,357607000,0,0,0.0,0.0,0.009000001,0.008,0.79999995,1.62,0,0,0.01,0.0,0.0,0.0,-1.5707965,-8173946,6,1,18
8342582,0,307872065,1038586442,566011,525733,357607200,0,0,0.0,0.0,0.009000001,0.008,0.79999995,1.62,0,0,0.03,0.01,0.02,-0.02,-1.5707965,-8342582,6,1,18
8587457,0,307872065,1038586442,566011,525732,357607400,0,0,0.0,0.0,0.009000001,0.008,0.79999995,1.62,0,0,0.0,0.0,0.0,0.0,-1.5707965,-8587457,6,1,18
8753914,0,307872065,1038586442,566012,525733,357607600,0,0,0.0,0.0,0.009000001,0.008,0.79999995,1.62,0,0,0.03,0.0,0.0,-0.03,-1.5707965,-8753914,6,1,18
8979963,0,307872065,1038586442,566012,525733,357607800,0,0,0.0,0.0,0.009000001,0.008,0.79999995,1.62,0,0,0.01,0.0,0.0,0.01,-1.5707965,-8979963,6,1,18
9148869,0,307872065,1038586442,566011,525732,357608000,0,0,0.0,0.0,0.009000001,0.009000001,0.79999995,1.62,0,0,0.01,0.0,0.0,-0.01,-1.5707965,-9148869,6,1,18
9357097,0,307872065,1038586442,566005,525726,357608200,0,0,0.0,0.0,0.009000001,0.008,0.79999995,1.89,0,0,0.01,0.01,0.0,0.0,-1.5707965,-9357097,6,1,17
9544957,0,307872066,1038586442,566005,525726,357608400,0,0,0.0,0.0,0.008,0.008,0.79999995,1.89,0,0,0.04,0.0,0.0,-0.04,-1.5707965,-9544957,6,1,17
9752915,0,307872066,1038586442,566006,525727,357608600,0,0,0.0,0.0,0.008,0.008,0.79999995,1.89,0,0,0.06,0.02,0.0,-0.049999997,-1.5707965,-9752915,6,1,17
9940273,0,307872066,1038586442,566007,525729,357608800,0,0,0.0,0.0,0.009000001,0.008,0.79999995,1.89,0,0,0.02,0.0,0.0,-0.01,-1.5707965,-9940273,6,1,17
10146949,0,307872065,1038586442,566007,525728,357609000,0,0,0.0,0.0,0.009000001,0.008,0.79999995,1.89,0,0,0.049999997,-0.01,0.0,0.04,-1.5707965,-10146949,6,1,17
10353919,0,307872066,1038586442,566012,525733,357609200,0,0,0.0,0.0,0.009000001,0.008,0.79999995,1.89,0,0,0.089999996,0.03,0.02,-0.08,-1.5707965,-10353919,6,1,17
10541108,0,307872065,1038586442,566015,525736,357609400,0,0,0.0,0.0,0.009000001,0.008,0.79999995,1.89,0,0,0.089999996,0.0,0.0,-0.089999996,-1.5707965,-10541108,6,1,17
10747914,0,307872065,1038586442,566012,525733,357609600,0,0,0.0,0.0,0.009000001,0.008,0.79999995,1.89,0,0,0.06,0.0,0.0,0.06,-1.5707965,-10747914,6,1,17
10953865,0,307872066,1038586442,566012,525733,357609800,0,0,0.0,0.0,0.009000001,0.008,0.79999995,1.89,0,0,0.02,0.0,-0.01,-0.01,-1.5707965,-10953865,6,1,17
11141995,0,307872066,1038586442,566014,525735,357610000,0,0,0.0,0.0,0.009000001,0.008,0.79999995,1.89,0,0,0.02,0.0,0.0,0.02,-1.5707965,-11141995,6,1,17
11353121,0,307872066,1038586442,566012,525733,357610200,0,0,0.0,0.0,0.009000001,0.008,0.79999995,1.89,0,0,0.049999997,-0.01,0.0,-0.049999997,-1.5707965,-11353121,6,1,17
11541864,0,307872066,1038586442,566008,525729,357610400,0,0,0.0,0.0,0.009000001,0.008,0.79999995,1.89,0,0,0.04,0.02,0.01,0.03,-1.5707965,-11541864,6,1,17
11748863,0,307872066,1038586442,566009,525730,357610600,0,0,0.0,0.0,0.009000001,0.008,0.79999995,1.89,0,0,0.04,0.03,0.0,-0.02,-1.5707965,-11748863,6,1,17
11937900,0,307872066,1038586442,566006,525727,357610800,0,0,0.0,0.0,0.009000001,0.009000001,0.79999995,1.89,0,0,0.03,0.03,0.01,0.0,-1.5707965,-11937900,6,1,17
12145925,0,307872065,1038586442,566010,525731,357611000,0,0,0.0,0.0,0.010000001,0.009000001,0.79999995,1.89,0,0,0.089999996,-0.01,0.01,-0.089999996,-1.5707965,-12145925,6,1,17
12354200,0,307872066,1038586442,566006,525727,357611200,0,0,0.0,0.0,0.010000001,0.009000001,0.79999995,1.89,0,0,0.089999996,0.0,0.0,0.089999996,-1.5707965,-12354200,6,1,17
12542223,0,307872066,1038586442,566008,525729,357611400,0,0,0.0,0.0,0.010000001,0.009000001,0.79999995,1.89,0,0,0.04,0.0,0.0,-0.04,-1.5707965,-12542223,6,1,17
12750965,0,307872066,1038586442,566011,525733,357611600,0,0,0.0,0.0,0.010000001,0.009000001,0.79999995,1.89,0,0,0.04,0.0,0.0,-0.04,-1.5707965,-12750965,6,1,17
12937864,0,307872066,1038586442,566012,525733,357611800,0,0,0.0,0.0,0.010000001,0.009000001,0.79999995,1.89,0,0,0.07,0.01,0.0,-0.07,-1.5707965,-12937864,6,1,17
13148001,0,307872066,1038586442,566007,525728,357612000,0,0,0.0,0.0,0.010000001,0.009000001,0.79999995,1.89,0,0,0.049999997,0.0,0.01,0.04,-1.5707965,-13148001,6,1,17
13337916,0,307872066,1038586443,566002,525723,357612200,0,0,0.0,0.0,0.009000001,0.008,0.79999995,1.89,0,0,0.02,0.01,-0.01,0.02,-1.5707965,-13337916,6,1,17
13547108,0,307872066,1038586443,565999,525720,357612400,0,0,0.0,0.0,0.009000001,0.008,0.79999995,1.89,0,0,0.06,0.02,0.01,-0.06,-1.5707965,-13547108,6,1,17
13755988,0,307872066,1038586443,565996,525718,357612600,0,0,0.0,0.0,0.008,0.008,0.79999995,1.89,0,0,0.049999997,-0.01,0.0,0.04,-1.5707965,-13755988,6,1,17
13944929,0,307872066,1038586443,565996,525718,357612800,0,0,0.0,0.0,0.009000001,0.008,0.79999995,1.89,0,0,0.02,0.0,0.0,0.02,-1.5707965,-13944929,6,1,17
14152057,0,307872066,1038586443,566000,525721,357613000,0,0,0.0,0.0,0.009000001,0.008,0.79999995,1.89,0,0,0.049999997,0.01,0.0,-0.04,-1.5707965,-14152057,6,1,17
14340950,0,307872066,1038586443,565998,525719,357613200,0,0,0.0,0.0,0.009000001,0.008,0.79999995,1.89,0,0,0.02,0.0,0.01,0.0,-1.5707965,-14340950,6,1,17
14548864,0,307872066,1038586442,565998,525719,357613400,0,0,0.0,0.0,0.009000001,0.008,0.79999995,1.89,0,0,0.03,0.0,0.0,0.03,-1.5707965,-14548864,6,1,17
14739371,0,307872066,1038586443,565996,525718,357613600,0,0,0.0,0.0,0.009000001,0.008,0.79999995,1.89,0,0,0.04,-0.01,0.0,-0.04,-1.5707965,-14739371,6,1,17
14947941,0,307872066,1038586443,565994,525715,357613800,0,0,0.0,0.0,0.009000001,0.008,0.79999995,1.89,0,0,0.07,0.02,0.01,0.06,-1.5707965,-14947941,6,1,17
15159032,0,307872066,1038586443,565997,525718,357614000,0,0,0.0,0.0,0.009000001,0.008,0.79999995,1.89,0,0,0.04,-0.01,0.0,-0.03,-1.5707965,-15159032,6,1,17
15348290,0,307872066,1038586443,565997,525718,357614200,0,0,0.0,0.0,0.009000001,0.008,0.79999995,1.89,0,0,0.04,0.0,0.0,0.04,-1.5707965,-15348290,6,1,17
15537955,0,307872066,1038586443,565997,525718,357614400,0,0,0.0,0.0,0.008,0.008,0.79999995,1.89,0,0,0.02,0.02,0.0,0.0,-1.5707965,-15537955,6,1,17
15745870,0,307872066,1038586443,565997,525718,357614600,0,0,0.0,0.0,0.008,0.008,0.79999995,1.89,0,0,0.02,0.0,0.0,-0.01,-1.5707965,-15745870,6,1,17
15955986,0,307872066,1038586443,565996,525718,357614800,0,0,0.0,0.0,0.009000001,0.008,0.79999995,1.89,0,0,0.06,-0.01,0.0,0.06,-1.5707965,-15955986,6,1,17
16145901,0,307872066,1038586443,565998,525719,357615000,0,0,0.0,0.0,0.009000001,0.008,0.79999995,1.89,0,0,0.049999997,0.0,0.0,0.049999997,-1.5707965,-16145901,6,1,17
16355951,0,307872066,1038586443,565998,525719,357615200,0,0,0.0,0.0,0.009000001,0.008,0.79999995,1.89,0,0,0.01,0.0,0.0,0.0,-1.5707965,-16355951,6,1,17
16546278,0,307872066,1038586443,565997,525718,357615400,0,0,0.0,0.0,0.009000001,0.008,0.79999995,1.89,0,0,0.0,0.0,0.0,0.0,-1.5707965,-16546278,6,1,17
16755059,0,307872065,1038586443,565997,525718,357615600,0,0,0.0,0.0,0.009000001,0.008,0.79999995,1.89,0,0,0.049999997,-0.01,-0.01,0.049999997,-1.5707965,-16755059,6,1,17
16943980,0,307872066,1038586443,566000,525721,357615800,0,0,0.0,0.0,0.009000001,0.008,0.79999995,1.89,0,0,0.02,0.01,0.01,0.0,-1.5707965,-16943980,6,1,17
17155189,0,307872065,1038586443,565998,525719,357616000,0,0,0.0,0.0,0.009000001,0.008,0.79999995,1.89,0,0,0.02,-0.02,0.0,-0.01,-1.5707965,-17155189,6,1,17
17344920,0,307872065,1038586443,565996,525717,357616200,0,0,0.0,0.0,0.009000001,0.008,0.79999995,1.89,0,0,0.04,0.0,0.01,-0.04,-1.5707965,-17344920,6,1,17
17555133,0,307872066,1038586442,565989,525711,357616400,0,0,0.0,0.0,0.009000001,0.008,0.79999995,1.89,0,0,0.01,0.0,0.0,0.0,-1.5707965,-17555133,6,1,17
17743132,0,307872066,1038586442,565983,525704,357616600,0,0,0.0,0.0,0.008,0.008,0.79999995,1.89,0,0,0.049999997,0.01,0.0,-0.04,-1.5707965,-17743132,6,1,17
17951985,0,307872066,1038586443,565984,525705,357616800,0,0,0.0,0.0,0.009000001,0.008,0.79999995,1.89,0,0,0.04,0.03,0.0,-0.01,-1.5707965,-17951985,6,1,17
18142289,0,307872066,1038586442,565983,525705,357617000,0,0,0.0,0.0,0.009000001,0.008,0.79999995,1.89,0,0,0.02,0.01,-0.01,0.01,-1.5707965,-18142289,6,1,17
18351063,0,307872066,1038586442,565984,525705,357617200,0,0,0.0,0.0,0.009000001,0.008,0.79999995,1.89,0,0,0.0,0.0,0.0,0.0,-1.5707965,-18351063,6,1,17
18539983,0,307872066,1038586442,565986,525707,357617400,0,0,0.0,0.0,0.009000001,0.008,0.79999995,1.89,0,0,0.02,-0.01,0.0,-0.02,-1.5707965,-18539983,6,1,17
18748864,0,307872066,1038586442,565988,525709,357617600,0,0,0.0,0.0,0.009000001,0.008,0.79999995,1.89,0,0,0.02,0.01,0.0,-0.01,-1.5707965,-18748864,6,1,17
18937916,0,307872066,1038586442,565986,525707,357617800,0,0,0.0,0.0,0.009000001,0.008,0.79999995,1.89,0,0,0.02,0.01,0.0,0.01,-1.5707965,-18937916,6,1,17
19148867,0,307872066,1038586442,565986,525708,357618000,0,0,0.0,0.0,0.009000001,0.008,0.79999995,1.89,0,0,0.03,0.0,-0.02,0.02,-1.5707965,-19148867,6,1,17
19337864,0,307872066,1038586442,565985,525706,357618200,0,0,0.0,0.0,0.009000001,0.008,0.79999995,1.89,0,0,0.02,0.0,0.0,0.02,-1.5707965,-19337864,6,1,17
19547361,0,307872066,1038586442,565984,525705,357618400,0,0,0.0,0.0,0.009000001,0.008,0.79999995,1.89,0,0,0.01,0.0,0.0,-0.01,-1.5707965,-19547361,6,1,17
19756946,0,307872066,1038586442,565982,525703,357618600,0,0,0.0,0.0,0.009000001,0.008,0.79999995,1.89,0,0,0.02,0.01,-0.01,0.0,-1.5707965,-19756946,6,1,17
19944922,0,307872066,1038586442,565983,525704,357618800,0,0,0.0,0.0,0.009000001,0.009000001,0.79999995,1.89,0,0,0.089999996,0.0,0.01,0.08,-1.5707965,-19944922,6,1,17
20155503,0,307872066,1038586442,565983,525704,357619000,0,0,0.0,0.0,0.010000001,0.009000001,0.79999995,1.89,0,0,0.06,0.02,0.01,0.049999997,-1.5707965,-20155503,6,1,17
20343949,0,307872066,1038586442,565988,525709,357619200,0,0,0.0,0.0,0.010000001,0.009000001,0.79999995,1.89,0,0,0.01,0.0,0.0,0.01,-1.5707965,-20343949,6,1,17
20551971,0,307872066,1038586442,565985,525707,357619400,0,0,0.0,0.0,0.010000001,0.009000001,0.79999995,1.89,0,0,0.01,-0.01,0.0,0.0,-1.5707965,-20551971,6,1,17
20741870,0,307872066,1038586442,565983,525704,357619600,0,0,0.0,0.0,0.010000001,0.009000001,0.79999995,1.89,0,0,0.04,0.0,0.0,0.04,-1.5707965,-20741870,6,1,17
20950950,0,307872066,1038586442,565982,525703,357619800,0,0,0.0,0.0,0.010000001,0.009000001,0.79999995,1.89,0,0,0.07,0.0,0.01,0.07,-1.5707965,-20950950,6,1,17
21141923,0,307872066,1038586442,565981,525702,357620000,0,0,0.0,0.0,0.010000001,0.010000001,0.79999995,1.89,0,0,0.04,0.0,0.0,-0.04,-1.5707965,-21141923,6,1,17
21351074,0,307872066,1038586442,565984,525705,357620200,0,0,0.0,0.0,0.009000001,0.008,0.79999995,1.89,0,0,0.08,0.0,0.0,-0.08,-1.5707965,-21351074,6,1,17
21539931,0,307872066,1038586442,565985,525706,357620400,0,0,0.0,0.0,0.008,0.008,0.79999995,1.89,0,0,0.04,0.0,0.0,-0.04,-1.5707965,-21539931,6,1,17
21749866,0,307872066,1038586442,565987,525708,357620600,0,0,0.0,0.0,0.008,0.008,0.79999995,1.89,0,0,0.01,0.01,0.0,0.0,-1.5707965,-21749866,6,1,17
21939063,0,307872066,1038586442,565985,525706,357620800,0,0,0.0,0.0,0.009000001,0.008,0.79999995,1.89,0,0,0.01,0.0,0.0,0.0,-1.5707965,-21939063,6,1,17
22147044,0,307872066,1038586442,565986,525707,357621000,0,0,0.0,0.0,0.009000001,0.008,0.79999995,1.89,0,0,0.04,0.0,0.0,-0.04,-1.5707965,-22147044,6,1,17
22356060,0,307872066,1038586443,565986,525707,357621200,0,0,0.0,0.0,0.009000001,0.008,0.79999995,1.89,0,0,0.04,0.01,0.01,-0.04,-1.5707965,-22356060,6,1,17
22545867,0,307872065,1038586442,565985,525706,357621400,0,0,0.0,0.0,0.009000001,0.008,0.79999995,1.89,0,0,0.049999997,0.0,0.0,0.04,-1.5707965,-22545867,6,1,17
22755159,0,307872066,1038586442,565984,525705,357621600,0,0,0.0,0.0,0.009000001,0.008,0.79999995,1.89,0,0,0.02,0.0,0.0,0.02,-1.5707965,-22755159,6,1,17
22944030,0,307872066,1038586442,565984,525705,357621800,0,0,0.0,0.0,0.009000001,0.008,0.79999995,1.89,0,0,0.02,0.01,0.0,-0.01,-1.5707965,-22944030,6,1,17
23152912,0,307872066,1038586442,565986,525707,357622000,0,0,0.0,0.0,0.009000001,0.008,0.79999995,1.89,0,0,0.01,0.0,0.0,0.0,-1.5707965,-23152912,6,1,17
23340865,0,307872066,1038586442,565985,525706,357622200,0,0,0.0,0.0,0.009000001,0.008,0.79999995,1.89,0,0,0.02,0.0,0.0,-0.01,-1.5707965,-23340865,6,1,17
23551127,0,307872066,1038586442,565986,525707,357622400,0,0,0.0,0.0,0.009000001,0.008,0.79999995,1.89,0,0,0.04,0.01,0.01,-0.03,-1.5707965,-23551127,6,1,17
23738967,0,307872065,1038586443,565983,525704,357622600,0,0,0.0,0.0,0.009000001,0.008,0.79999995,1.89,0,0,0.03,0.0,0.0,-0.03,-1.5707965,-23738967,6,1,17
23948864,0,307872066,1038586442,565981,525703,357622800,0,0,0.0,0.0,0.009000001,0.009000001,0.79999995,1.89,0,0,0.02,0.0,0.0,0.02,-1.5707965,-23948864,6,1,17
24137920,0,307872066,1038586442,565982,525704,357623000,0,0,0.0,0.0,0.010000001,0.009000001,0.79999995,1.9,0,0,0.01,0.0,0.0,-0.01,-1.5707965,-24137920,6,1,17
24347063,0,307872066,1038586443,565982,525703,357623200,0,0,0.0,0.0,0.010000001,0.009000001,0.79999995,1.9,0,0,0.04,0.02,0.0,-0.04,-1.5707965,-24347063,6,1,17
24556910,0,307872066,1038586442,565980,525701,357623400,0,0,0.0,0.0,0.010000001,0.009000001,0.79999995,1.9,0,0,0.11,0.02,0.0,0.11,-1.5707965,-24556910,6,1,17
24745864,0,307872066,1038586442,565982,525703,357623600,0,0,0.0,0.0,0.010000001,0.009000001,0.79999995,1.9,0,0,0.04,0.0,-0.01,0.03,-1.5707965,-24745864,6,1,17
24955065,0,307872066,1038586442,565985,525706,357623800,0,0,0.0,0.0,0.010000001,0.009000001,0.79999995,1.9,0,0,0.02,0.01,0.0,-0.01,-1.5707965,-24955065,6,1,17
25145916,0,307872066,1038586442,565983,525704,357624000,0,0,0.0,0.0,0.010000001,0.010000001,0.79999995,1.9,0,0,0.03,0.02,0.0,-0.01,-1.5707965,-25145916,6,1,17
25352993,0,307872066,1038586442,565980,525702,357624200,0,0,0.0,0.0,0.009000001,0.008,0.79999995,1.9,0,0,0.049999997,-0.02,0.0,-0.049999997,-1.5707965,-25352993,6,1,17
25540954,0,307872066,1038586442,565980,525701,357624400,0,0,0.0,0.0,0.008,0.008,0.79999995,1.9,0,0,0.02,-0.01,0.0,0.01,-1.5707965,-25540954,6,1,17
25751512,0,307872066,1038586442,565983,525704,357624600,0,0,0.0,0.0,0.008,0.008,0.79999995,1.9,0,0,0.02,0.01,-0.01,-0.01,-1.5707965,-25751512,6,1,17
25940006,0,307872066,1038586443,565983,525705,357624800,0,0,0.0,0.0,0.009000001,0.008,0.79999995,1.9,0,0,0.049999997,0.0,0.01,0.049999997,-1.5707965,-25940006,6,1,17
26149949,0,307872066,1038586442,565987,525709,357625000,0,0,0.0,0.0,0.009000001,0.008,0.79999995,1.9,0,0,0.099999994,-0.03,-0.02,-0.089999996,-1.5707965,-26149949,6,1,17
26339084,0,307872066,1038586442,565990,525711,357625200,0,0,0.0,0.0,0.009000001,0.008,0.79999995,1.9,0,0,0.03,0.02,-0.01,-0.01,-1.5707965,-26339084,6,1,17
26549033,0,307872066,1038586442,565993,525714,357625400,0,0,0.0,0.0,0.009000001,0.008,0.79999995,1.9,0,0,0.03,0.0,0.0,-0.03,-1.5707965,-26549033,6,1,17
26738112,0,307872066,1038586443,565989,525711,357625600,0,0,0.0,0.0,0.009000001,0.008,0.79999995,1.9,0,0,0.049999997,0.01,0.01,0.04,-1.5707965,-26738112,6,1,17
26945873,0,307872065,1038586442,565990,525711,357625800,0,0,0.0,0.0,0.009000001,0.008,0.79999995,1.9,0,0,0.02,-0.01,0.0,-0.02,-1.5707965,-26945873,6,1,17
27156337,0,307872065,1038586442,565990,525711,357626000,0,0,0.0,0.0,0.009000001,0.008,0.79999995,1.9,0,0,0.04,0.0,0.0,0.03,-1.5707965,-27156337,6,1,17
27345905,0,307872065,1038586442,565989,525710,357626200,0,0,0.0,0.0,0.009000001,0.008,0.79999995,1.9,0,0,0.03,0.02,0.0,0.01,-1.5707965,-27345905,6,1,17
27555059,0,307872066,1038586442,565986,525708,357626400,0,0,0.0,0.0,0.009000001,0.008,0.79999995,1.9,0,0,0.02,0.01,0.01,-0.02,-1.5707965,-27555059,6,1,17
27743946,0,307872066,1038586443,565988,525709,357626600,0,0,0.0,0.0,0.008,0.008,0.79999995,1.9,0,0,0.07,0.02,0.01,-0.06,-1.5707965,-27743946,6,1,17
27953095,0,307872066,1038586442,565987,525708,357626800,0,0,0.0,0.0,0.009000001,0.008,0.79999995,1.9,0,0,0.02,0.0,-0.01,0.0,-1.5707965,-27953095,6,1,17
28141917,0,307872066,1038586443,565989,525710,357627000,0,0,0.0,0.0,0.009000001,0.008,0.79999995,1.9,0,0,0.02,0.0,0.0,-0.02,-1.5707965,-28141917,6,1,17
28351113,0,307872066,1038586442,565992,525714,357627200,0,0,0.0,0.0,0.009000001,0.008,0.79999995,1.9,0,0,0.01,0.0,-0.01,0.0,-1.5707965,-28351113,6,1,17
28539030,0,307872066,1038586442,565995,525716,357627400,0,0,0.0,0.0,0.009000001,0.008,0.79999995,1.9,0,0,0.0,0.0,0.0,0.0,-1.5707965,-28539030,6,1,17
28747146,0,307872066,1038586442,565993,525714,357627600,0,0,0.0,0.0,0.009000001,0.008,0.79999995,1.9,0,0,0.08,0.0,0.0,0.08,-1.5707965,-28747146,6,1,17
28955933,0,307872066,1038586442,565997,525718,357627800,0,0,0.0,0.0,0.009000001,0.008,0.79999995,1.9,0,0,0.11,0.0,0.0,-0.11,-1.5707965,-28955933,6,1,17
29144921,0,307872066,1038586443,565995,525716,357628000,0,0,0.0,0.0,0.009000001,0.008,0.79999995,1.9,0,0,0.01,0.0,0.0,0.0,-1.5707965,-29144921,6,1,17
29355063,0,307872066,1038586442,565987,525708,357628200,0,0,0.0,0.0,0.009000001,0.008,0.79999995,1.9,0,0,0.049999997,0.0,-0.01,-0.049999997,-1.5707965,-29355063,6,1,17
29543997,0,307872066,1038586443,565982,525703,357628400,0,0,0.0,0.0,0.008,0.008,0.79999995,1.9,0,0,0.03,0.01,0.0,0.03,-1.5707965,-29543997,6,1,17
29752867,0,307872066,1038586443,565984,525705,357628600,0,0,0.0,0.0,0.008,0.008,0.79999995,1.9,0,0,0.0,0.0,0.0,0.0,-1.5707965,-29752867,6,1,17
29941919,0,307872066,1038586443,565982,525704,357628800,0,0,0.0,0.0,0.009000001,0.008,0.79999995,1.9,0,0,0.03,-0.01,0.0,0.03,-1.5707965,-29941919,6,1,17
30149918,0,307872066,1038586443,565982,525704,357629000,0,0,0.0,0.0,0.009000001,0.008,0.79999995,1.9,0,0,0.01,0.01,0.0,0.0,-1.5707965,-30149918,6,1,17
30338973,0,307872066,1038586443,565983,525704,357629200,0,0,0.0,0.0,0.009000001,0.008,0.79999995,1.9,0,0,0.04,0.01,0.0,0.03,-1.5707965,-30338973,6,1,17
30547061,0,307872066,1038586443,565986,525708,357629400,0,0,0.0,0.0,0.009000001,0.008,0.79999995,1.9,0,0,0.03,0.01,0.02,-0.01,-1.5707965,-30547061,6,1,17
30756868,0,307872066,1038586443,565989,525710,357629600,0,0,0.0,0.0,0.009000001,0.008,0.79999995,1.9,0,0,0.04,0.0,0.0,-0.04,-1.5707965,-30756868,6,1,17
30945866,0,307872066,1038586443,565989,525710,357629800,0,0,0.0,0.0,0.009000001,0.008,0.79999995,1.9,0,0,0.02,0.01,0.0,-0.01,-1.5707965,-30945866,6,1,17
31156874,0,307872066,1038586443,565991,525712,357630000,0,0,0.0,0.0,0.009000001,0.008,0.79999995,1.9,0,0,0.02,0.01,0.0,-0.01,-1.5707965,-31156874,6,1,17
31347941,0,307872066,1038586443,565990,525711,357630200,0,0,0.0,0.0,0.009000001,0.008,0.79999995,1.9,0,0,0.049999997,-0.01,-0.01,0.04,-1.5707965,-31347941,6,1,17
31557865,0,307872066,1038586443,565988,525709,357630400,0,0,0.0,0.0,0.009000001,0.008,0.79999995,1.9,0,0,0.01,0.01,0.0,0.0,-1.5707965,-31557865,6,1,17
31745918,0,307872066,1038586442,565986,525707,357630600,0,0,0.0,0.0,0.008,0.008,0.79999995,1.9,0,0,0.02,0.0,0.0,0.02,-1.5707965,-31745918,6,1,17
31955532,0,307872066,1038586442,565988,525709,357630800,0,0,0.0,0.0,0.009000001,0.008,0.79999995,1.9,0,0,0.04,0.0,0.0,0.04,-1.5707965,-31955532,6,1,17
32144922,0,307872066,1038586442,565987,525709,357631000,0,0,0.0,0.0,0.009000001,0.008,0.79999995,1.9,0,0,0.02,-0.01,0.0,0.01,-1.5707965,-32144922,6,1,17
32354115,0,307872066,1038586442,565986,525707,357631200,0,0,0.0,0.0,0.009000001,0.008,0.79999995,1.9,0,0,0.01,-0.01,-0.01,0.0,-1.5707965,-32354115,6,1,17
32542949,0,307872066,1038586443,565985,525706,357631400,0,0,0.0,0.0,0.009000001,0.008,0.79999995,1.9,0,0,0.04,0.0,0.0,-0.04,-1.5707965,-32542949,6,1,17
32752300,0,307872066,1038586443,565985,525706,357631600,0,0,0.0,0.0,0.009000001,0.008,0.79999995,1.9,0,0,0.04,0.03,0.0,0.02,-1.5707965,-32752300,6,1,17
32940010,0,307872066,1038586443,565984,525705,357631800,0,0,0.0,0.0,0.009000001,0.008,0.79999995,1.9,0,0,0.06,0.0,-0.01,-0.06,-1.5707965,-32940010,6,1,17
33149180,0,307872066,1038586443,565982,525703,357632000,0,0,0.0,0.0,0.009000001,0.008,0.79999995,1.9,0,0,0.03,0.0,0.01,0.03,-1.5707965,-33149180,6,1,17
33357176,0,307872066,1038586442,565986,525707,357632200,0,0,0.0,0.0,0.009000001,0.008,0.79999995,1.9,0,0,0.02,0.02,-0.01,0.0,-1.5707965,-33357176,6,1,17
33545863,0,307872066,1038586442,565986,525707,357632400,0,0,0.0,0.0,0.008,0.008,0.79999995,1.9,0,0,0.02,-0.02,0.0,0.0,-1.5707965,-33545863,6,1,17
33753915,0,307872066,1038586442,565986,525707,357632600,0,0,0.0,0.0,0.008,0.008,0.79999995,1.9,0,0,0.049999997,0.04,0.01,0.02,-1.5707965,-33753915,6,1,17
33943917,0,307872066,1038586443,565985,525706,357632800,0,0,0.0,0.0,0.009000001,0.008,0.79999995,1.9,0,0,0.02,0.0,0.0,-0.02,-1.5707965,-33943917,6,1,17
34153101,0,307872066,1038586442,565985,525706,357633000,0,0,0.0,0.0,0.009000001,0.008,0.79999995,1.9,0,0,0.14,0.0,-0.01,-0.14,-1.5707965,-34153101,6,1,17
34341899,0,307872066,1038586442,565984,525705,357633200,0,0,0.0,0.0,0.009000001,0.008,0.79999995,1.9,0,0,0.04,0.02,0.0,0.03,-1.5707965,-34341899,6,1,17
34551108,0,307872066,1038586442,565985,525706,357633400,0,0,0.0,0.0,0.009000001,0.008,0.79999995,1.9,0,0,0.01,0.0,0.0,-0.01,-1.5707965,-34551108,6,1,17
34740039,0,307872066,1038586442,565984,525705,357633600,0,0,0.0,0.0,0.009000001,0.008,0.79999995,1.9,0,0,0.01,-0.01,0.0,0.0,-1.5707965,-34740039,6,1,17
34949005,0,307872066,1038586442,565982,525703,357633800,0,0,0.0,0.0,0.009000001,0.008,0.79999995,1.9,0,0,0.02,-0.01,0.0,-0.01,-1.5707965,-34949005,6,1,17
35139947,0,307872066,1038586442,565983,525704,357634000,0,0,0.0,0.0,0.009000001,0.008,0.79999995,1.9,0,0,0.01,-0.01,0.0,-0.01,-1.5707965,-35139947,6,1,17
35348920,0,307872066,1038586443,565986,525707,357634200,0,0,0.0,0.0,0.009000001,0.008,0.79999995,1.9,0,0,0.02,0.01,0.01,0.0,-1.5707965,-35348920,6,1,17
35538975,0,307872066,1038586443,565988,525710,357634400,0,0,0.0,0.0,0.008,0.008,0.79999995,1.9,0,0,0.049999997,-0.02,0.0,-0.04,-1.5707965,-35538975,6,1,17
35747996,0,307872066,1038586443,565989,525710,357634600,0,0,0.0,0.0,0.008,0.008,0.79999995,1.9,0,0,0.049999997,0.01,0.0,-0.049999997,-1.5707965,-35747996,6,1,17
35957984,0,307872066,1038586443,565988,525709,357634800,0,0,0.0,0.0,0.009000001,0.008,0.79999995,1.9,0,0,0.06,0.0,0.0,-0.06,-1.5707965,-35957984,6,1,17
36147139,0,307872066,1038586443,565987,525708,357635000,0,0,0.0,0.0,0.009000001,0.008,0.79999995,1.9,0,0,0.049999997,0.02,0.0,0.049999997,-1.5707965,-36147139,6,1,17
36355049,0,307872066,1038586443,565988,525709,357635200,0,0,0.0,0.0,0.009000001,0.008,0.79999995,1.9,0,0,0.03,-0.01,0.0,-0.03,-1.5707965,-36355049,6,1,17
36543933,0,307872066,1038586443,565989,525710,357635400,0,0,0.0,0.0,0.009000001,0.008,0.79999995,1.9,0,0,0.07,-0.01,0.0,-0.07,-1.5707965,-36543933,6,1,17
36752985,0,307872066,1038586443,565986,525707,357635600,0,0,0.0,0.0,0.009000001,0.008,0.79999995,1.9,0,0,0.01,0.0,0.0,0.0,-1.5707965,-36752985,6,1,17
36941869,0,307872066,1038586443,565986,525707,357635800,0,0,0.0,0.0,0.009000001,0.008,0.79999995,1.9,0,0,0.03,0.0,0.0,0.03,-1.5707965,-36941869,6,1,17
37152978,0,307872066,1038586443,565988,525709,357636000,0,0,0.0,0.0,0.009000001,0.008,0.79999995,1.9,0,0,0.07,0.01,0.0,-0.07,-1.5707965,-37152978,6,1,17
37363389,0,307872066,1038586443,565988,525710,357636200,0,0,0.0,0.0,0.009000001,0.008,0.79999995,1.9,0,0,0.04,0.0,0.0,-0.04,-1.5707965,-37363389,6,1,17
37553141,0,307872066,1038586442,565985,525706,357636400,0,0,0.0,0.0,0.009000001,0.008,0.79999995,1.9,0,0,0.03,0.01,0.0,0.03,-1.5707965,-37553141,6,1,17
37740870,0,307872066,1038586442,565983,525704,357636600,0,0,0.0,0.0,0.008,0.008,0.79999995,1.9,0,0,0.049999997,0.02,0.01,-0.04,-1.5707965,-37740870,6,1,17
37951068,0,307872066,1038586442,565981,525703,357636800,0,0,0.0,0.0,0.009000001,0.008,0.79999995,1.9,0,0,0.06,0.02,0.0,0.06,-1.5707965,-37951068,6,1,17
38138953,0,307872066,1038586442,565978,525699,357637000,0,0,0.0,0.0,0.009000001,0.008,0.79999995,1.9,0,0,0.07,-0.01,0.0,0.06,-1.5707965,-38138953,6,1,17
38348922,0,307872066,1038586442,565980,525701,357637200,0,0,0.0,0.0,0.009000001,0.008,0.79999995,1.9,0,0,0.03,-0.01,-0.01,0.02,-1.5707965,-38348922,6,1,17
38537950,0,307872066,1038586443,565981,525702,357637400,0,0,0.0,0.0,0.009000001,0.008,0.79999995,1.9,0,0,0.02,0.0,0.0,-0.02,-1.5707965,-38537950,6,1,17
38747921,0,307872066,1038586443,565980,525701,357637600,0,0,0.0,0.0,0.009000001,0.008,0.79999995,1.9,0,0,0.01,0.0,0.01,0.0,-1.5707965,-38747921,6,1,17
38957098,0,307872066,1038586443,565980,525701,357637800,0,0,0.0,0.0,0.009000001,0.008,0.79999995,1.9,0,0,0.01,0.0,0.01,0.0,-1.5707965,-38957098,6,1,17
39145867,0,307872066,1038586442,565979,525700,357638000,0,0,0.0,0.0,0.009000001,0.008,0.79999995,1.9,0,0,0.03,0.0,0.0,-0.02,-1.5707965,-39145867,6,1,17
39355925,0,307872066,1038586443,565976,525697,357638200,0,0,0.0,0.0,0.009000001,0.008,0.79999995,1.9,0,0,0.02,0.01,0.0,0.02,-1.5707965,-39355925,6,1,17
39545867,0,307872066,1038586443,565977,525698,357638400,0,0,0.0,0.0,0.008,0.008,0.79999995,1.9,0,0,0.07,0.02,-0.01,-0.07,-1.5707965,-39545867,6,1,17
39753865,0,307872066,1038586443,565981,525702,357638600,0,0,0.0,0.0,0.008,0.008,0.79999995,1.9,0,0,0.02,0.0,0.0,-0.02,-1.5707965,-39753865,6,1,17
39943068,0,307872066,1038586443,565980,525701,357638800,0,0,0.0,0.0,0.009000001,0.008,0.79999995,1.9,0,0,0.06,0.0,0.0,0.06,-1.5707965,-39943068,6,1,17
40150970,0,307872066,1038586443,565981,525702,357639000,0,0,0.0,0.0,0.009000001,0.008,0.79999995,1.9,0,0,0.03,0.01,0.0,0.03,-1.5707965,-40150970,6,1,17
40339985,0,307872066,1038586443,565982,525703,357639200,0,0,0.0,0.0,0.009000001,0.008,0.79999995,1.9,0,0,0.01,0.0,0.0,0.01,-1.5707965,-40339985,6,1,17
40549904,0,307872066,1038586443,565983,525704,357639400,0,0,0.0,0.0,0.009000001,0.008,0.79999995,1.9,0,0,0.03,0.01,0.02,0.02,-1.5707965,-40549904,6,1,17
40738971,0,307872066,1038586443,565984,525705,357639600,0,0,0.0,0.0,0.009000001,0.008,0.79999995,1.9,0,0,0.049999997,0.02,0.01,-0.049999997,-1.5707965,-40738971,6,1,17
40948015,0,307872066,1038586443,565988,525709,357639800,0,0,0.0,0.0,0.009000001,0.008,0.79999995,1.9,0,0,0.049999997,0.0,-0.01,-0.049999997,-1.5707965,-40948015,6,1,17
41159088,0,307872066,1038586443,565985,525706,357640000,0,0,0.0,0.0,0.009000001,0.008,0.79999995,1.9,0,0,0.01,0.0,-0.01,0.0,-1.5707965,-41159088,6,1,17
41347993,0,307872066,1038586442,565988,525709,357640200,0,0,0.0,0.0,0.009000001,0.008,0.79999995,1.9,0,0,0.049999997,0.01,-0.01,-0.04,-1.5707965,-41347993,6,1,17
41536863,0,307872066,1038586442,565984,525705,357640400,0,0,0.0,0.0,0.009000001,0.008,0.79999995,1.9,0,0,0.02,0.0,0.0,0.02,-1.5707965,-41536863,6,1,17
41747062,0,307872066,1038586442,565986,525707,357640600,0,0,0.0,0.0,0.008,0.008,0.79999995,1.9,0,0,0.04,0.04,0.0,0.0,-1.5707965,-41747062,6,1,17
41956159,0,307872066,1038586442,565984,525705,357640800,0,0,0.0,0.0,0.009000001,0.008,0.79999995,1.9,0,0,0.01,0.01,0.0,0.01,-1.5707965,-41956159,6,1,17
42145051,0,307872066,1038586442,565983,525704,357641000,0,0,0.0,0.0,0.009000001,0.008,0.79999995,1.9,0,0,0.04,0.0,0.0,-0.04,-1.5707965,-42145051,6,1,17
42353017,0,307872066,1038586442,565982,525703,357641200,0,0,0.0,0.0,0.009000001,0.008,0.79999995,1.9,0,0,0.07,0.01,0.01,0.06,-1.5707965,-42353017,6,1,17
42560919,0,307872066,1038586442,565982,525703,357641400,0,0,0.0,0.0,0.009000001,0.008,0.79999995,1.9,0,0,0.03,0.0,0.0,-0.03,-1.5707965,-42560919,6,1,17
42751455,0,307872066,1038586442,565981,525702,357641600,0,0,0.0,0.0,0.009000001,0.008,0.79999995,1.9,0,0,0.01,-0.01,-0.01,0.01,-1.5707965,-42751455,6,1,17
42939548,0,307872066,1038586442,565981,525702,357641800,0,0,0.0,0.0,0.009000001,0.008,0.79999995,1.9,0,0,0.03,0.0,0.01,0.02,-1.5707965,-42939548,6,1,17
43151407,0,307872066,1038586442,565987,525708,357642000,0,0,0.0,0.0,0.009000001,0.008,0.79999995,1.9,0,0,0.03,0.01,-0.01,-0.03,-1.5707965,-43151407,6,1,17
43340866,0,307872066,1038586442,565990,525711,357642200,0,0,0.0,0.0,0.009000001,0.008,0.79999995,1.9,0,0,0.02,0.0,0.01,-0.01,-1.5707965,-43340866,6,1,17
43549873,0,307872066,1038586442,565989,525710,357642400,0,0,0.0,0.0,0.009000001,0.008,0.79999995,1.9,0,0,0.049999997,0.0,0.0,-0.049999997,-1.5707965,-43549873,6,1,17
43740318,0,307872066,1038586442,565990,525711,357642600,0,0,0.0,0.0,0.009000001,0.008,0.79999995,1.9,0,0,0.049999997,0.0,0.03,0.04,-1.5707965,-43740318,6,1,17
43948867,0,307872065,1038586442,565989,525710,357642800,0,0,0.0,0.0,0.009000001,0.008,0.79999995,1.9,0,0,0.02,0.0,0.0,0.02,-1.5707965,-43948867,6,1,17
44139069,0,307872066,1038586442,565990,525711,357643000,0,0,0.0,0.0,0.009000001,0.008,0.79999995,1.9,0,0,0.06,0.0,-0.01,-0.049999997,-1.5707965,-44139069,6,1,17
44348366,0,307872066,1038586442,565987,525708,357643200,0,0,0.0,0.0,0.009000001,0.008,0.79999995,1.9,0,0,0.01,0.0,0.0,0.0,-1.5707965,-44348366,6,1,17
44537101,0,307872066,1038586442,565989,525710,357643400,0,0,0.0,0.0,0.009000001,0.008,0.79999995,1.9,0,0,0.02,0.0,-0.02,0.0,-1.5707965,-44537101,6,1,17
44745918,0,307872066,1038586442,565991,525712,357643600,0,0,0.0,0.0,0.009000001,0.008,0.79999995,1.9,0,0,0.06,0.0,0.02,0.06,-1.5707965,-44745918,6,1,17
44955060,0,307872066,1038586442,565996,525717,357643800,0,0,0.0,0.0,0.009000001,0.008,0.79999995,1.9,0,0,0.07,0.0,-0.01,-0.07,-1.5707965,-44955060,6,1,17
45145177,0,307872066,1038586442,565999,525720,357644000,0,0,0.0,0.0,0.009000001,0.008,0.79999995,1.9,0,0,0.04,0.0,0.0,-0.04,-1.5707965,-45145177,6,1,17
45355061,0,307872066,1038586442,565993,525714,357644200,0,0,0.0,0.0,0.009000001,0.008,0.79999995,1.9,0,0,0.0,0.0,0.0,0.0,-1.5707965,-45355061,6,1,17
45543951,0,307872066,1038586442,565991,525712,357644400,0,0,0.0,0.0,0.008,0.008,0.79999995,1.9,0,0,0.02,0.01,0.0,0.01,-1.5707965,-45543951,6,1,17
45753071,0,307872066,1038586442,565990,525711,357644600,0,0,0.0,0.0,0.008,0.008,0.79999995,1.9,0,0,0.03,0.02,0.0,-0.02,-1.5707965,-45753071,6,1,17
45941950,0,307872066,1038586442,565989,525710,357644800,0,0,0.0,0.0,0.009000001,0.008,0.79999995,1.9,0,0,0.01,-0.01,0.0,0.0,-1.5707965,-45941950,6,1,17
46150968,0,307872066,1038586442,565989,525710,357645000,0,0,0.0,0.0,0.009000001,0.008,0.79999995,1.9,0,0,0.03,0.01,0.0,-0.03,-1.5707965,-46150968,6,1,17
46339051,0,307872066,1038586442,565989,525710,357645200,0,0,0.0,0.0,0.009000001,0.008,0.79999995,1.9,0,0,0.02,0.0,0.0,-0.02,-1.5707965,-46339051,6,1,17
46548869,0,307872066,1038586442,565990,525712,357645400,0,0,0.0,0.0,0.009000001,0.008,0.79999995,1.9,0,0,0.01,0.01,0.0,0.0,-1.5707965,-46548869,6,1,17
46737981,0,307872066,1038586442,565992,525713,357645600,0,0,0.0,0.0,0.009000001,0.008,0.79999995,1.9,0,0,0.04,0.02,0.01,0.03,-1.5707965,-46737981,6,1,17
46945946,0,307872066,1038586442,565991,525713,357645800,0,0,0.0,0.0,0.009000001,0.008,0.79999995,1.9,0,0,0.099999994,-0.01,-0.01,0.099999994,-1.5707965,-46945946,6,1,17
47156013,0,307872066,1038586442,565995,525716,357646000,0,0,0.0,0.0,0.009000001,0.008,0.79999995,1.9,0,0,0.06,0.0,0.0,-0.06,-1.5707965,-47156013,6,1,17
47344969,0,307872066,1038586442,565999,525720,357646200,0,0,0.0,0.0,0.009000001,0.008,0.79999995,1.9,0,0,0.02,0.0,-0.01,-0.02,-1.5707965,-47344969,6,1,17
47591093,0,307872066,1038586442,565998,525719,357646400,0,0,0.0,0.0,0.009000001,0.008,0.79999995,1.62,0,0,0.01,0.0,0.0,-0.01,-1.5707965,-47591093,6,1,18
47739105,0,307872066,1038586442,565996,525717,357646600,0,0,0.0,0.0,0.008,0.008,0.79999995,1.62,0,0,0.04,0.02,0.01,-0.03,-1.5707965,-47739105,6,1,18
47985868,0,307872066,1038586442,565991,525712,357646800,0,0,0.0,0.0,0.008,0.007,0.79999995,1.62,0,0,0.06,0.0,0.0,-0.049999997,-1.5707965,-47985868,6,1,18
48155942,0,307872066,1038586442,565992,525713,357647000,0,0,0.0,0.0,0.008,0.007,0.79999995,1.62,0,0,0.06,-0.01,-0.01,-0.06,-1.5707965,-48155942,6,1,18
48380920,0,307872066,1038586442,565993,525714,357647200,0,0,0.0,0.0,0.008,0.007,0.79999995,1.62,0,0,0.01,0.0,0.0,0.01,-1.5707965,-48380920,6,1,18
48549968,0,307872066,1038586442,565998,525719,357647400,0,0,0.0,0.0,0.008,0.007,0.79999995,1.62,0,0,0.04,0.0,0.0,-0.04,-1.5707965,-48549968,6,1,18
48776918,0,307872065,1038586442,566002,525723,357647600,0,0,0.0,0.0,0.008,0.007,0.79999995,1.62,0,0,0.099999994,0.0,-0.01,-0.099999994,-1.5707965,-48776918,6,1,18
48945915,0,307872065,1038586442,566001,525722,357647800,0,0,0.0,0.0,0.008,0.007,0.79999995,1.62,0,0,0.03,0.0,-0.01,-0.03,-1.5707965,-48945915,6,1,18
49196955,0,307872066,1038586442,565999,525720,357648000,0,0,0.0,0.0,0.008,0.007,0.79999995,1.62,0,0,0.01,0.0,-0.01,0.0,-1.5707965,-49196955,6,1,18
49342948,0,307872065,1038586442,565985,525707,357648200,0,0,0.0,0.0,0.008,0.007,0.79999995,1.9,0,0,0.089999996,-0.03,0.02,0.08,-1.5707965,-49342948,6,1,17
49548867,0,307872066,1038586442,565983,525704,357648400,0,0,0.0,0.0,0.009000001,0.008,0.79999995,2.3799999,0,0,0.0,0.0,0.0,0.0,-1.5707965,-49548867,6,1,16
49754111,0,307872066,1038586442,565989,525710,357648600,0,0,0.0,0.0,0.009000001,0.008,0.79999995,2.3799999,0,0,0.06,0.03,0.02,0.049999997,-1.5707965,-49754111,6,1,16
49940252,0,307872066,1038586442,565994,525715,357648800,0,0,0.0,0.0,0.009000001,0.008,0.79999995,2.3799999,0,0,0.06,0.01,0.0,-0.06,-1.5707965,-49940252,6,1,16
50146949,0,307872065,1038586442,566000,525721,357649000,0,0,0.0,0.0,0.009000001,0.008,0.79999995,2.3799999,0,0,0.02,0.02,0.0,0.0,-1.5707965,-50146949,6,1,16
50353355,0,307872065,1038586442,566000,525721,357649200,0,0,0.0,0.0,0.009000001,0.008,0.79999995,2.3799999,0,0,0.06,0.0,0.0,-0.049999997,-1.5707965,-50353355,6,1,16
50539053,0,307872065,1038586442,566000,525721,357649400,0,0,0.0,0.0,0.009000001,0.008,0.79999995,2.3799999,0,0,0.06,-0.01,-0.01,-0.049999997,-1.5707965,-50539053,6,1,16
50745147,0,307872065,1038586442,566000,525721,357649600,0,0,0.0,0.0,0.010000001,0.009000001,0.79999995,2.3799999,0,0,0.06,-0.02,0.0,0.06,-1.5707965,-50745147,6,1,16
50951097,0,307872066,1038586442,566002,525723,357649800,0,0,0.0,0.0,0.010000001,0.009000001,0.79999995,2.3799999,0,0,0.04,0.02,0.02,-0.02,-1.5707965,-50951097,6,1,16
51137901,0,307872065,1038586442,566003,525724,357650000,0,0,0.0,0.0,0.010000001,0.009000001,0.79999995,2.3799999,0,0,0.04,0.02,0.0,0.03,-1.5707965,-51137901,6,1,16
51345865,0,307872066,1038586442,566001,525722,357650200,0,0,0.0,0.0,0.010000001,0.009000001,0.79999995,2.3799999,0,0,0.07,0.0,0.03,0.06,-1.5707965,-51345865,6,1,16
51553498,0,307872066,1038586442,566001,525722,357650400,0,0,0.0,0.0,0.009000001,0.007,0.79999995,1.78,0,0,0.06,0.02,0.03,0.04,-1.5707965,-51553498,6,1,17
51775985,0,307872066,1038586442,566001,525723,357650600,0,0,0.0,0.0,0.008,0.007,0.79999995,1.78,0,0,0.06,0.0,0.01,0.06,-1.5707965,-51775985,6,1,17
51942969,0,307872066,1038586442,566002,525723,357650800,0,0,0.0,0.0,0.008,0.007,0.79999995,1.78,0,0,0.03,0.01,-0.01,-0.02,-1.5707965,-51942969,6,1,17
52184925,0,307872066,1038586442,566001,525722,357651000,0,0,0.0,0.0,0.008,0.007,0.79999995,1.78,0,0,0.04,-0.03,0.02,0.01,-1.5707965,-52184925,6,1,17
52351932,0,307872066,1038586442,565999,525720,357651200,0,0,0.0,0.0,0.008,0.007,0.79999995,1.78,0,0,0.08,0.02,0.04,0.07,-1.5707965,-52351932,6,1,17
52573907,0,307872066,1038586442,565996,525717,357651400,0,0,0.0,0.0,0.009000001,0.007,0.79999995,1.78,0,0,0.089999996,0.01,0.0,0.089999996,-1.5707965,-52573907,6,1,17
52740930,0,307872066,1038586442,566000,525721,357651600,0,0,0.0,0.0,0.009000001,0.008,0.79999995,1.78,0,0,0.049999997,0.02,0.03,-0.02,-1.5707965,-52740930,6,1,17
52983943,0,307872066,1038586442,566000,525722,357651800,0,0,0.0,0.0,0.009000001,0.008,0.79999995,1.78,0,0,0.11,0.049999997,0.03,0.089999996,-1.5707965,-52983943,6,1,17
53151915,0,307872066,1038586442,566006,525727,357652000,0,0,0.0,0.0,0.009000001,0.008,0.79999995,1.78,0,0,0.19,0.02,0.01,-0.17999999,-1.5707965,-53151915,6,1,17
53373093,0,307872065,1038586442,566006,525727,357652200,0,0,0.0,0.0,0.009000001,0.008,0.79999995,1.78,0,0,0.03,-0.02,-0.02,0.0,-1.5707965,-53373093,6,1,17
53576103,0,307872065,1038586442,566010,525731,357652400,0,0,0.0,0.0,0.009000001,0.008,0.79999995,1.78,0,0,0.12,-0.01,-0.02,-0.11,-1.5707965,-53576103,6,1,17
53779895,0,307872066,1038586442,566013,525734,357652600,0,0,0.0,0.0,0.009000001,0.008,0.79999995,1.78,0,0,0.07,-0.01,-0.01,0.06,-1.5707965,-53779895,6,1,17
53979938,0,307872066,1038586442,566010,525731,357652800,0,0,0.0,0.0,0.009000001,0.008,0.79999995,1.78,0,0,0.08,0.02,0.01,0.07,-1.5707965,-53979938,6,1,17
54181915,0,307872066,1038586442,566014,525736,357653000,0,0,0.0,0.0,0.009000001,0.008,0.79999995,1.78,0,0,0.02,-0.01,-0.01,0.01,-1.5707965,-54181915,6,1,17
54384922,0,307872065,1038586442,566012,525733,357653200,0,0,0.0,0.0,0.009000001,0.008,0.79999995,1.78,0,0,0.049999997,-0.04,-0.01,-0.01,-1.5707965,-54384922,6,1,17
54588217,0,307872066,1038586442,566007,525728,357653400,0,0,0.0,0.0,0.009000001,0.008,0.79999995,1.78,0,0,0.04,0.0,0.0,0.04,-1.5707965,-54588217,6,1,17
54789863,0,307872066,1038586442,566010,525731,357653600,0,0,0.0,0.0,0.010000001,0.009000001,0.79999995,1.78,0,0,0.12,0.01,0.01,-0.12,-1.5707965,-54789863,6,1,17
54971935,0,307872066,1038586442,566007,525728,357653800,0,0,0.0,0.0,0.010000001,0.009000001,0.79999995,1.78,0,0,0.17,-0.02,0.02,0.17,-1.5707965,-54971935,6,1,17
55177883,0,307872066,1038586442,566007,525728,357654000,0,0,0.0,0.0,0.010000001,0.009000001,0.79999995,1.78,0,0,0.08,-0.01,-0.02,-0.08,-1.5707965,-55177883,6,1,17
55380751,0,307872066,1038586442,566007,525728,357654200,0,0,0.0,0.0,0.010000001,0.009000001,0.79999995,1.78,0,0,0.07,0.049999997,0.0,0.04,-1.5707965,-55380751,6,1,17
55581870,0,307872065,1038586442,566005,525727,357654400,0,0,0.0,0.0,0.010000001,0.009000001,0.79999995,1.78,0,0,0.089999996,0.0,0.0,-0.089999996,-1.5707965,-55581870,6,1,17
55782953,0,307872066,1038586442,566001,525722,357654600,0,0,0.0,0.0,0.010000001,0.009000001,0.79999995,1.78,0,0,0.03,0.02,0.01,-0.02,-1.5707965,-55782953,6,1,17
55987083,0,307872065,1038586442,566001,525722,357654800,0,0,0.0,0.0,0.010000001,0.009000001,0.79999995,1.78,0,0,0.02,0.02,0.01,0.0,-1.5707965,-55987083,6,1,17
56153869,0,307872065,1038586442,566000,525721,357655000,0,0,0.0,0.0,0.010000001,0.008,0.79999995,2.3899999,0,0,0.04,-0.01,-0.01,0.04,-1.5707965,-56153869,6,1,16
56339926,0,307872065,1038586442,566005,525727,357655200,0,0,0.0,0.0,0.009000001,0.008,0.79999995,2.3899999,0,0,0.04,0.01,0.0,0.03,-1.5707965,-56339926,6,1,16
56546967,0,307872065,1038586442,566011,525732,357655400,0,0,0.0,0.0,0.010000001,0.008,0.79999995,2.3899999,0,0,0.03,0.0,0.0,-0.03,-1.5707965,-56546967,6,1,16
56753124,0,307872066,1038586442,566019,525740,357655600,0,0,0.0,0.0,0.010000001,0.009000001,0.79999995,2.3899999,0,0,0.16,0.06,0.0,-0.14999999,-1.5707965,-56753124,6,1,16
56939042,0,307872065,1038586442,566021,525743,357655800,0,0,0.0,0.0,0.010000001,0.009000001,0.79999995,2.3899999,0,0,0.099999994,0.01,0.0,-0.099999994,-1.5707965,-56939042,6,1,16
57147060,0,307872065,1038586442,566016,525737,357656000,0,0,0.0,0.0,0.010000001,0.009000001,0.79999995,2.3899999,0,0,0.02,0.0,-0.02,0.0,-1.5707965,-57147060,6,1,16
57353513,0,307872066,1038586442,566004,525725,357656200,0,0,0.0,0.0,0.009000001,0.008,0.79999995,2.3899999,0,0,0.04,-0.02,-0.02,0.02,-1.5707965,-57353513,6,1,16
57538969,0,307872066,1038586442,566001,525722,357656400,0,0,0.0,0.0,0.009000001,0.008,0.79999995,2.3899999,0,0,0.049999997,0.02,0.0,0.04,-1.5707965,-57538969,6,1,16
57746220,0,307872066,1038586442,566000,525721,357656600,0,0,0.0,0.0,0.009000001,0.008,0.79999995,2.3899999,0,0,0.07,0.03,0.01,0.06,-1.5707965,-57746220,6,1,16
57951109,0,307872066,1038586442,566000,525721,357656800,0,0,0.0,0.0,0.009000001,0.008,0.79999995,2.3899999,0,0,0.02,0.01,0.0,-0.01,-1.5707965,-57951109,6,1,16
58138220,0,307872066,1038586442,565995,525716,357657000,0,0,0.0,0.0,0.009000001,0.008,0.79999995,2.3899999,0,0,0.12,0.0,0.01,0.12,-1.5707965,-58138220,6,1,16
58345066,0,307872066,1038586442,565998,525719,357657200,0,0,0.0,0.0,0.009000001,0.008,0.79999995,2.3899999,0,0,0.11,-0.01,0.0,0.11,-1.5707965,-58345066,6,1,16
58551219,0,307872066,1038586442,566003,525724,357657400,0,0,0.0,0.0,0.010000001,0.008,0.79999995,2.3899999,0,0,0.14,-0.01,0.0,-0.14,-1.5707965,-58551219,6,1,16
58737867,0,307872066,1038586442,566000,525721,357657600,0,0,0.0,0.0,0.010000001,0.009000001,0.79999995,2.3899999,0,0,0.03,0.0,0.03,0.0,-1.5707965,-58737867,6,1,16
58945032,0,307872066,1038586442,566002,525723,357657800,0,0,0.0,0.0,0.010000001,0.009000001,0.79999995,2.3899999,0,0,0.049999997,-0.01,0.0,0.049999997,-1.5707965,-58945032,6,1,16
59153912,0,307872066,1038586442,566004,525725,357658000,0,0,0.0,0.0,0.010000001,0.009000001,0.79999995,2.3899999,0,0,0.099999994,0.01,0.01,0.089999996,-1.5707965,-59153912,6,1,16
59340867,0,307872066,1038586442,566010,525731,357658200,0,0,0.0,0.0,0.009000001,0.008,0.79999995,2.3899999,0,0,0.07,-0.04,-0.04,-0.04,-1.5707965,-59340867,6,1,16
59547934,0,307872066,1038586442,566014,525735,357658400,0,0,0.0,0.0,0.009000001,0.008,0.79999995,2.3899999,0,0,0.02,0.0,-0.01,0.02,-1.5707965,-59547934,6,1,16
59755906,0,307872066,1038586442,566015,525736,357658600,0,0,0.0,0.0,0.009000001,0.008,0.79999995,2.3899999,0,0,0.04,0.0,0.01,-0.04,-1.5707965,-59755906,6,1,16
59944167,0,307872066,1038586442,566012,525734,357658800,0,0,0.0,0.0,0.009000001,0.008,0.79999995,2.3899999,0,0,0.02,-0.01,0.0,0.02,-1.5707965,-59944167,6,1,16
60149868,0,307872066,1038586442,566014,525735,357659000,0,0,0.0,0.0,0.009000001,0.008,0.79999995,2.3899999,0,0,0.02,0.0,0.02,0.0,-1.5707965,-60149868,6,1,16
60337987,0,307872066,1038586442,566016,525737,357659200,0,0,0.0,0.0,0.009000001,0.008,0.79999995,2.3899999,0,0,0.04,0.0,0.02,0.02,-1.5707965,-60337987,6,1,16
60545916,0,307872066,1038586442,566014,525736,357659400,0,0,0.0,0.0,0.010000001,0.008,0.79999995,2.3899999,0,0,0.04,0.03,0.0,-0.01,-1.5707965,-60545916,6,1,16
60755888,0,307872066,1038586442,566016,525738,357659600,0,0,0.0,0.0,0.010000001,0.009000001,0.79999995,2.3899999,0,0,0.07,-0.01,0.0,-0.07,-1.5707965,-60755888,6,1,16
60945046,0,307872066,1038586442,566018,525739,357659800,0,0,0.0,0.0,0.010000001,0.009000001,0.79999995,2.3899999,0,0,0.03,0.02,-0.01,-0.02,-1.5707965,-60945046,6,1,16
61155046,0,307872066,1038586442,566023,525744,357660000,0,0,0.0,0.0,0.010000001,0.009000001,0.79999995,2.3899999,0,0,0.049999997,0.01,0.01,-0.049999997,-1.5707965,-61155046,6,1,16
61341868,0,307872066,1038586442,566023,525744,357660200,0,0,0.0,0.0,0.010000001,0.009000001,0.79999995,2.3899999,0,0,0.04,0.03,0.02,-0.01,-1.5707965,-61341868,6,1,16
61548711,0,307872066,1038586442,566018,525739,357660400,0,0,0.0,0.0,0.009000001,0.008,0.79999995,2.3899999,0,0,0.089999996,-0.03,0.0,0.08,-1.5707965,-61548711,6,1,16
61753615,0,307872066,1038586442,566011,525732,357660600,0,0,0.0,0.0,0.009000001,0.008,0.79999995,2.3899999,0,0,0.04,-0.02,0.0,0.03,-1.5707965,-61753615,6,1,16
61939064,0,307872066,1038586442,566010,525731,357660800,0,0,0.0,0.0,0.009000001,0.008,0.79999995,2.3899999,0,0,0.08,0.0,0.01,0.08,-1.5707965,-61939064,6,1,16
62145843,0,307872066,1038586442,566011,525733,357661000,0,0,0.0,0.0,0.009000001,0.008,0.79999995,2.3899999,0,0,0.11,0.0,0.0,-0.11,-1.5707965,-62145843,6,1,16
62351920,0,307872066,1038586442,566004,525725,357661200,0,0,0.0,0.0,0.009000001,0.008,0.79999995,2.3899999,0,0,0.06,0.01,0.0,-0.049999997,-1.5707965,-62351920,6,1,16
62537976,0,307872065,1038586442,566005,525726,357661400,0,0,0.0,0.0,0.010000001,0.008,0.79999995,2.3899999,0,0,0.03,-0.02,0.0,0.02,-1.5707965,-62537976,6,1,16
62743970,0,307872066,1038586442,566011,525732,357661600,0,0,0.0,0.0,0.010000001,0.009000001,0.79999995,2.3899999,0,0,0.12,0.01,0.0,-0.12,-1.5707965,-62743970,6,1,16
62950966,0,307872066,1038586442,566014,525736,357661800,0,0,0.0,0.0,0.010000001,0.009000001,0.79999995,2.3899999,0,0,0.049999997,0.04,0.02,-0.01,-1.5707965,-62950966,6,1,16
63138625,0,307872065,1038586442,566015,525736,357662000,0,0,0.0,0.0,0.010000001,0.009000001,0.79999995,2.3899999,0,0,0.049999997,-0.03,-0.02,0.02,-1.5707965,-63138625,6,1,16
63343984,0,307872066,1038586442,566017,525739,357662200,0,0,0.0,0.0,0.010000001,0.009000001,0.79999995,2.3899999,0,0,0.01,0.01,0.0,-0.01,-1.5707965,-63343984,6,1,16
63550285,0,307872066,1038586442,566021,525743,357662400,0,0,0.0,0.0,0.010000001,0.009000001,0.79999995,2.3899999,0,0,0.16,0.02,-0.04,-0.14999999,-1.5707965,-63550285,6,1,16
63735129,0,307872066,1038586442,566024,525745,357662600,0,0,0.0,0.0,0.010000001,0.009000001,0.79999995,2.3899999,0,0,0.07,-0.02,0.0,0.07,-1.5707965,-63735129,6,1,16
63942304,0,307872066,1038586442,566020,525741,357662800,0,0,0.0,0.0,0.010000001,0.009000001,0.79999995,2.3899999,0,0,0.02,0.02,0.0,-0.01,-1.5707965,-63942304,6,1,16
64147996,0,307872066,1038586442,566029,525750,357663000,0,0,0.0,0.0,0.011000001,0.009000001,0.79999995,2.3899999,0,0,0.01,-0.01,0.0,0.0,-1.5707965,-64147996,6,1,16
64355548,0,307872066,1038586442,566030,525752,357663200,0,0,0.0,0.0,0.011000001,0.010000001,0.79999995,2.3899999,0,0,0.049999997,-0.03,-0.02,-0.02,-1.5707965,-64355548,6,1,16
64540021,0,307872066,1038586442,566026,525747,357663400,0,0,0.0,0.0,0.010000001,0.009000001,0.79999995,2.3899999,0,0,0.03,0.0,0.0,-0.03,-1.5707965,-64540021,6,1,16
64745866,0,307872066,1038586442,566015,525737,357663600,0,0,0.0,0.0,0.010000001,0.009000001,0.79999995,2.3899999,0,0,0.03,-0.03,0.01,0.01,-1.5707965,-64745866,6,1,16
64951183,0,307872066,1038586442,566014,525735,357663800,0,0,0.0,0.0,0.010000001,0.009000001,0.79999995,2.3899999,0,0,0.049999997,0.0,0.0,-0.049999997,-1.5707965,-64951183,6,1,16
65137869,0,307872066,1038586442,566019,525740,357664000,0,0,0.0,0.0,0.010000001,0.009000001,0.79999995,2.3899999,0,0,0.089999996,0.0,0.0,-0.089999996,-1.5707965,-65137869,6,1,16
65343941,0,307872066,1038586442,566018,525740,357664200,0,0,0.0,0.0,0.009000001,0.008,0.79999995,2.3899999,0,0,0.01,0.0,0.01,0.01,-1.5707965,-65343941,6,1,16
65549899,0,307872066,1038586442,566019,525740,357664400,0,0,0.0,0.0,0.009000001,0.008,0.79999995,2.3899999,0,0,0.07,0.0,0.0,0.07,-1.5707965,-65549899,6,1,16
65756176,0,307872066,1038586442,566020,525741,357664600,0,0,0.0,0.0,0.009000001,0.008,0.79999995,2.3899999,0,0,0.02,0.02,0.0,0.01,-1.5707965,-65756176,6,1,16
65940219,0,307872066,1038586442,566017,525738,357664800,0,0,0.0,0.0,0.009000001,0.008,0.79999995,2.3899999,0,0,0.03,0.02,0.0,-0.01,-1.5707965,-65940219,6,1,16
66145870,0,307872066,1038586442,566011,525732,357665000,0,0,0.0,0.0,0.009000001,0.008,0.79999995,2.3899999,0,0,0.01,0.0,0.01,0.0,-1.5707965,-66145870,6,1,16
66351996,0,307872066,1038586442,566007,525728,357665200,0,0,0.0,0.0,0.009000001,0.008,0.79999995,2.3899999,0,0,0.06,0.0,0.0,0.06,-1.5707965,-66351996,6,1,16
66573926,0,307872065,1038586442,566008,525730,357665400,0,0,0.0,0.0,0.010000001,0.008,0.79999995,2.08,0,0,0.16,0.0,0.0,-0.16,-1.5707965,-66573926,6,1,17
66741193,0,307872065,1038586442,566010,525732,357665600,0,0,0.0,0.0,0.010000001,0.008,0.79999995,2.08,0,0,0.01,0.0,-0.01,0.0,-1.5707965,-66741193,6,1,17
66980967,0,307872066,1038586442,566010,525731,357665800,0,0,0.0,0.0,0.010000001,0.008,0.79999995,2.08,0,0,0.04,0.02,0.03,-0.01,-1.5707965,-66980967,6,1,17
67148980,0,307872066,1038586442,566014,525735,357666000,0,0,0.0,0.0,0.010000001,0.008,0.79999995,2.08,0,0,0.089999996,0.01,0.01,0.089999996,-1.5707965,-67148980,6,1,17
67394208,0,307872066,1038586442,566007,525728,357666200,0,0,0.0,0.0,0.009000001,0.008,0.79999995,2.08,0,0,0.04,0.01,0.0,-0.04,-1.5707965,-67394208,6,1,17
67538973,0,307872066,1038586442,566007,525728,357666400,0,0,0.0,0.0,0.009000001,0.008,0.79999995,2.08,0,0,0.06,-0.01,0.02,-0.049999997,-1.5707965,-67538973,6,1,17
67747977,0,307872066,1038586442,566008,525729,357666600,0,0,0.0,0.0,0.009000001,0.007,0.79999995,2.08,0,0,0.07,0.02,-0.01,-0.07,-1.5707965,-67747977,6,1,17
67955143,0,307872066,1038586442,566007,525728,357666800,0,0,0.0,0.0,0.009000001,0.008,0.79999995,2.08,0,0,0.04,0.01,-0.01,-0.04,-1.5707965,-67955143,6,1,17
68147046,0,307872066,1038586442,566004,525725,357667000,0,0,0.0,0.0,0.009000001,0.007,0.79999995,1.78,0,0,0.02,0.0,0.01,-0.02,-1.5707965,-68147046,6,1,18
68357877,0,307872066,1038586442,566003,525724,357667200,0,0,0.0,0.0,0.009000001,0.007,0.79999995,1.78,0,0,0.03,0.0,0.03,0.0,-1.5707965,-68357877,6,1,18
68547902,0,307872066,1038586442,566002,525723,357667400,0,0,0.0,0.0,0.009000001,0.007,0.79999995,1.78,0,0,0.11,0.0,0.0,0.11,-1.5707965,-68547902,6,1,18
68759116,0,307872066,1038586442,566003,525724,357667600,0,0,0.0,0.0,0.009000001,0.007,0.79999995,1.78,0,0,0.04,-0.02,-0.03,-0.02,-1.5707965,-68759116,6,1,18
68951145,0,307872066,1038586442,566009,525730,357667800,0,0,0.0,0.0,0.009000001,0.008,0.79999995,1.78,0,0,0.07,0.0,-0.01,-0.07,-1.5707965,-68951145,6,1,18
69143249,0,307872066,1038586442,566010,525731,357668000,0,0,0.0,0.0,0.009000001,0.008,0.79999995,1.78,0,0,0.06,0.01,0.01,-0.06,-1.5707965,-69143249,6,1,18
69355495,0,307872066,1038586442,566007,525729,357668200,0,0,0.0,0.0,0.009000001,0.008,0.79999995,1.78,0,0,0.099999994,0.02,0.01,0.099999994,-1.5707965,-69355495,6,1,18
69547064,0,307872066,1038586442,566009,525730,357668400,0,0,0.0,0.0,0.009000001,0.008,0.79999995,1.78,0,0,0.08,0.01,0.0,-0.08,-1.5707965,-69547064,6,1,18
69758978,0,307872066,1038586442,566006,525727,357668600,0,0,0.0,0.0,0.009000001,0.008,0.79999995,1.78,0,0,0.07,0.04,0.0,0.06,-1.5707965,-69758978,6,1,18
69948996,0,307872066,1038586442,566007,525728,357668800,0,0,0.0,0.0,0.009000001,0.008,0.79999995,1.78,0,0,0.06,0.02,0.03,0.049999997,-1.5707965,-69948996,6,1,18
70160087,0,307872066,1038586442,566004,525725,357669000,0,0,0.0,0.0,0.010000001,0.008,0.79999995,1.78,0,0,0.089999996,0.01,0.02,0.089999996,-1.5707965,-70160087,6,1,18
70348042,0,307872066,1038586442,566013,525734,357669200,0,0,0.0,0.0,0.010000001,0.009000001,0.79999995,2.08,0,0,0.049999997,0.02,0.02,0.04,-1.5707965,-70348042,6,1,17
70556864,0,307872066,1038586442,566021,525742,357669400,0,0,0.0,0.0,0.011000001,0.009000001,0.79999995,2.08,0,0,0.08,0.02,0.01,0.08,-1.5707965,-70556864,6,1,17
70744021,0,307872066,1038586442,566027,525748,357669600,0,0,0.0,0.0,0.011000001,0.009000001,0.79999995,2.08,0,0,0.07,0.01,0.01,0.07,-1.5707965,-70744021,6,1,17
70952908,0,307872066,1038586442,566029,525750,357669800,0,0,0.0,0.0,0.011000001,0.009000001,0.79999995,2.08,0,0,0.07,0.02,0.0,0.06,-1.5707965,-70952908,6,1,17
71143929,0,307872065,1038586442,566026,525747,357670000,0,0,0.0,0.0,0.011000001,0.009000001,0.79999995,2.08,0,0,0.02,0.0,-0.02,0.01,-1.5707965,-71143929,6,1,17
71352082,0,307872065,1038586442,566020,525742,357670200,0,0,0.0,0.0,0.010000001,0.008,0.79999995,2.08,0,0,0.0,0.0,0.0,0.0,-1.5707965,-71352082,6,1,17
71541871,0,307872066,1038586442,566030,525751,357670400,0,0,0.0,0.0,0.010000001,0.008,0.79999995,2.08,0,0,0.17999999,0.01,-0.02,-0.17999999,-1.5707965,-71541871,6,1,17
71752186,0,307872065,1038586442,566028,525749,357670600,0,0,0.0,0.0,0.010000001,0.008,0.79999995,2.08,0,0,0.099999994,0.04,0.03,0.089999996,-1.5707965,-71752186,6,1,17
71941870,0,307872065,1038586442,566031,525752,357670800,0,0,0.0,0.0,0.010000001,0.008,0.79999995,2.08,0,0,0.0,0.0,0.0,0.0,-1.5707965,-71941870,6,1,17
72152983,0,307872065,1038586442,566028,525750,357671000,0,0,0.0,0.0,0.010000001,0.009000001,0.79999995,2.08,0,0,0.089999996,0.0,0.01,0.089999996,-1.5707965,-72152983,6,1,17
72343147,0,307872065,1038586442,566028,525749,357671200,0,0,0.0,0.0,0.010000001,0.009000001,0.79999995,2.08,0,0,0.03,-0.01,0.0,0.03,-1.5707965,-72343147,6,1,17
72553154,0,307872065,1038586442,566032,525753,357671400,0,0,0.0,0.0,0.011000001,0.009000001,0.79999995,2.08,0,0,0.17,0.0,-0.02,-0.16,-1.5707965,-72553154,6,1,17
72744880,0,307872065,1038586442,566031,525752,357671600,0,0,0.0,0.0,0.011000001,0.009000001,0.79999995,2.08,0,0,0.02,0.01,0.0,-0.01,-1.5707965,-72744880,6,1,17
72952971,0,307872065,1038586442,566026,525747,357671800,0,0,0.0,0.0,0.011000001,0.009000001,0.79999995,2.08,0,0,0.049999997,0.01,0.01,0.049999997,-1.5707965,-72952971,6,1,17
73145923,0,307872066,1038586442,566028,525749,357672000,0,0,0.0,0.0,0.011000001,0.009000001,0.79999995,2.08,0,0,0.049999997,-0.01,-0.01,-0.049999997,-1.5707965,-73145923,6,1,17
73357453,0,307872066,1038586442,566013,525734,357672200,0,0,0.0,0.0,0.009000001,0.008,0.79999995,2.08,0,0,0.06,0.02,0.06,-0.01,-1.5707965,-73357453,6,1,17
73547136,0,307872066,1038586442,566001,525722,357672400,0,0,0.0,0.0,0.009000001,0.007,0.79999995,2.08,0,0,0.089999996,0.02,-0.02,0.089999996,-1.5707965,-73547136,6,1,17
73757926,0,307872066,1038586442,566002,525723,357672600,0,0,0.0,0.0,0.009000001,0.008,0.79999995,2.08,0,0,0.06,0.0,0.03,0.049999997,-1.5707965,-73757926,6,1,17
73949648,0,307872066,1038586442,566004,525725,357672800,0,0,0.0,0.0,0.009000001,0.008,0.79999995,2.08,0,0,0.099999994,-0.01,0.0,0.099999994,-1.5707965,-73949648,6,1,17
74139917,0,307872066,1038586442,566006,525727,357673000,0,0,0.0,0.0,0.009000001,0.008,0.79999995,2.08,0,0,0.01,0.0,-0.01,0.0,-1.5707965,-74139917,6,1,17
74349900,0,307872066,1038586442,566012,525733,357673200,0,0,0.0,0.0,0.009000001,0.008,0.79999995,2.08,0,0,0.02,0.0,0.01,-0.01,-1.5707965,-74349900,6,1,17
74541556,0,307872066,1038586442,566009,525730,357673400,0,0,0.0,0.0,0.009000001,0.008,0.79999995,2.08,0,0,0.03,0.0,0.01,0.03,-1.5707965,-74541556,6,1,17
74752000,0,307872066,1038586442,566013,525734,357673600,0,0,0.0,0.0,0.009000001,0.008,0.79999995,2.08,0,0,0.06,0.04,0.03,0.03,-1.5707965,-74752000,6,1,17
74940866,0,307872066,1038586443,566007,525728,357673800,0,0,0.0,0.0,0.009000001,0.008,0.79999995,2.08,0,0,0.06,0.0,0.04,0.049999997,-1.5707965,-74940866,6,1,17
75155081,0,307872066,1038586442,566005,525726,357674000,0,0,0.0,0.0,0.010000001,0.008,0.79999995,2.08,0,0,0.14,0.04,0.03,0.13,-1.5707965,-75155081,6,1,17
75347920,0,307872066,1038586442,566005,525727,357674200,0,0,0.0,0.0,0.010000001,0.008,0.79999995,2.08,0,0,0.049999997,0.049999997,0.0,0.02,-1.5707965,-75347920,6,1,17
75559981,0,307872066,1038586443,566007,525728,357674400,0,0,0.0,0.0,0.010000001,0.008,0.79999995,2.08,0,0,0.0,0.0,0.0,0.0,-1.5707965,-75559981,6,1,17
75752137,0,307872066,1038586443,566005,525726,357674600,0,0,0.0,0.0,0.010000001,0.008,0.79999995,2.08,0,0,0.04,0.02,0.02,0.02,-1.5707965,-75752137,6,1,17
75943081,0,307872066,1038586442,566008,525730,357674800,0,0,0.0,0.0,0.010000001,0.008,0.79999995,2.08,0,0,0.03,-0.01,0.01,-0.02,-1.5707965,-75943081,6,1,17
76156016,0,307872066,1038586442,566009,525730,357675000,0,0,0.0,0.0,0.010000001,0.009000001,0.79999995,2.08,0,0,0.03,0.0,0.0,0.03,-1.5707965,-76156016,6,1,17
76347943,0,307872066,1038586442,566007,525729,357675200,0,0,0.0,0.0,0.010000001,0.009000001,0.79999995,2.08,0,0,0.099999994,0.01,0.0,0.099999994,-1.5707965,-76347943,6,1,17
76557895,0,307872066,1038586443,566005,525726,357675400,0,0,0.0,0.0,0.011000001,0.009000001,0.79999995,2.08,0,0,0.17,0.0,0.02,0.16,-1.5707965,-76557895,6,1,17
76751910,0,307872066,1038586442,566006,525727,357675600,0,0,0.0,0.0,0.011000001,0.009000001,0.79999995,2.08,0,0,0.04,0.0,-0.01,0.03,-1.5707965,-76751910,6,1,17
76943757,0,307872066,1038586443,566014,525735,357675800,0,0,0.0,0.0,0.011000001,0.009000001,0.79999995,2.08,0,0,0.089999996,0.02,0.02,-0.08,-1.5707965,-76943757,6,1,17
77156928,0,307872066,1038586443,566013,525734,357676000,0,0,0.0,0.0,0.011000001,0.009000001,0.79999995,2.08,0,0,0.12,0.049999997,0.01,-0.11,-1.5707965,-77156928,6,1,17
77348966,0,307872066,1038586442,566018,525739,357676200,0,0,0.0,0.0,0.010000001,0.008,0.79999995,2.08,0,0,0.01,0.0,0.0,-0.01,-1.5707965,-77348966,6,1,17
77540239,0,307872066,1038586442,566020,525741,357676400,0,0,0.0,0.0,0.009000001,0.008,0.79999995,2.08,0,0,0.04,0.01,0.0,0.04,-1.5707965,-77540239,6,1,17
77751956,0,307872066,1038586442,566020,525742,357676600,0,0,0.0,0.0,0.009000001,0.008,0.79999995,2.08,0,0,0.01,0.0,0.0,-0.01,-1.5707965,-77751956,6,1,17
77944827,0,307872066,1038586442,566016,525737,357676800,0,0,0.0,0.0,0.009000001,0.008,0.79999995,2.08,0,0,0.089999996,0.04,0.01,0.07,-1.5707965,-77944827,6,1,17
78157012,0,307872066,1038586442,566021,525742,357677000,0,0,0.0,0.0,0.009000001,0.008,0.79999995,2.08,0,0,0.049999997,-0.01,0.02,-0.04,-1.5707965,-78157012,6,1,17
78349008,0,307872066,1038586442,566017,525738,357677200,0,0,0.0,0.0,0.009000001,0.008,0.79999995,2.08,0,0,0.04,0.03,0.02,0.02,-1.5707965,-78349008,6,1,17
78560733,0,307872066,1038586442,566021,525742,357677400,0,0,0.0,0.0,0.009000001,0.008,0.79999995,2.08,0,0,0.07,0.0,0.0,0.07,-1.5707965,-78560733,6,1,17
78752690,0,307872066,1038586442,566019,525740,357677600,0,0,0.0,0.0,0.009000001,0.008,0.79999995,2.08,0,0,0.01,0.0,0.0,0.01,-1.5707965,-78752690,6,1,17
78944002,0,307872066,1038586443,566012,525733,357677800,0,0,0.0,0.0,0.009000001,0.008,0.79999995,2.08,0,0,0.099999994,0.049999997,0.02,0.08,-1.5707965,-78944002,6,1,17
79157961,0,307872066,1038586442,566015,525736,357678000,0,0,0.0,0.0,0.010000001,0.008,0.79999995,2.08,0,0,0.02,0.01,0.0,-0.01,-1.5707965,-79157961,6,1,17
79351068,0,307872065,1038586442,566009,525730,357678200,0,0,0.0,0.0,0.009000001,0.008,0.79999995,2.08,0,0,0.04,0.0,0.0,0.04,-1.5707965,-79351068,6,1,17
79543076,0,307872065,1038586442,566010,525731,357678400,0,0,0.0,0.0,0.009000001,0.007,0.79999995,2.08,0,0,0.16,-0.06,-0.01,-0.14,-1.5707965,-79543076,6,1,17
79753920,0,307872065,1038586442,566014,525735,357678600,0,0,0.0,0.0,0.009000001,0.007,0.79999995,2.08,0,0,0.06,0.02,0.0,-0.06,-1.5707965,-79753920,6,1,17
79946965,0,307872066,1038586442,566016,525737,357678800,0,0,0.0,0.0,0.009000001,0.008,0.79999995,2.08,0,0,0.06,0.04,0.02,-0.04,-1.5707965,-79946965,6,1,17
80157866,0,307872065,1038586442,566012,525733,357679000,0,0,0.0,0.0,0.009000001,0.008,0.79999995,2.08,0,0,0.089999996,0.03,0.02,0.08,-1.5707965,-80157866,6,1,17
80350459,0,307872065,1038586442,566009,525730,357679200,0,0,0.0,0.0,0.009000001,0.008,0.79999995,2.08,0,0,0.02,-0.02,0.0,0.01,-1.5707965,-80350459,6,1,17
80542667,0,307872065,1038586442,566011,525732,357679400,0,0,0.0,0.0,0.009000001,0.008,0.79999995,2.08,0,0,0.04,-0.02,0.01,-0.04,-1.5707965,-80542667,6,1,17
80752988,0,307872065,1038586442,566011,525732,357679600,0,0,0.0,0.0,0.009000001,0.008,0.79999995,2.08,0,0,0.02,0.0,0.0,-0.01,-1.5707965,-80752988,6,1,17
80944923,0,307872065,1038586442,566011,525732,357679800,0,0,0.0,0.0,0.009000001,0.008,0.79999995,2.08,0,0,0.02,0.02,0.0,0.0,-1.5707965,-80944923,6,1,17
81158605,0,307872065,1038586442,566012,525733,357680000,0,0,0.0,0.0,0.010000001,0.008,0.79999995,2.08,0,0,0.02,0.0,0.0,-0.01,-1.5707965,-81158605,6,1,17
81350463,0,307872065,1038586442,566011,525732,357680200,0,0,0.0,0.0,0.010000001,0.008,0.79999995,2.08,0,0,0.06,0.03,0.02,-0.049999997,-1.5707965,-81350463,6,1,17
