timestamp,rollspeed,pitchspeed,yawspeed,q[0],q[1],q[2],q[3],delta_q_reset[0],delta_q_reset[1],delta_q_reset[2],delta_q_reset[3],quat_reset_counter
52490682,0.0,0.0,0.0,0.9915067,0.013069374,-0.12939675,-0.0003651086,0.0,0.0,0.0,0.0,0
52522804,0.0,0.0,0.0,0.99151003,0.013093808,-0.12936923,-0.0003446493,0.0,0.0,0.0,0.0,0
52556689,0.0,0.0,0.0,0.9915146,0.013054388,-0.12933737,-0.0003650038,0.0,0.0,0.0,0.0,0
52590687,0.0,0.0,0.0,0.9915049,0.01314735,-0.1294023,-0.0003780945,0.0,0.0,0.0,0.0,0
52624795,0.0,0.0,0.0,0.9915048,0.013151217,-0.12940289,-0.00038583204,0.0,0.0,0.0,0.0,0
52655799,0.0,0.0,0.0,0.9914939,0.013169461,-0.1294848,-0.00036530933,0.0,0.0,0.0,0.0,0
52690732,0.0,0.0,0.0,0.9914896,0.013193876,-0.12951441,-0.00033984942,0.0,0.0,0.0,0.0,0
52723837,0.0,0.0,0.0,0.9914878,0.013204402,-0.12952788,-0.0003173652,0.0,0.0,0.0,0.0,0
52756888,0.0,0.0,0.0,0.9914929,0.01320366,-0.12948823,-0.0003327893,0.0,0.0,0.0,0.0,0
52793742,0.0,0.0,0.0,0.9914938,0.013233487,-0.12947848,-0.00034146805,0.0,0.0,0.0,0.0,0
52822779,0.0,0.0,0.0,0.99149203,0.013211889,-0.12949441,-0.00036915884,0.0,0.0,0.0,0.0,0
52855107,0.0,0.0,0.0,0.99149436,0.013218108,-0.12947632,-0.00036860738,0.0,0.0,0.0,0.0,0
52890778,0.0,0.0,0.0,0.9914896,0.013245033,-0.12950994,-0.00042607693,0.0,0.0,0.0,0.0,0
52922799,0.0,0.0,0.0,0.99149394,0.01324094,-0.12947729,-0.00043486874,0.0,0.0,0.0,0.0,0
52956752,0.0,0.0,0.0,0.9914898,0.0132364975,-0.12950869,-0.0004666017,0.0,0.0,0.0,0.0,0
52989815,0.0,0.0,0.0,0.9914805,0.013239717,-0.12957968,-0.0004876966,0.0,0.0,0.0,0.0,0
53024696,0.0,0.0,0.0,0.99148256,0.0132204695,-0.12956549,-0.00047380055,0.0,0.0,0.0,0.0,0
53055763,0.0,0.0,0.0,0.9914841,0.013244977,-0.12955144,-0.00047893566,0.0,0.0,0.0,0.0,0
53089823,0.0,0.0,0.0,0.9914812,0.013275201,-0.12957019,-0.0004619325,0.0,0.0,0.0,0.0,0
53122802,0.0,0.0,0.0,0.9914819,0.013275032,-0.12956461,-0.0004697045,0.0,0.0,0.0,0.0,0
53160738,0.0,0.0,0.0,0.99147326,0.013275918,-0.12963124,-0.0004732703,0.0,0.0,0.0,0.0,0
53189789,0.0,0.0,0.0,0.9914736,0.013276265,-0.1296281,-0.00046897086,0.0,0.0,0.0,0.0,0
53222802,0.0,0.0,0.0,0.99146813,0.013280611,-0.12966973,-0.0004969629,0.0,0.0,0.0,0.0,0
53255830,0.0,0.0,0.0,0.9914737,0.0133113945,-0.12962483,-0.00050079555,0.0,0.0,0.0,0.0,0
53289733,0.0,0.0,0.0,0.9914742,0.013295992,-0.12962174,-0.0005112195,0.0,0.0,0.0,0.0,0
53323204,0.0,0.0,0.0,0.99147177,0.013297692,-0.12964,-0.00052316475,0.0,0.0,0.0,0.0,0
53357740,0.0,0.0,0.0,0.99147934,0.013276191,-0.12958468,-0.00048483245,0.0,0.0,0.0,0.0,0
53389760,0.0,0.0,0.0,0.99148095,0.013281744,-0.12957186,-0.0004784834,0.0,0.0,0.0,0.0,0
53422741,0.0,0.0,0.0,0.991478,0.013269652,-0.12959577,-0.0004845967,0.0,0.0,0.0,0.0,0
53455828,0.0,0.0,0.0,0.99148077,0.013267757,-0.12957416,-0.00049561507,0.0,0.0,0.0,0.0,0
53489764,0.0,0.0,0.0,0.9914783,0.013228089,-0.12959729,-0.0004816407,0.0,0.0,0.0,0.0,0
53521876,0.0,0.0,0.0,0.99147785,0.013223275,-0.1296014,-0.0004711718,0.0,0.0,0.0,0.0,0
53556774,0.0,0.0,0.0,0.9914838,0.013203816,-0.12955837,-0.00046643498,0.0,0.0,0.0,0.0,0
53589760,0.0,0.0,0.0,0.9914862,0.013222604,-0.12953763,-0.0004587021,0.0,0.0,0.0,0.0,0
53622773,0.0,0.0,0.0,0.9914808,0.01321874,-0.12957913,-0.00045175198,0.0,0.0,0.0,0.0,0
53657686,0.0,0.0,0.0,0.9914735,0.0132318875,-0.12963374,-0.00048294105,0.0,0.0,0.0,0.0,0
53688758,0.0,0.0,0.0,0.9914758,0.013231455,-0.12961648,-0.00050125783,0.0,0.0,0.0,0.0,0
53723431,0.0,0.0,0.0,0.9914779,0.013237962,-0.12959963,-0.0005037886,0.0,0.0,0.0,0.0,0
53755926,0.0,0.0,0.0,0.9914786,0.013237767,-0.12959364,-0.00049042143,0.0,0.0,0.0,0.0,0
53793744,0.0,0.0,0.0,0.9914772,0.013258151,-0.12960291,-0.0004718206,0.0,0.0,0.0,0.0,0
53822735,0.0,0.0,0.0,0.99147964,0.013281138,-0.12958194,-0.00048178574,0.0,0.0,0.0,0.0,0
53855911,0.0,0.0,0.0,0.9914894,0.013258285,-0.12950921,-0.00050081674,0.0,0.0,0.0,0.0,0
53890738,0.0,0.0,0.0,0.99149436,0.013242833,-0.12947312,-0.000510446,0.0,0.0,0.0,0.0,0
53924239,0.0,0.0,0.0,0.99148595,0.01324392,-0.12953696,-0.00048323406,0.0,0.0,0.0,0.0,0
53959724,0.0,0.0,0.0,0.99148697,0.013256108,-0.1295281,-0.0004828159,0.0,0.0,0.0,0.0,0
53989797,0.0,0.0,0.0,0.9914817,0.013271737,-0.1295672,-0.0004788125,0.0,0.0,0.0,0.0,0
54023964,0.0,0.0,0.0,0.9914769,0.013254309,-0.12960526,-0.0005064503,0.0,0.0,0.0,0.0,0
54055925,0.0,0.0,0.0,0.9914758,0.013261667,-0.12961303,-0.0005102564,0.0,0.0,0.0,0.0,0
54091815,0.0,0.0,0.0,0.99147666,0.0132631445,-0.1296064,-0.0005019093,0.0,0.0,0.0,0.0,0
54122791,0.0,0.0,0.0,0.991476,0.01327584,-0.12961066,-0.00048101565,0.0,0.0,0.0,0.0,0
54161692,0.0,0.0,0.0,0.9914777,0.013245298,-0.12959991,-0.0005063112,0.0,0.0,0.0,0.0,0
54192686,0.0,0.0,0.0,0.99147516,0.013253974,-0.12961827,-0.00052443147,0.0,0.0,0.0,0.0,0
54222732,0.0,0.0,0.0,0.9914746,0.013238228,-0.12962481,-0.0005112906,0.0,0.0,0.0,0.0,0
54255910,0.0,0.0,0.0,0.9914702,0.013229608,-0.12965918,-0.0004939096,0.0,0.0,0.0,0.0,0
54291729,0.0,0.0,0.0,0.99147224,0.013227691,-0.12964432,-0.0004887978,0.0,0.0,0.0,0.0,0
54322778,0.0,0.0,0.0,0.9914741,0.013217378,-0.12963061,-0.00049987226,0.0,0.0,0.0,0.0,0
54357770,0.0,0.0,0.0,0.9914766,0.013224694,-0.12961061,-0.00050524727,0.0,0.0,0.0,0.0,0
54391875,0.0,0.0,0.0,0.99147934,0.013234886,-0.12958892,-0.0004993491,0.0,0.0,0.0,0.0,0
54422743,0.0,0.0,0.0,0.99147886,0.013245155,-0.1295921,-0.00046240445,0.0,0.0,0.0,0.0,0
54455869,0.0,0.0,0.0,0.99147654,0.013235722,-0.12961052,-0.00048753968,0.0,0.0,0.0,0.0,0
54489756,0.0,0.0,0.0,0.9914724,0.013245715,-0.12964062,-0.00047371315,0.0,0.0,0.0,0.0,0
54522798,0.0,0.0,0.0,0.9914653,0.013252462,-0.12969427,-0.00047124038,0.0,0.0,0.0,0.0,0
54565711,0.0,0.0,0.0,0.99146926,0.013276928,-0.1296619,-0.000442831,0.0,0.0,0.0,0.0,0
54589046,0.0,0.0,0.0,0.991471,0.013256393,-0.12965065,-0.00042000008,0.0,0.0,0.0,0.0,0
54622752,0.0,0.0,0.0,0.99147236,0.013231777,-0.1296431,-0.00043181074,0.0,0.0,0.0,0.0,0
54655861,0.0,0.0,0.0,0.99147385,0.013230335,-0.12963107,-0.0004442567,0.0,0.0,0.0,0.0,0
54688741,0.0,0.0,0.0,0.9914727,0.013231124,-0.12963955,-0.00044228812,0.0,0.0,0.0,0.0,0
54722773,0.0,0.0,0.0,0.99147,0.01321795,-0.12966196,-0.00048342568,0.0,0.0,0.0,0.0,0
54759870,0.0,0.0,0.0,0.9914687,0.013229274,-0.12967058,-0.00047194376,0.0,0.0,0.0,0.0,0
54790790,0.0,0.0,0.0,0.9914617,0.0132135805,-0.12972568,-0.00048377342,0.0,0.0,0.0,0.0,0
54822742,0.0,0.0,0.0,0.99145836,0.013211869,-0.12975131,-0.0004832783,0.0,0.0,0.0,0.0,0
54855878,0.0,0.0,0.0,0.99145454,0.013211761,-0.12978087,-0.00050052605,0.0,0.0,0.0,0.0,0
54888741,0.0,0.0,0.0,0.9914621,0.013215506,-0.12972249,-0.0004496395,0.0,0.0,0.0,0.0,0
54922743,0.0,0.0,0.0,0.99146134,0.013232174,-0.1297269,-0.00044902205,0.0,0.0,0.0,0.0,0
54955927,0.0,0.0,0.0,0.9914617,0.013274669,-0.12971953,-0.00046552916,0.0,0.0,0.0,0.0,0
54990718,0.0,0.0,0.0,0.9914622,0.013250977,-0.12971851,-0.00045574585,0.0,0.0,0.0,0.0,0
55022802,0.0,0.0,0.0,0.99145865,0.013257264,-0.12974471,-0.0004429249,0.0,0.0,0.0,0.0,0
55058738,0.0,0.0,0.0,0.9914574,0.013241975,-0.12975608,-0.00044650433,0.0,0.0,0.0,0.0,0
55088850,0.0,0.0,0.0,0.9914556,0.013256342,-0.12976825,-0.00045246456,0.0,0.0,0.0,0.0,0
55122954,0.0,0.0,0.0,0.9914585,0.013233285,-0.1297488,-0.0004857406,0.0,0.0,0.0,0.0,0
55156858,0.0,0.0,0.0,0.99145526,0.013218968,-0.12977481,-0.00048921315,0.0,0.0,0.0,0.0,0
55190691,0.0,0.0,0.0,0.99146307,0.013221376,-0.1297146,-0.0004939521,0.0,0.0,0.0,0.0,0
55222766,0.0,0.0,0.0,0.99146247,0.013223481,-0.12971878,-0.00047944044,0.0,0.0,0.0,0.0,0
55256293,0.0,0.0,0.0,0.9914602,0.013238497,-0.12973483,-0.00046516012,0.0,0.0,0.0,0.0,0
55290746,0.0,0.0,0.0,0.99146134,0.013217881,-0.12972891,-0.00046050665,0.0,0.0,0.0,0.0,0
55324527,0.0,0.0,0.0,0.99146175,0.013196533,-0.12972717,-0.00047459567,0.0,0.0,0.0,0.0,0
55356352,0.0,0.0,0.0,0.99145955,0.013192166,-0.12974437,-0.00047968267,0.0,0.0,0.0,0.0,0
55388997,0.0,0.0,0.0,0.99145865,0.013172158,-0.12975326,-0.00051145226,0.0,0.0,0.0,0.0,0
55422751,0.0,0.0,0.0,0.9914642,0.013186391,-0.12970968,-0.00047652316,0.0,0.0,0.0,0.0,0
55456743,0.0,0.0,0.0,0.991465,0.013198926,-0.12970282,-0.00046626793,0.0,0.0,0.0,0.0,0
55490710,0.0,0.0,0.0,0.99146104,0.013208734,-0.12973183,-0.00046015077,0.0,0.0,0.0,0.0,0
55522766,0.0,0.0,0.0,0.9914619,0.013177804,-0.12972848,-0.00047028819,0.0,0.0,0.0,0.0,0
55556364,0.0,0.0,0.0,0.9914622,0.0131833,-0.12972572,-0.00046658772,0.0,0.0,0.0,0.0,0
55590732,0.0,0.0,0.0,0.99145395,0.0131932385,-0.12978709,-0.00044825196,0.0,0.0,0.0,0.0,0
55622755,0.0,0.0,0.0,0.99144876,0.0131775,-0.12982823,-0.0004601765,0.0,0.0,0.0,0.0,0
55656235,0.0,0.0,0.0,0.9914492,0.0131917475,-0.12982346,-0.0004455992,0.0,0.0,0.0,0.0,0
55690691,0.0,0.0,0.0,0.99145854,0.0131651545,-0.12975521,-0.0004041685,0.0,0.0,0.0,0.0,0
55726683,0.0,0.0,0.0,0.9914631,0.01316726,-0.1297205,-0.00038870613,0.0,0.0,0.0,0.0,0
55756934,0.0,0.0,0.0,0.9914579,0.013177528,-0.12975928,-0.0004132965,0.0,0.0,0.0,0.0,0
55790696,0.0,0.0,0.0,0.9914555,0.013172733,-0.12977731,-0.00042783958,0.0,0.0,0.0,0.0,0
55822733,0.0,0.0,0.0,0.99145633,0.013161002,-0.12977292,-0.00044489105,0.0,0.0,0.0,0.0,0
55856217,0.0,0.0,0.0,0.99145323,0.013160156,-0.12979613,-0.00044943168,0.0,0.0,0.0,0.0,0
55894944,0.0,0.0,0.0,0.9914495,0.013157813,-0.12982506,-0.0004465341,0.0,0.0,0.0,0.0,0
55922791,0.0,0.0,0.0,0.99145424,0.013161822,-0.12978812,-0.00045037453,0.0,0.0,0.0,0.0,0
55959751,0.0,0.0,0.0,0.9914554,0.013150035,-0.12978095,-0.00045643558,0.0,0.0,0.0,0.0,0
55990723,0.0,0.0,0.0,0.99146205,0.013142666,-0.12973054,-0.0004795035,0.0,0.0,0.0,0.0,0
56022793,0.0,0.0,0.0,0.9914623,0.01313353,-0.12972923,-0.0004801368,0.0,0.0,0.0,0.0,0
56057741,0.0,0.0,0.0,0.99145913,0.013133644,-0.12975362,-0.00047372942,0.0,0.0,0.0,0.0,0
56089120,0.0,0.0,0.0,0.9914559,0.013143745,-0.12977748,-0.00047892003,0.0,0.0,0.0,0.0,0
56125593,0.0,0.0,0.0,0.9914545,0.013147243,-0.12978773,-0.0004943485,0.0,0.0,0.0,0.0,0
56157147,0.0,0.0,0.0,0.9914574,0.013169689,-0.12976332,-0.000495248,0.0,0.0,0.0,0.0,0
56189735,0.0,0.0,0.0,0.9914603,0.013178197,-0.12974004,-0.0004934246,0.0,0.0,0.0,0.0,0
56223813,0.0,0.0,0.0,0.99145764,0.013192544,-0.12975898,-0.00050277635,0.0,0.0,0.0,0.0,0
56255817,0.0,0.0,0.0,0.9914593,0.013172979,-0.12974837,-0.00051606336,0.0,0.0,0.0,0.0,0
56291907,0.0,0.0,0.0,0.9914603,0.01319104,-0.12973799,-0.0005498686,0.0,0.0,0.0,0.0,0
56322741,0.0,0.0,0.0,0.9914589,0.013192995,-0.12974931,-0.0005557234,0.0,0.0,0.0,0.0,0
56355767,0.0,0.0,0.0,0.9914578,0.01319183,-0.12975816,-0.00053669285,0.0,0.0,0.0,0.0,0
56393024,0.0,0.0,0.0,0.9914563,0.013206691,-0.12976786,-0.000553198,0.0,0.0,0.0,0.0,0
56423850,0.0,0.0,0.0,0.991452,0.013185298,-0.12980251,-0.00059349026,0.0,0.0,0.0,0.0,0
56458695,0.0,0.0,0.0,0.99145746,0.01320377,-0.12975873,-0.0005865936,0.0,0.0,0.0,0.0,0
56489764,0.0,0.0,0.0,0.9914577,0.01320007,-0.12975723,-0.00060696824,0.0,0.0,0.0,0.0,0
56522971,0.0,0.0,0.0,0.9914597,0.013199322,-0.12974179,-0.0006018284,0.0,0.0,0.0,0.0,0
56555832,0.0,0.0,0.0,0.9914594,0.013229473,-0.129741,-0.00062450307,0.0,0.0,0.0,0.0,0
56589735,0.0,0.0,0.0,0.9914605,0.013248514,-0.12973139,-0.00058415654,0.0,0.0,0.0,0.0,0
56623699,0.0,0.0,0.0,0.9914587,0.013248022,-0.12974489,-0.00059529505,0.0,0.0,0.0,0.0,0
56655936,0.0,0.0,0.0,0.9914579,0.013246503,-0.12975125,-0.00058529264,0.0,0.0,0.0,0.0,0
56689823,0.0,0.0,0.0,0.9914591,0.013238319,-0.12974355,-0.0005594036,0.0,0.0,0.0,0.0,0
56723755,0.0,0.0,0.0,0.9914605,0.013236607,-0.12973236,-0.00054456893,0.0,0.0,0.0,0.0,0
56757693,0.0,0.0,0.0,0.99146366,0.01325242,-0.12970695,-0.0005171903,0.0,0.0,0.0,0.0,0
56789798,0.0,0.0,0.0,0.99146783,0.01325397,-0.129675,-0.00051477866,0.0,0.0,0.0,0.0,0
56822752,0.0,0.0,0.0,0.9914635,0.013268745,-0.12970658,-0.000495424,0.0,0.0,0.0,0.0,0
56856990,0.0,0.0,0.0,0.99146235,0.013271647,-0.12971483,-0.00052083493,0.0,0.0,0.0,0.0,0
56888998,0.0,0.0,0.0,0.9914571,0.013300942,-0.12975194,-0.00050565624,0.0,0.0,0.0,0.0,0
56922754,0.0,0.0,0.0,0.99145114,0.013312412,-0.1297959,-0.00050212094,0.0,0.0,0.0,0.0,0
56957850,0.0,0.0,0.0,0.9914489,0.013301735,-0.12981455,-0.0005367086,0.0,0.0,0.0,0.0,0
56991751,0.0,0.0,0.0,0.99144775,0.013299855,-0.12982325,-0.0005338072,0.0,0.0,0.0,0.0,0
57023856,0.0,0.0,0.0,0.9914494,0.013289428,-0.1298118,-0.000518144,0.0,0.0,0.0,0.0,0
57055754,0.0,0.0,0.0,0.9914508,0.013268736,-0.12980333,-0.0005257394,0.0,0.0,0.0,0.0,0
57089004,0.0,0.0,0.0,0.9914522,0.0132573815,-0.12979399,-0.00051795074,0.0,0.0,0.0,0.0,0
57122802,0.0,0.0,0.0,0.99145436,0.013233395,-0.1297792,-0.0005128229,0.0,0.0,0.0,0.0,0
57155763,0.0,0.0,0.0,0.9914576,0.01319716,-0.12975901,-0.0004958975,0.0,0.0,0.0,0.0,0
57191697,0.0,0.0,0.0,0.991459,0.013209856,-0.12974636,-0.00050243584,0.0,0.0,0.0,0.0,0
57223816,0.0,0.0,0.0,0.99145716,0.013197255,-0.12976208,-0.00051280437,0.0,0.0,0.0,0.0,0
57256974,0.0,0.0,0.0,0.991456,0.0132059455,-0.1297701,-0.0005179415,0.0,0.0,0.0,0.0,0
57291757,0.0,0.0,0.0,0.9914563,0.013188006,-0.12976976,-0.000496127,0.0,0.0,0.0,0.0,0
57323695,0.0,0.0,0.0,0.99146014,0.013179007,-0.12974164,-0.0005324515,0.0,0.0,0.0,0.0,0
57357590,0.0,0.0,0.0,0.99145985,0.013177492,-0.12974389,-0.0005075202,0.0,0.0,0.0,0.0,0
57398602,0.0,0.0,0.0,0.99146056,0.013176683,-0.12973818,-0.00050596514,0.0,0.0,0.0,0.0,0
57424712,0.0,0.0,0.0,0.9914588,0.01319627,-0.12974969,-0.00050579244,0.0,0.0,0.0,0.0,0
57456732,0.0,0.0,0.0,0.9914562,0.013184057,-0.1297706,-0.0004721159,0.0,0.0,0.0,0.0,0
57489805,0.0,0.0,0.0,0.9914545,0.013186442,-0.12978402,-0.00050123874,0.0,0.0,0.0,0.0,0
57522828,0.0,0.0,0.0,0.9914562,0.013210921,-0.12976794,-0.00052440894,0.0,0.0,0.0,0.0,0
57558303,0.0,0.0,0.0,0.99145496,0.013210391,-0.12977745,-0.0005173699,0.0,0.0,0.0,0.0,0
57590224,0.0,0.0,0.0,0.99146163,0.013222728,-0.12972538,-0.0005124421,0.0,0.0,0.0,0.0,0
57623915,0.0,0.0,0.0,0.9914615,0.013224137,-0.12972587,-0.000530957,0.0,0.0,0.0,0.0,0
57655866,0.0,0.0,0.0,0.99146384,0.013238175,-0.12970689,-0.00048930955,0.0,0.0,0.0,0.0,0
57689921,0.0,0.0,0.0,0.99146515,0.013230609,-0.12969783,-0.0005022823,0.0,0.0,0.0,0.0,0
57722256,0.0,0.0,0.0,0.9914619,0.0132323075,-0.1297228,-0.00045173615,0.0,0.0,0.0,0.0,0
57755830,0.0,0.0,0.0,0.99145776,0.013233551,-0.12975453,-0.00042927117,0.0,0.0,0.0,0.0,0
57790458,0.0,0.0,0.0,0.99146247,0.01325536,-0.12971598,-0.00042499954,0.0,0.0,0.0,0.0,0
57824698,0.0,0.0,0.0,0.991464,0.013259645,-0.12970398,-0.00040253627,0.0,0.0,0.0,0.0,0
57855874,0.0,0.0,0.0,0.9914616,0.0132936,-0.12971921,-0.00040426446,0.0,0.0,0.0,0.0,0
57889957,0.0,0.0,0.0,0.9914629,0.013297417,-0.12970844,-0.00039509003,0.0,0.0,0.0,0.0,0
57922971,0.0,0.0,0.0,0.9914597,0.013283387,-0.12973438,-0.00041595407,0.0,0.0,0.0,0.0,0
57955837,0.0,0.0,0.0,0.9914609,0.013284528,-0.12972552,-0.00037387206,0.0,0.0,0.0,0.0,0
57995830,0.0,0.0,0.0,0.99146086,0.013279327,-0.12972587,-0.00036652997,0.0,0.0,0.0,0.0,0
58023045,0.0,0.0,0.0,0.9914567,0.0132685015,-0.12975872,-0.00038478328,0.0,0.0,0.0,0.0,0
58055935,0.0,0.0,0.0,0.9914573,0.013251024,-0.12975606,-0.0003915242,0.0,0.0,0.0,0.0,0
58091727,0.0,0.0,0.0,0.9914584,0.0132510485,-0.12974754,-0.00039083106,0.0,0.0,0.0,0.0,0
58123732,0.0,0.0,0.0,0.991467,0.0132418815,-0.12968272,-0.0003900619,0.0,0.0,0.0,0.0,0
58155834,0.0,0.0,0.0,0.99146736,0.013249612,-0.12967901,-0.00041106498,0.0,0.0,0.0,0.0,0
58190240,0.0,0.0,0.0,0.9914672,0.01323197,-0.12968259,-0.0004241271,0.0,0.0,0.0,0.0,0
58223910,0.0,0.0,0.0,0.99146354,0.013238998,-0.12970948,-0.0004278148,0.0,0.0,0.0,0.0,0
58256831,0.0,0.0,0.0,0.9914616,0.013243816,-0.12972434,-0.00042406542,0.0,0.0,0.0,0.0,0
58289939,0.0,0.0,0.0,0.9914636,0.013253826,-0.12970734,-0.00039802017,0.0,0.0,0.0,0.0,0
58322808,0.0,0.0,0.0,0.991463,0.013261301,-0.12971136,-0.0003717706,0.0,0.0,0.0,0.0,0
58355257,0.0,0.0,0.0,0.9914656,0.013251047,-0.12969233,-0.0003915129,0.0,0.0,0.0,0.0,0
58393778,0.0,0.0,0.0,0.9914678,0.013261386,-0.12967503,-0.00037716495,0.0,0.0,0.0,0.0,0
58423257,0.0,0.0,0.0,0.9914715,0.013263364,-0.12964603,-0.00034909014,0.0,0.0,0.0,0.0,0
58455889,0.0,0.0,0.0,0.99147326,0.013255523,-0.1296339,-0.00035273092,0.0,0.0,0.0,0.0,0
58488830,0.0,0.0,0.0,0.991467,0.013264398,-0.12968029,-0.0003556635,0.0,0.0,0.0,0.0,0
58523725,0.0,0.0,0.0,0.991463,0.01325179,-0.12971255,-0.00035649867,0.0,0.0,0.0,0.0,0
58556766,0.0,0.0,0.0,0.9914654,0.013242264,-0.12969515,-0.0003563691,0.0,0.0,0.0,0.0,0
58589797,0.0,0.0,0.0,0.9914644,0.013238104,-0.1297034,-0.0003629525,0.0,0.0,0.0,0.0,0
58623266,0.0,0.0,0.0,0.9914615,0.013243761,-0.12972474,-0.00035783756,0.0,0.0,0.0,0.0,0
58657846,0.0,0.0,0.0,0.9914656,0.013251889,-0.12969214,-0.00035840707,0.0,0.0,0.0,0.0,0
58688743,0.0,0.0,0.0,0.9914619,0.01325749,-0.1297201,-0.00037121322,0.0,0.0,0.0,0.0,0
58723019,0.0,0.0,0.0,0.99146044,0.013283698,-0.1297287,-0.0003569703,0.0,0.0,0.0,0.0,0
58755268,0.0,0.0,0.0,0.991459,0.013263566,-0.12974182,-0.0003673159,0.0,0.0,0.0,0.0,0
58791236,0.0,0.0,0.0,0.99145687,0.013286748,-0.12975562,-0.00037953575,0.0,0.0,0.0,0.0,0
58825701,0.0,0.0,0.0,0.9914549,0.013288336,-0.1297704,-0.00038806026,0.0,0.0,0.0,0.0,0
58859717,0.0,0.0,0.0,0.99145126,0.013283588,-0.12979867,-0.00039024712,0.0,0.0,0.0,0.0,0
58890777,0.0,0.0,0.0,0.99145657,0.013291804,-0.12975739,-0.00038698158,0.0,0.0,0.0,0.0,0
58922792,0.0,0.0,0.0,0.99145347,0.013297613,-0.1297803,-0.00038507575,0.0,0.0,0.0,0.0,0
58957697,0.0,0.0,0.0,0.99145436,0.0133180795,-0.12977177,-0.00037996453,0.0,0.0,0.0,0.0,0
58996742,0.0,0.0,0.0,0.99145645,0.013320867,-0.12975532,-0.0004117912,0.0,0.0,0.0,0.0,0
59023270,0.0,0.0,0.0,0.9914546,0.013317008,-0.12976968,-0.00038292358,0.0,0.0,0.0,0.0,0
59058741,0.0,0.0,0.0,0.9914519,0.013322402,-0.1297899,-0.00036565756,0.0,0.0,0.0,0.0,0
59090775,0.0,0.0,0.0,0.99144703,0.013341117,-0.12982546,-0.00039417745,0.0,0.0,0.0,0.0,0
59123049,0.0,0.0,0.0,0.99144655,0.013351432,-0.12982774,-0.0003782701,0.0,0.0,0.0,0.0,0
59156074,0.0,0.0,0.0,0.991443,0.013352666,-0.12985502,-0.0003853796,0.0,0.0,0.0,0.0,0
59189741,0.0,0.0,0.0,0.99144423,0.013366826,-0.1298442,-0.0003602133,0.0,0.0,0.0,0.0,0
59223206,0.0,0.0,0.0,0.99144685,0.013357895,-0.12982428,-0.00037607952,0.0,0.0,0.0,0.0,0
59257731,0.0,0.0,0.0,0.99145395,0.013340211,-0.12977256,-0.00037415192,0.0,0.0,0.0,0.0,0
59289741,0.0,0.0,0.0,0.99145424,0.013315854,-0.12977229,-0.0004013946,0.0,0.0,0.0,0.0,0
59323109,0.0,0.0,0.0,0.99144924,0.013324289,-0.12980996,-0.0004142662,0.0,0.0,0.0,0.0,0
59359075,0.0,0.0,0.0,0.9914499,0.013313647,-0.12980606,-0.00041409003,0.0,0.0,0.0,0.0,0
59389803,0.0,0.0,0.0,0.99144614,0.013308678,-0.1298353,-0.00042767674,0.0,0.0,0.0,0.0,0
59427107,0.0,0.0,0.0,0.9914449,0.013302586,-0.12984534,-0.00043739102,0.0,0.0,0.0,0.0,0
59457679,0.0,0.0,0.0,0.99145013,0.013284035,-0.12980737,-0.00043793177,0.0,0.0,0.0,0.0,0
59489802,0.0,0.0,0.0,0.9914533,0.013299877,-0.12978157,-0.00041566722,0.0,0.0,0.0,0.0,0
59523317,0.0,0.0,0.0,0.9914571,0.013302517,-0.12975207,-0.0003941388,0.0,0.0,0.0,0.0,0
59555154,0.0,0.0,0.0,0.9914554,0.0132843405,-0.12976722,-0.0003894427,0.0,0.0,0.0,0.0,0
59589736,0.0,0.0,0.0,0.9914547,0.013287777,-0.12977213,-0.00041889833,0.0,0.0,0.0,0.0,0
59629679,0.0,0.0,0.0,0.99144953,0.013318132,-0.12980793,-0.00044809878,0.0,0.0,0.0,0.0,0
59656540,0.0,0.0,0.0,0.99144566,0.013311172,-0.12983873,-0.000462621,0.0,0.0,0.0,0.0,0
59690688,0.0,0.0,0.0,0.99144435,0.013325873,-0.12984711,-0.0004422162,0.0,0.0,0.0,0.0,0
59728950,0.0,0.0,0.0,0.99144655,0.0133132115,-0.12983167,-0.00044735233,0.0,0.0,0.0,0.0,0
59756679,0.0,0.0,0.0,0.99144983,0.0133251315,-0.12980503,-0.00048440523,0.0,0.0,0.0,0.0,0
59792618,0.0,0.0,0.0,0.99145216,0.013330379,-0.12978679,-0.00046376736,0.0,0.0,0.0,0.0,0
59824113,0.0,0.0,0.0,0.9914546,0.0133525655,-0.12976626,-0.00047092282,0.0,0.0,0.0,0.0,0
59856144,0.0,0.0,0.0,0.99145085,0.0133104995,-0.1297987,-0.00045713354,0.0,0.0,0.0,0.0,0
59890713,0.0,0.0,0.0,0.9914478,0.013308155,-0.12982257,-0.0004473336,0.0,0.0,0.0,0.0,0
59922741,0.0,0.0,0.0,0.9914453,0.013308868,-0.12984145,-0.00042860807,0.0,0.0,0.0,0.0,0
59957795,0.0,0.0,0.0,0.9914415,0.0132818995,-0.12987329,-0.00047791938,0.0,0.0,0.0,0.0,0
59992534,0.0,0.0,0.0,0.9914423,0.01328703,-0.1298658,-0.00049141434,0.0,0.0,0.0,0.0,0
60027991,0.0,0.0,0.0,0.991448,0.013302725,-0.12982121,-0.00048001553,0.0,0.0,0.0,0.0,0
60056762,0.0,0.0,0.0,0.99145484,0.013282504,-0.12977155,-0.00047966687,0.0,0.0,0.0,0.0,0
60090687,0.0,0.0,0.0,0.9914508,0.013284273,-0.129802,-0.00049583986,0.0,0.0,0.0,0.0,0
60124072,0.0,0.0,0.0,0.9914523,0.013275239,-0.1297912,-0.0004934614,0.0,0.0,0.0,0.0,0
60156014,0.0,0.0,0.0,0.99144834,0.013283749,-0.12982062,-0.00046438366,0.0,0.0,0.0,0.0,0
60190758,0.0,0.0,0.0,0.9914491,0.013266116,-0.12981641,-0.00049812393,0.0,0.0,0.0,0.0,0
60222777,0.0,0.0,0.0,0.9914483,0.013269526,-0.1298225,-0.00049131515,0.0,0.0,0.0,0.0,0
60256395,0.0,0.0,0.0,0.9914528,0.013256242,-0.12978983,-0.0005090975,0.0,0.0,0.0,0.0,0
60288269,0.0,0.0,0.0,0.9914534,0.013280285,-0.12978177,-0.00054766226,0.0,0.0,0.0,0.0,0
60323757,0.0,0.0,0.0,0.99145454,0.013269841,-0.1297739,-0.0005594851,0.0,0.0,0.0,0.0,0
60355943,0.0,0.0,0.0,0.9914498,0.013246764,-0.12981366,-0.00055913965,0.0,0.0,0.0,0.0,0
60392271,0.0,0.0,0.0,0.9914482,0.013249674,-0.12982522,-0.00057276554,0.0,0.0,0.0,0.0,0
60424029,0.0,0.0,0.0,0.9914478,0.013232793,-0.12982948,-0.0005684073,0.0,0.0,0.0,0.0,0
60456282,0.0,0.0,0.0,0.9914424,0.013248874,-0.12986924,-0.0006105714,0.0,0.0,0.0,0.0,0
60490708,0.0,0.0,0.0,0.9914475,0.013223765,-0.12983233,-0.00062218035,0.0,0.0,0.0,0.0,0
60522736,0.0,0.0,0.0,0.99144864,0.013212579,-0.1298253,-0.0005943522,0.0,0.0,0.0,0.0,0
60562800,0.0,0.0,0.0,0.9914525,0.013213489,-0.1297955,-0.0005843242,0.0,0.0,0.0,0.0,0
60592257,0.0,0.0,0.0,0.99145716,0.013206252,-0.1297609,-0.0005648584,0.0,0.0,0.0,0.0,0
60627938,0.0,0.0,0.0,0.99145573,0.013206892,-0.12977168,-0.0005736815,0.0,0.0,0.0,0.0,0
60656172,0.0,0.0,0.0,0.9914547,0.013185189,-0.12978157,-0.0005570917,0.0,0.0,0.0,0.0,0
60690716,0.0,0.0,0.0,0.9914539,0.013170137,-0.12979026,-0.00053767423,0.0,0.0,0.0,0.0,0
60724699,0.0,0.0,0.0,0.99145436,0.013164086,-0.12978628,-0.00056013436,0.0,0.0,0.0,0.0,0
60756653,0.0,0.0,0.0,0.99145335,0.013156953,-0.12979487,-0.00057430606,0.0,0.0,0.0,0.0,0
60789741,0.0,0.0,0.0,0.9914556,0.013154943,-0.12977839,-0.0005442495,0.0,0.0,0.0,0.0,0
60823235,0.0,0.0,0.0,0.99145573,0.013184219,-0.12977447,-0.0005293204,0.0,0.0,0.0,0.0,0
60857542,0.0,0.0,0.0,0.99145454,0.013190424,-0.12978306,-0.0005347742,0.0,0.0,0.0,0.0,0
60888888,0.0,0.0,0.0,0.9914549,0.013204126,-0.12977904,-0.0005323417,0.0,0.0,0.0,0.0,0
60922732,0.0,0.0,0.0,0.99145484,0.013200636,-0.12977938,-0.00051548134,0.0,0.0,0.0,0.0,0
60957537,0.0,0.0,0.0,0.9914565,0.013206769,-0.12976617,-0.0005162639,0.0,0.0,0.0,0.0,0
60993001,0.0,0.0,0.0,0.99144864,0.013193424,-0.12982753,-0.0005178217,0.0,0.0,0.0,0.0,0
61024904,0.0,0.0,0.0,0.9914526,0.013164996,-0.1298007,-0.0005409852,0.0,0.0,0.0,0.0,0
61056911,0.0,0.0,0.0,0.99145293,0.01316136,-0.1297978,-0.0005635786,0.0,0.0,0.0,0.0,0
61088789,0.0,0.0,0.0,0.9914565,0.013170694,-0.12976982,-0.00053789635,0.0,0.0,0.0,0.0,0
61121986,0.0,0.0,0.0,0.99145746,0.013148349,-0.12976485,-0.00053310784,0.0,0.0,0.0,0.0,0
61158731,0.0,0.0,0.0,0.99145705,0.013148492,-0.12976813,-0.0005389675,0.0,0.0,0.0,0.0,0
61192857,0.0,0.0,0.0,0.9914529,0.013118824,-0.12980275,-0.00056082645,0.0,0.0,0.0,0.0,0
61224999,0.0,0.0,0.0,0.9914555,0.013114099,-0.12978345,-0.00052500685,0.0,0.0,0.0,0.0,0
61256696,0.0,0.0,0.0,0.9914501,0.01310249,-0.12982614,-0.00055321766,0.0,0.0,0.0,0.0,0
61288881,0.0,0.0,0.0,0.99145085,0.013093886,-0.12982073,-0.00053931767,0.0,0.0,0.0,0.0,0
61322741,0.0,0.0,0.0,0.9914488,0.013115078,-0.12983415,-0.00058270857,0.0,0.0,0.0,0.0,0
61357075,0.0,0.0,0.0,0.99145037,0.013105729,-0.12982225,-0.0006067598,0.0,0.0,0.0,0.0,0
61390793,0.0,0.0,0.0,0.9914534,0.013088557,-0.12980165,-0.0006244086,0.0,0.0,0.0,0.0,0
61424949,0.0,0.0,0.0,0.99145126,0.013088335,-0.12981741,-0.00065290916,0.0,0.0,0.0,0.0,0
61456995,0.0,0.0,0.0,0.9914449,0.013057704,-0.1298698,-0.00063513836,0.0,0.0,0.0,0.0,0
61489176,0.0,0.0,0.0,0.9914415,0.013068523,-0.12989447,-0.000630346,0.0,0.0,0.0,0.0,0
61524816,0.0,0.0,0.0,0.9914384,0.013096729,-0.12991475,-0.000638442,0.0,0.0,0.0,0.0,0
61561318,0.0,0.0,0.0,0.99143714,0.0130849015,-0.12992592,-0.0006359973,0.0,0.0,0.0,0.0,0
61591049,0.0,0.0,0.0,0.9914443,0.013079122,-0.12987185,-0.0006169671,0.0,0.0,0.0,0.0,0
61625168,0.0,0.0,0.0,0.99144983,0.013093496,-0.12982796,-0.0005845777,0.0,0.0,0.0,0.0,0
61657013,0.0,0.0,0.0,0.99144983,0.01309363,-0.12982817,-0.0005817688,0.0,0.0,0.0,0.0,0
61689349,0.0,0.0,0.0,0.9914494,0.013102579,-0.12983093,-0.00058427546,0.0,0.0,0.0,0.0,0
61724558,0.0,0.0,0.0,0.9914438,0.013121544,-0.12987149,-0.0005564605,0.0,0.0,0.0,0.0,0
61757970,0.0,0.0,0.0,0.9914405,0.013114396,-0.12989753,-0.0005415701,0.0,0.0,0.0,0.0,0
61793734,0.0,0.0,0.0,0.9914435,0.0130814975,-0.12987792,-0.000531987,0.0,0.0,0.0,0.0,0
61822734,0.0,0.0,0.0,0.9914427,0.0130783,-0.12988448,-0.00056321657,0.0,0.0,0.0,0.0,0
61858285,0.0,0.0,0.0,0.99144363,0.013084774,-0.12987693,-0.0005966354,0.0,0.0,0.0,0.0,0
61889734,0.0,0.0,0.0,0.9914464,0.013122406,-0.12985188,-0.00055697846,0.0,0.0,0.0,0.0,0
61923698,0.0,0.0,0.0,0.99144274,0.013124341,-0.1298793,-0.0005720156,0.0,0.0,0.0,0.0,0
61958455,0.0,0.0,0.0,0.9914469,0.013125,-0.12984766,-0.000533811,0.0,0.0,0.0,0.0,0
61991857,0.0,0.0,0.0,0.9914414,0.013132784,-0.12988919,-0.0005239455,0.0,0.0,0.0,0.0,0
62023744,0.0,0.0,0.0,0.9914376,0.013141411,-0.1299173,-0.00053751416,0.0,0.0,0.0,0.0,0
62056202,0.0,0.0,0.0,0.99143827,0.013121782,-0.12991403,-0.0005633693,0.0,0.0,0.0,0.0,0
62090274,0.0,0.0,0.0,0.9914437,0.013135769,-0.12987113,-0.0005968938,0.0,0.0,0.0,0.0,0
62121704,0.0,0.0,0.0,0.9914448,0.013134765,-0.12986253,-0.0005907589,0.0,0.0,0.0,0.0,0
62159854,0.0,0.0,0.0,0.99144423,0.01316301,-0.12986411,-0.00058877975,0.0,0.0,0.0,0.0,0
62189748,0.0,0.0,0.0,0.99144477,0.013152837,-0.12986125,-0.00057167973,0.0,0.0,0.0,0.0,0
62225816,0.0,0.0,0.0,0.99144137,0.013172715,-0.12988488,-0.0005926687,0.0,0.0,0.0,0.0,0
62257689,0.0,0.0,0.0,0.9914399,0.013177664,-0.12989593,-0.0006040603,0.0,0.0,0.0,0.0,0
62289830,0.0,0.0,0.0,0.99143416,0.013151447,-0.12994227,-0.0005910254,0.0,0.0,0.0,0.0,0
62323747,0.0,0.0,0.0,0.9914319,0.0131402975,-0.12996069,-0.00057421316,0.0,0.0,0.0,0.0,0
62358143,0.0,0.0,0.0,0.9914348,0.013147317,-0.12993754,-0.0005500416,0.0,0.0,0.0,0.0,0
62389746,0.0,0.0,0.0,0.99143887,0.013128019,-0.12990841,-0.0005319607,0.0,0.0,0.0,0.0,0
62426534,0.0,0.0,0.0,0.9914422,0.013133731,-0.12988268,-0.0005329771,0.0,0.0,0.0,0.0,0
62455882,0.0,0.0,0.0,0.9914427,0.0131521085,-0.12987712,-0.0005294879,0.0,0.0,0.0,0.0,0
62489741,0.0,0.0,0.0,0.99144113,0.013168261,-0.12988786,-0.00050944096,0.0,0.0,0.0,0.0,0
62523747,0.0,0.0,0.0,0.9914375,0.013159874,-0.1299162,-0.00051721855,0.0,0.0,0.0,0.0,0
62556217,0.0,0.0,0.0,0.99143326,0.013159677,-0.12994835,-0.0005155033,0.0,0.0,0.0,0.0,0
62589805,0.0,0.0,0.0,0.9914338,0.013154585,-0.12994455,-0.0005323744,0.0,0.0,0.0,0.0,0
62625608,0.0,0.0,0.0,0.9914355,0.013162833,-0.12993036,-0.00049664365,0.0,0.0,0.0,0.0,0
62655888,0.0,0.0,0.0,0.99143654,0.013152865,-0.12992394,-0.0004967644,0.0,0.0,0.0,0.0,0
62689572,0.0,0.0,0.0,0.9914394,0.013191819,-0.1298983,-0.00050736626,0.0,0.0,0.0,0.0,0
62722120,0.0,0.0,0.0,0.99144304,0.013189807,-0.1298707,-0.0004858371,0.0,0.0,0.0,0.0,0
62757416,0.0,0.0,0.0,0.9914453,0.013189218,-0.12985349,-0.0005070758,0.0,0.0,0.0,0.0,0
62793575,0.0,0.0,0.0,0.99143726,0.013186129,-0.12991531,-0.0004897419,0.0,0.0,0.0,0.0,0
62823830,0.0,0.0,0.0,0.9914348,0.013179254,-0.12993442,-0.000521852,0.0,0.0,0.0,0.0,0
62855832,0.0,0.0,0.0,0.9914383,0.013195041,-0.12990592,-0.00051880087,0.0,0.0,0.0,0.0,0
62889763,0.0,0.0,0.0,0.99143827,0.013185909,-0.12990753,-0.0005263639,0.0,0.0,0.0,0.0,0
62923705,0.0,0.0,0.0,0.9914406,0.013181519,-0.12989023,-0.0005589069,0.0,0.0,0.0,0.0,0
62956139,0.0,0.0,0.0,0.9914388,0.0131843835,-0.12990332,-0.0005470727,0.0,0.0,0.0,0.0,0
62989748,0.0,0.0,0.0,0.99143565,0.013183869,-0.12992774,-0.000551667,0.0,0.0,0.0,0.0,0
63025653,0.0,0.0,0.0,0.9914367,0.013178035,-0.12992066,-0.00053533906,0.0,0.0,0.0,0.0,0
63055817,0.0,0.0,0.0,0.99143595,0.01317215,-0.12992682,-0.0005303282,0.0,0.0,0.0,0.0,0
63089814,0.0,0.0,0.0,0.99142796,0.01319194,-0.12998596,-0.00055569276,0.0,0.0,0.0,0.0,0
63122551,0.0,0.0,0.0,0.99142784,0.013215905,-0.12998354,-0.000512969,0.0,0.0,0.0,0.0,0
63158741,0.0,0.0,0.0,0.99142647,0.0132120075,-0.12999463,-0.000503212,0.0,0.0,0.0,0.0,0
63192820,0.0,0.0,0.0,0.9914355,0.01320205,-0.1299272,-0.0005095585,0.0,0.0,0.0,0.0,0
63224800,0.0,0.0,0.0,0.9914364,0.013179331,-0.12992236,-0.00051295396,0.0,0.0,0.0,0.0,0
63255874,0.0,0.0,0.0,0.9914365,0.013200129,-0.12991993,-0.00051479496,0.0,0.0,0.0,0.0,0
63290351,0.0,0.0,0.0,0.9914348,0.01320209,-0.1299324,-0.00049216696,0.0,0.0,0.0,0.0,0
63322734,0.0,0.0,0.0,0.99143463,0.013200248,-0.12993395,-0.00047600444,0.0,0.0,0.0,0.0,0
63360723,0.0,0.0,0.0,0.9914389,0.013182157,-0.12990318,-0.0004594163,0.0,0.0,0.0,0.0,0
63390144,0.0,0.0,0.0,0.9914373,0.0131874345,-0.12991461,-0.00044787105,0.0,0.0,0.0,0.0,0
63424689,0.0,0.0,0.0,0.9914425,0.013206664,-0.12987363,-0.00043769425,0.0,0.0,0.0,0.0,0
63455828,0.0,0.0,0.0,0.99143934,0.013198144,-0.12989795,-0.00045553816,0.0,0.0,0.0,0.0,0
63490326,0.0,0.0,0.0,0.99144626,0.01319111,-0.12984635,-0.00046719584,0.0,0.0,0.0,0.0,0
63522565,0.0,0.0,0.0,0.9914463,0.013180892,-0.12984702,-0.0004502834,0.0,0.0,0.0,0.0,0
63560826,0.0,0.0,0.0,0.99144906,0.013149744,-0.12982927,-0.0004795977,0.0,0.0,0.0,0.0,0
63590768,0.0,0.0,0.0,0.99144536,0.013130912,-0.1298595,-0.0004632723,0.0,0.0,0.0,0.0,0
63624828,0.0,0.0,0.0,0.9914414,0.013128977,-0.12988898,-0.0004749533,0.0,0.0,0.0,0.0,0
63656040,0.0,0.0,0.0,0.9914419,0.013142397,-0.12988473,-0.00048266698,0.0,0.0,0.0,0.0,0
63690711,0.0,0.0,0.0,0.99144125,0.01314011,-0.12988959,-0.0004839422,0.0,0.0,0.0,0.0,0
63722988,0.0,0.0,0.0,0.9914462,0.013142218,-0.12985148,-0.0004713173,0.0,0.0,0.0,0.0,0
63756748,0.0,0.0,0.0,0.99145085,0.013152006,-0.12981515,-0.00046649142,0.0,0.0,0.0,0.0,0
63794389,0.0,0.0,0.0,0.9914469,0.013175447,-0.12984261,-0.00048231377,0.0,0.0,0.0,0.0,0
63823958,0.0,0.0,0.0,0.9914427,0.01315255,-0.12987772,-0.0004684253,0.0,0.0,0.0,0.0,0
63855763,0.0,0.0,0.0,0.9914446,0.013181901,-0.1298601,-0.0004650664,0.0,0.0,0.0,0.0,0
63890553,0.0,0.0,0.0,0.99144536,0.013172111,-0.12985516,-0.00046641997,0.0,0.0,0.0,0.0,0
63924695,0.0,0.0,0.0,0.9914469,0.013199088,-0.12984101,-0.0004650663,0.0,0.0,0.0,0.0,0
63959859,0.0,0.0,0.0,0.9914463,0.013218602,-0.12984268,-0.00050849584,0.0,0.0,0.0,0.0,0
63990153,0.0,0.0,0.0,0.99144804,0.013219469,-0.12982948,-0.00049358513,0.0,0.0,0.0,0.0,0
64026544,0.0,0.0,0.0,0.9914559,0.013225736,-0.12976912,-0.00045994355,0.0,0.0,0.0,0.0,0
64055858,0.0,0.0,0.0,0.99145705,0.013223966,-0.12976071,-0.00045076932,0.0,0.0,0.0,0.0,0
64090412,0.0,0.0,0.0,0.99145335,0.013234248,-0.1297874,-0.00047308835,0.0,0.0,0.0,0.0,0
64123102,0.0,0.0,0.0,0.9914465,0.013231242,-0.12983996,-0.0004777175,0.0,0.0,0.0,0.0,0
64156804,0.0,0.0,0.0,0.9914492,0.013203997,-0.12982228,-0.0005136081,0.0,0.0,0.0,0.0,0
64192705,0.0,0.0,0.0,0.9914484,0.013185931,-0.1298302,-0.00050749397,0.0,0.0,0.0,0.0,0
64224819,0.0,0.0,0.0,0.99145824,0.013181143,-0.12975575,-0.0005181417,0.0,0.0,0.0,0.0,0
64255230,0.0,0.0,0.0,0.99145997,0.01317079,-0.12974349,-0.0004877209,0.0,0.0,0.0,0.0,0
64289801,0.0,0.0,0.0,0.9914606,0.013143066,-0.1297418,-0.00048126452,0.0,0.0,0.0,0.0,0
64323385,0.0,0.0,0.0,0.9914562,0.013147384,-0.12977463,-0.0004947513,0.0,0.0,0.0,0.0,0
64356801,0.0,0.0,0.0,0.99145657,0.013140868,-0.12977181,-0.0005073791,0.0,0.0,0.0,0.0,0
64391197,0.0,0.0,0.0,0.9914472,0.013150619,-0.1298424,-0.0005335522,0.0,0.0,0.0,0.0,0
64423942,0.0,0.0,0.0,0.9914536,0.013159605,-0.12979276,-0.00049730536,0.0,0.0,0.0,0.0,0
64455133,0.0,0.0,0.0,0.9914568,0.013148575,-0.1297697,-0.00050628494,0.0,0.0,0.0,0.0,0
64489743,0.0,0.0,0.0,0.99145544,0.013157145,-0.12977935,-0.0004758611,0.0,0.0,0.0,0.0,0
64523502,0.0,0.0,0.0,0.99145865,0.013186009,-0.12975164,-0.0004846826,0.0,0.0,0.0,0.0,0
64559225,0.0,0.0,0.0,0.99146295,0.013217831,-0.12971553,-0.0005112499,0.0,0.0,0.0,0.0,0
64591751,0.0,0.0,0.0,0.9914612,0.013219276,-0.12972862,-0.0004996009,0.0,0.0,0.0,0.0,0
64625773,0.0,0.0,0.0,0.9914536,0.013222261,-0.12978692,-0.00053543085,0.0,0.0,0.0,0.0,0
64655122,0.0,0.0,0.0,0.99144894,0.013241745,-0.12982035,-0.0005297235,0.0,0.0,0.0,0.0,0
64689788,0.0,0.0,0.0,0.9914417,0.013255775,-0.12987407,-0.00051328086,0.0,0.0,0.0,0.0,0
64723891,0.0,0.0,0.0,0.9914491,0.013256919,-0.12981772,-0.00055147696,0.0,0.0,0.0,0.0,0
64755847,0.0,0.0,0.0,0.9914536,0.013243843,-0.1297845,-0.0005446082,0.0,0.0,0.0,0.0,0
64790796,0.0,0.0,0.0,0.9914544,0.013236071,-0.12977834,-0.00053769763,0.0,0.0,0.0,0.0,0
64823085,0.0,0.0,0.0,0.9914512,0.013224446,-0.12980518,-0.0005374368,0.0,0.0,0.0,0.0,0
64857752,0.0,0.0,0.0,0.9914496,0.013226701,-0.12981671,-0.0005347666,0.0,0.0,0.0,0.0,0
64889743,0.0,0.0,0.0,0.9914508,0.013230242,-0.12980713,-0.00050725404,0.0,0.0,0.0,0.0,0
64923547,0.0,0.0,0.0,0.991449,0.013229237,-0.1298212,-0.0004805756,0.0,0.0,0.0,0.0,0
64955317,0.0,0.0,0.0,0.9914472,0.013211335,-0.1298365,-0.00045423245,0.0,0.0,0.0,0.0,0
64991056,0.0,0.0,0.0,0.9914485,0.013212515,-0.12982637,-0.00048117968,0.0,0.0,0.0,0.0,0
65023844,0.0,0.0,0.0,0.991456,0.013234011,-0.12976754,-0.0004722454,0.0,0.0,0.0,0.0,0
65057716,0.0,0.0,0.0,0.9914568,0.013224643,-0.12976241,-0.00046239106,0.0,0.0,0.0,0.0,0
65089767,0.0,0.0,0.0,0.9914605,0.013220699,-0.12973464,-0.00043693348,0.0,0.0,0.0,0.0,0
65123422,0.0,0.0,0.0,0.9914547,0.013220908,-0.1297782,-0.00045114884,0.0,0.0,0.0,0.0,0
65157690,0.0,0.0,0.0,0.99145794,0.013211974,-0.12975469,-0.0004530066,0.0,0.0,0.0,0.0,0
65190760,0.0,0.0,0.0,0.9914528,0.013233128,-0.12979208,-0.000477002,0.0,0.0,0.0,0.0,0
65223949,0.0,0.0,0.0,0.99145466,0.013218915,-0.12977889,-0.00046813092,0.0,0.0,0.0,0.0,0
65256830,0.0,0.0,0.0,0.9914548,0.013229523,-0.12977742,-0.00045282126,0.0,0.0,0.0,0.0,0
65291743,0.0,0.0,0.0,0.9914559,0.01324531,-0.12976736,-0.00044892542,0.0,0.0,0.0,0.0,0
65323432,0.0,0.0,0.0,0.9914523,0.013248754,-0.1297941,-0.00043472566,0.0,0.0,0.0,0.0,0
65355323,0.0,0.0,0.0,0.99144965,0.013242759,-0.12981537,-0.0004325308,0.0,0.0,0.0,0.0,0
65390693,0.0,0.0,0.0,0.9914439,0.013225528,-0.12986109,-0.00046096474,0.0,0.0,0.0,0.0,0
65424032,0.0,0.0,0.0,0.9914431,0.013219233,-0.12986714,-0.00046263135,0.0,0.0,0.0,0.0,0
65456013,0.0,0.0,0.0,0.99143827,0.013208741,-0.12990515,-0.0004434731,0.0,0.0,0.0,0.0,0
65488002,0.0,0.0,0.0,0.9914391,0.013241533,-0.12989555,-0.0004613906,0.0,0.0,0.0,0.0,0
65522741,0.0,0.0,0.0,0.9914427,0.013257207,-0.1298672,-0.00044232074,0.0,0.0,0.0,0.0,0
65556113,0.0,0.0,0.0,0.9914446,0.013262594,-0.12985142,-0.00043824143,0.0,0.0,0.0,0.0,0
65591971,0.0,0.0,0.0,0.9914451,0.0132649895,-0.1298471,-0.00043345932,0.0,0.0,0.0,0.0,0
65623963,0.0,0.0,0.0,0.99144095,0.013263583,-0.1298796,-0.00042411036,0.0,0.0,0.0,0.0,0
65657695,0.0,0.0,0.0,0.9914395,0.013257667,-0.1298911,-0.00042797162,0.0,0.0,0.0,0.0,0
65691900,0.0,0.0,0.0,0.99144596,0.013260633,-0.12984185,-0.00037822063,0.0,0.0,0.0,0.0,0
65722744,0.0,0.0,0.0,0.99144405,0.01325416,-0.12985677,-0.0003986041,0.0,0.0,0.0,0.0,0
65757003,0.0,0.0,0.0,0.9914456,0.013246005,-0.12984616,-0.00040191706,0.0,0.0,0.0,0.0,0
65794774,0.0,0.0,0.0,0.99145085,0.013223145,-0.12980783,-0.00038745467,0.0,0.0,0.0,0.0,0
65825735,0.0,0.0,0.0,0.99144894,0.013245733,-0.1298203,-0.0004228908,0.0,0.0,0.0,0.0,0
65857748,0.0,0.0,0.0,0.99144995,0.013241284,-0.12981321,-0.00043147712,0.0,0.0,0.0,0.0,0
65889734,0.0,0.0,0.0,0.99144197,0.013252021,-0.12987246,-0.00043200192,0.0,0.0,0.0,0.0,0
65922749,0.0,0.0,0.0,0.99143815,0.0132508725,-0.12990214,-0.0004234738,0.0,0.0,0.0,0.0,0
65956114,0.0,0.0,0.0,0.9914414,0.013257203,-0.1298762,-0.00042685404,0.0,0.0,0.0,0.0,0
65990701,0.0,0.0,0.0,0.99143887,0.013258949,-0.12989582,-0.000444582,0.0,0.0,0.0,0.0,0
66024779,0.0,0.0,0.0,0.99143964,0.013267722,-0.12988892,-0.00046572404,0.0,0.0,0.0,0.0,0
66057733,0.0,0.0,0.0,0.99144274,0.013271525,-0.12986475,-0.0004785891,0.0,0.0,0.0,0.0,0
66089781,0.0,0.0,0.0,0.99144447,0.013266703,-0.12985234,-0.00047870376,0.0,0.0,0.0,0.0,0
66122751,0.0,0.0,0.0,0.9914472,0.013265637,-0.12983164,-0.00047891133,0.0,0.0,0.0,0.0,0
66160737,0.0,0.0,0.0,0.9914377,0.013280653,-0.12990208,-0.00048347353,0.0,0.0,0.0,0.0,0
66191927,0.0,0.0,0.0,0.9914425,0.013267348,-0.12986684,-0.00046690647,0.0,0.0,0.0,0.0,0
66222765,0.0,0.0,0.0,0.99144095,0.0132839875,-0.12987679,-0.00048398483,0.0,0.0,0.0,0.0,0
66255889,0.0,0.0,0.0,0.99144286,0.013283497,-0.12986238,-0.00048483966,0.0,0.0,0.0,0.0,0
66290734,0.0,0.0,0.0,0.99144214,0.013286018,-0.1298677,-0.00051859044,0.0,0.0,0.0,0.0,0
66322740,0.0,0.0,0.0,0.99144363,0.0132785775,-0.12985688,-0.0005235564,0.0,0.0,0.0,0.0,0
66356244,0.0,0.0,0.0,0.9914484,0.013277523,-0.12982094,-0.000515503,0.0,0.0,0.0,0.0,0
66389759,0.0,0.0,0.0,0.9914436,0.013279657,-0.12985758,-0.0005303762,0.0,0.0,0.0,0.0,0
66423901,0.0,0.0,0.0,0.9914418,0.013288298,-0.12987006,-0.0005525318,0.0,0.0,0.0,0.0,0
66456001,0.0,0.0,0.0,0.9914426,0.013288585,-0.12986305,-0.00055863766,0.0,0.0,0.0,0.0,0
66489747,0.0,0.0,0.0,0.99143964,0.013286831,-0.12988651,-0.00056119834,0.0,0.0,0.0,0.0,0
66522745,0.0,0.0,0.0,0.99143773,0.013292093,-0.12990054,-0.00056739163,0.0,0.0,0.0,0.0,0
66558767,0.0,0.0,0.0,0.9914359,0.013293036,-0.12991418,-0.0005702061,0.0,0.0,0.0,0.0,0
66592863,0.0,0.0,0.0,0.9914426,0.013300843,-0.12986188,-0.000583075,0.0,0.0,0.0,0.0,0
66624811,0.0,0.0,0.0,0.9914413,0.013269466,-0.1298758,-0.0006038282,0.0,0.0,0.0,0.0,0
66656828,0.0,0.0,0.0,0.9914348,0.013277612,-0.12992439,-0.0005943853,0.0,0.0,0.0,0.0,0
66690682,0.0,0.0,0.0,0.9914353,0.013249731,-0.12992403,-0.0005722519,0.0,0.0,0.0,0.0,0
66724778,0.0,0.0,0.0,0.9914355,0.013253372,-0.12992162,-0.00057471474,0.0,0.0,0.0,0.0,0
66756909,0.0,0.0,0.0,0.9914374,0.013262703,-0.12990609,-0.0005973023,0.0,0.0,0.0,0.0,0
66790792,0.0,0.0,0.0,0.9914357,0.013247606,-0.12992063,-0.00057443854,0.0,0.0,0.0,0.0,0
66824563,0.0,0.0,0.0,0.99143493,0.013270244,-0.1299238,-0.00056108565,0.0,0.0,0.0,0.0,0
66857689,0.0,0.0,0.0,0.9914396,0.013251067,-0.12989086,-0.00055025145,0.0,0.0,0.0,0.0,0
66890692,0.0,0.0,0.0,0.991437,0.013250192,-0.12991033,-0.0005569379,0.0,0.0,0.0,0.0,0
66922765,0.0,0.0,0.0,0.99143684,0.013273488,-0.12990855,-0.0005600691,0.0,0.0,0.0,0.0,0
66956905,0.0,0.0,0.0,0.99143445,0.013275367,-0.1299275,-0.00059718994,0.0,0.0,0.0,0.0,0
66996807,0.0,0.0,0.0,0.99143106,0.01326907,-0.1299534,-0.0006068162,0.0,0.0,0.0,0.0,0
67024557,0.0,0.0,0.0,0.99143183,0.013249103,-0.12994972,-0.0005918275,0.0,0.0,0.0,0.0,0
67056727,0.0,0.0,0.0,0.99143815,0.013259696,-0.12990053,-0.00061520486,0.0,0.0,0.0,0.0,0
67090746,0.0,0.0,0.0,0.9914384,0.013283412,-0.1298964,-0.00059484644,0.0,0.0,0.0,0.0,0
67122774,0.0,0.0,0.0,0.9914413,0.0132580055,-0.12987621,-0.0005919622,0.0,0.0,0.0,0.0,0
67160779,0.0,0.0,0.0,0.9914432,0.013239812,-0.1298643,-0.0005797634,0.0,0.0,0.0,0.0,0
67192387,0.0,0.0,0.0,0.9914439,0.0132392375,-0.12985855,-0.00057376426,0.0,0.0,0.0,0.0,0
67230684,0.0,0.0,0.0,0.9914427,0.013221425,-0.12987024,-0.00058417703,0.0,0.0,0.0,0.0,0
67256743,0.0,0.0,0.0,0.99144036,0.013214389,-0.12988806,-0.0006024995,0.0,0.0,0.0,0.0,0
67290737,0.0,0.0,0.0,0.99143904,0.013224259,-0.12989737,-0.0005896859,0.0,0.0,0.0,0.0,0
67325050,0.0,0.0,0.0,0.9914422,0.013205219,-0.12987523,-0.0005728661,0.0,0.0,0.0,0.0,0
67356710,0.0,0.0,0.0,0.99144256,0.01320701,-0.12987246,-0.00055931025,0.0,0.0,0.0,0.0,0
67392383,0.0,0.0,0.0,0.9914498,0.013207097,-0.12981793,-0.0005389426,0.0,0.0,0.0,0.0,0
67426779,0.0,0.0,0.0,0.9914464,0.013210262,-0.12984297,-0.0005473443,0.0,0.0,0.0,0.0,0
67456929,0.0,0.0,0.0,0.9914436,0.013218704,-0.12986335,-0.00052363577,0.0,0.0,0.0,0.0,0
67489774,0.0,0.0,0.0,0.991444,0.013228606,-0.12985964,-0.000534244,0.0,0.0,0.0,0.0,0
67523852,0.0,0.0,0.0,0.99144185,0.013222353,-0.12987608,-0.00056352216,0.0,0.0,0.0,0.0,0
67557649,0.0,0.0,0.0,0.99144197,0.013243098,-0.12987298,-0.0005915224,0.0,0.0,0.0,0.0,0
67589903,0.0,0.0,0.0,0.99144083,0.013267552,-0.12987895,-0.0005837011,0.0,0.0,0.0,0.0,0
67623725,0.0,0.0,0.0,0.9914421,0.013243137,-0.12987196,-0.0005957144,0.0,0.0,0.0,0.0,0
67657173,0.0,0.0,0.0,0.99144435,0.013272801,-0.12985177,-0.0006087375,0.0,0.0,0.0,0.0,0
67689819,0.0,0.0,0.0,0.991445,0.013278361,-0.12984614,-0.000594033,0.0,0.0,0.0,0.0,0
67723754,0.0,0.0,0.0,0.9914419,0.013250442,-0.12987266,-0.000593121,0.0,0.0,0.0,0.0,0
67754979,0.0,0.0,0.0,0.99144393,0.013236792,-0.12985916,-0.00057732867,0.0,0.0,0.0,0.0,0
67791713,0.0,0.0,0.0,0.99144524,0.013222794,-0.12985018,-0.00056221295,0.0,0.0,0.0,0.0,0
67831709,0.0,0.0,0.0,0.9914439,0.01322201,-0.129861,-0.0005499594,0.0,0.0,0.0,0.0,0
67855925,0.0,0.0,0.0,0.99144685,0.013227557,-0.12983811,-0.0005174974,0.0,0.0,0.0,0.0,0
67889778,0.0,0.0,0.0,0.99144846,0.0132253915,-0.129826,-0.0005301564,0.0,0.0,0.0,0.0,0
67925761,0.0,0.0,0.0,0.99144715,0.013234464,-0.12983415,-0.00053768005,0.0,0.0,0.0,0.0,0
67956007,0.0,0.0,0.0,0.99144673,0.013217494,-0.12983969,-0.00049578794,0.0,0.0,0.0,0.0,0
67998101,0.0,0.0,0.0,0.9914464,0.013211147,-0.12984326,-0.00048111484,0.0,0.0,0.0,0.0,0
68025310,0.0,0.0,0.0,0.99144083,0.013208215,-0.12988587,-0.0004678705,0.0,0.0,0.0,0.0,0
68057190,0.0,0.0,0.0,0.9914444,0.01320333,-0.12985937,-0.00047621294,0.0,0.0,0.0,0.0,0
68089759,0.0,0.0,0.0,0.99144346,0.013186116,-0.1298681,-0.00047776065,0.0,0.0,0.0,0.0,0
68122749,0.0,0.0,0.0,0.9914483,0.013177465,-0.12983172,-0.00048069595,0.0,0.0,0.0,0.0,0
68157709,0.0,0.0,0.0,0.9914466,0.013195724,-0.12984258,-0.0005128877,0.0,0.0,0.0,0.0,0
68199838,0.0,0.0,0.0,0.9914464,0.013204492,-0.12984414,-0.000529261,0.0,0.0,0.0,0.0,0
68223703,0.0,0.0,0.0,0.99144924,0.013196634,-0.1298221,-0.0005450154,0.0,0.0,0.0,0.0,0
68257346,0.0,0.0,0.0,0.9914454,0.0132068815,-0.12985057,-0.0005666153,0.0,0.0,0.0,0.0,0
68291837,0.0,0.0,0.0,0.99144435,0.013203127,-0.12985912,-0.00055408623,0.0,0.0,0.0,0.0,0
68323698,0.0,0.0,0.0,0.99144644,0.013181925,-0.12984507,-0.0005498628,0.0,0.0,0.0,0.0,0
68361751,0.0,0.0,0.0,0.9914441,0.0131991515,-0.12986182,-0.00056037767,0.0,0.0,0.0,0.0,0
68397690,0.0,0.0,0.0,0.9914449,0.013210672,-0.1298546,-0.00055967,0.0,0.0,0.0,0.0,0
68423829,0.0,0.0,0.0,0.9914521,0.013191761,-0.12980133,-0.00051307306,0.0,0.0,0.0,0.0,0
68457349,0.0,0.0,0.0,0.9914525,0.013204387,-0.12979709,-0.0005028838,0.0,0.0,0.0,0.0,0
68489742,0.0,0.0,0.0,0.99145263,0.013182468,-0.12979852,-0.00050875306,0.0,0.0,0.0,0.0,0
68522751,0.0,0.0,0.0,0.9914495,0.013172641,-0.12982301,-0.000520608,0.0,0.0,0.0,0.0,0
68555983,0.0,0.0,0.0,0.9914492,0.013178801,-0.12982507,-0.0005062938,0.0,0.0,0.0,0.0,0
68595712,0.0,0.0,0.0,0.991449,0.013167213,-0.12982754,-0.00055122917,0.0,0.0,0.0,0.0,0
68621867,0.0,0.0,0.0,0.9914491,0.013182653,-0.12982464,-0.0005239208,0.0,0.0,0.0,0.0,0
68657500,0.0,0.0,0.0,0.9914455,0.013181454,-0.12985314,-0.0005096082,0.0,0.0,0.0,0.0,0
68690142,0.0,0.0,0.0,0.9914491,0.013190929,-0.12982373,-0.0005255228,0.0,0.0,0.0,0.0,0
68724694,0.0,0.0,0.0,0.9914476,0.013189102,-0.12983586,-0.0005584674,0.0,0.0,0.0,0.0,0
68756855,0.0,0.0,0.0,0.9914479,0.0131900525,-0.12983361,-0.00056639215,0.0,0.0,0.0,0.0,0
68792822,0.0,0.0,0.0,0.9914432,0.013185809,-0.12986924,-0.0005865327,0.0,0.0,0.0,0.0,0
68824806,0.0,0.0,0.0,0.99144036,0.013194742,-0.12989059,-0.0006007383,0.0,0.0,0.0,0.0,0
68856898,0.0,0.0,0.0,0.9914404,0.013160368,-0.1298928,-0.0005952175,0.0,0.0,0.0,0.0,0
68890128,0.0,0.0,0.0,0.99144274,0.013131355,-0.12987837,-0.0006089856,0.0,0.0,0.0,0.0,0
68922777,0.0,0.0,0.0,0.99144506,0.013126694,-0.12986128,-0.0006302913,0.0,0.0,0.0,0.0,0
68958833,0.0,0.0,0.0,0.9914464,0.013142853,-0.12984951,-0.00059523206,0.0,0.0,0.0,0.0,0
68990614,0.0,0.0,0.0,0.99145323,0.013141058,-0.1297977,-0.0005766949,0.0,0.0,0.0,0.0,0
69024684,0.0,0.0,0.0,0.9914553,0.013154687,-0.12978022,-0.0005834122,0.0,0.0,0.0,0.0,0
69056758,0.0,0.0,0.0,0.99145085,0.013181587,-0.12981206,-0.0005654884,0.0,0.0,0.0,0.0,0
69090687,0.0,0.0,0.0,0.99144566,0.013164173,-0.12985301,-0.0005626459,0.0,0.0,0.0,0.0,0
69122497,0.0,0.0,0.0,0.99144465,0.013170175,-0.1298599,-0.00054665626,0.0,0.0,0.0,0.0,0
69158531,0.0,0.0,0.0,0.9914436,0.013172562,-0.12986779,-0.0005271753,0.0,0.0,0.0,0.0,0
69190605,0.0,0.0,0.0,0.99144584,0.013146478,-0.12985402,-0.000544268,0.0,0.0,0.0,0.0,0
69224935,0.0,0.0,0.0,0.9914486,0.013153412,-0.12983185,-0.000555298,0.0,0.0,0.0,0.0,0
69256753,0.0,0.0,0.0,0.9914445,0.013137799,-0.12986454,-0.0005808059,0.0,0.0,0.0,0.0,0
69291831,0.0,0.0,0.0,0.99144614,0.013143446,-0.12985179,-0.000563984,0.0,0.0,0.0,0.0,0
69324813,0.0,0.0,0.0,0.99144274,0.013144353,-0.12987752,-0.00055942783,0.0,0.0,0.0,0.0,0
69356752,0.0,0.0,0.0,0.99143475,0.013158706,-0.12993725,-0.0005854993,0.0,0.0,0.0,0.0,0
69390530,0.0,0.0,0.0,0.9914335,0.013131385,-0.12994917,-0.00058867555,0.0,0.0,0.0,0.0,0
69424698,0.0,0.0,0.0,0.99143595,0.013124106,-0.12993161,-0.0005865129,0.0,0.0,0.0,0.0,0
69457956,0.0,0.0,0.0,0.9914347,0.013114556,-0.12994193,-0.00058180717,0.0,0.0,0.0,0.0,0
69490740,0.0,0.0,0.0,0.9914344,0.013111796,-0.12994452,-0.0006160559,0.0,0.0,0.0,0.0,0
69522299,0.0,0.0,0.0,0.9914395,0.013112778,-0.129905,-0.0005793182,0.0,0.0,0.0,0.0,0
69558569,0.0,0.0,0.0,0.9914343,0.013078311,-0.12994885,-0.00057530444,0.0,0.0,0.0,0.0,0
69590413,0.0,0.0,0.0,0.9914331,0.013079547,-0.12995754,-0.0005796648,0.0,0.0,0.0,0.0,0
69626686,0.0,0.0,0.0,0.99143267,0.013083363,-0.1299606,-0.00056901335,0.0,0.0,0.0,0.0,0
69655115,0.0,0.0,0.0,0.99143773,0.013104633,-0.12991925,-0.0005761139,0.0,0.0,0.0,0.0,0
69690262,0.0,0.0,0.0,0.99144024,0.01309137,-0.12990196,-0.0005672952,0.0,0.0,0.0,0.0,0
69722742,0.0,0.0,0.0,0.991442,0.0131074395,-0.12988725,-0.00055169157,0.0,0.0,0.0,0.0,0
69759958,0.0,0.0,0.0,0.9914444,0.013090598,-0.12987025,-0.00056576036,0.0,0.0,0.0,0.0,0
69794131,0.0,0.0,0.0,0.9914452,0.013096936,-0.1298637,-0.0005620033,0.0,0.0,0.0,0.0,0
69824686,0.0,0.0,0.0,0.9914481,0.013101275,-0.12984093,-0.0005707087,0.0,0.0,0.0,0.0,0
69858712,0.0,0.0,0.0,0.991446,0.013110688,-0.1298554,-0.0005664791,0.0,0.0,0.0,0.0,0
69890195,0.0,0.0,0.0,0.99143964,0.013101679,-0.12990543,-0.0005691478,0.0,0.0,0.0,0.0,0
69922129,0.0,0.0,0.0,0.99144095,0.013090724,-0.12989679,-0.00057779456,0.0,0.0,0.0,0.0,0
69956801,0.0,0.0,0.0,0.9914466,0.013073201,-0.12985475,-0.0005848756,0.0,0.0,0.0,0.0,0
69999176,0.0,0.0,0.0,0.9914501,0.013087552,-0.12982729,-0.00058919983,0.0,0.0,0.0,0.0,0
70023517,0.0,0.0,0.0,0.99145246,0.013072695,-0.1298105,-0.0005650113,0.0,0.0,0.0,0.0,0
70055365,0.0,0.0,0.0,0.99145246,0.013066555,-0.12981153,-0.00056394166,0.0,0.0,0.0,0.0,0
70091732,0.0,0.0,0.0,0.99145347,0.013052654,-0.12980431,-0.00056574866,0.0,0.0,0.0,0.0,0
70124807,0.0,0.0,0.0,0.9914525,0.013052256,-0.12981243,-0.00057997566,0.0,0.0,0.0,0.0,0
70156734,0.0,0.0,0.0,0.9914501,0.013038538,-0.12983184,-0.0005667381,0.0,0.0,0.0,0.0,0
70189752,0.0,0.0,0.0,0.9914478,0.013047256,-0.12984821,-0.0005615284,0.0,0.0,0.0,0.0,0
70223368,0.0,0.0,0.0,0.9914493,0.01303332,-0.12983915,-0.0005308352,0.0,0.0,0.0,0.0,0
70255538,0.0,0.0,0.0,0.99145204,0.013001499,-0.12982103,-0.0005324718,0.0,0.0,0.0,0.0,0
70291106,0.0,0.0,0.0,0.9914517,0.013037553,-0.12982045,-0.00055436604,0.0,0.0,0.0,0.0,0
70329766,0.0,0.0,0.0,0.99144655,0.01303405,-0.12985936,-0.00053056673,0.0,0.0,0.0,0.0,0
70355223,0.0,0.0,0.0,0.99145013,0.013022922,-0.12983318,-0.000545759,0.0,0.0,0.0,0.0,0
70389735,0.0,0.0,0.0,0.9914457,0.013036005,-0.12986572,-0.00053753995,0.0,0.0,0.0,0.0,0
70424938,0.0,0.0,0.0,0.9914395,0.01301717,-0.12991536,-0.00054696656,0.0,0.0,0.0,0.0,0
70456766,0.0,0.0,0.0,0.9914383,0.013008863,-0.12992482,-0.0005691813,0.0,0.0,0.0,0.0,0
70491844,0.0,0.0,0.0,0.9914363,0.013019348,-0.12993895,-0.0005709748,0.0,0.0,0.0,0.0,0
70523869,0.0,0.0,0.0,0.9914452,0.0130190365,-0.12987128,-0.0005666376,0.0,0.0,0.0,0.0,0
70555137,0.0,0.0,0.0,0.9914452,0.013005388,-0.12987283,-0.00059628754,0.0,0.0,0.0,0.0,0
70589740,0.0,0.0,0.0,0.99144894,0.013006889,-0.12984386,-0.00059499394,0.0,0.0,0.0,0.0,0
70623306,0.0,0.0,0.0,0.9914449,0.013051172,-0.12987007,-0.0005945123,0.0,0.0,0.0,0.0,0
70659742,0.0,0.0,0.0,0.99144405,0.013019692,-0.12987967,-0.00060117093,0.0,0.0,0.0,0.0,0
70691085,0.0,0.0,0.0,0.99144477,0.0130070755,-0.12987624,-0.0005859097,0.0,0.0,0.0,0.0,0
70723167,0.0,0.0,0.0,0.99144447,0.013033816,-0.12987542,-0.0005902031,0.0,0.0,0.0,0.0,0
70755092,0.0,0.0,0.0,0.991445,0.013055301,-0.1298694,-0.0006055995,0.0,0.0,0.0,0.0,0
70789793,0.0,0.0,0.0,0.9914506,0.013034281,-0.12982836,-0.00058965315,0.0,0.0,0.0,0.0,0
70823972,0.0,0.0,0.0,0.9914567,0.013051828,-0.12978067,-0.0005376136,0.0,0.0,0.0,0.0,0
70857709,0.0,0.0,0.0,0.9914533,0.013076527,-0.12980388,-0.0005457823,0.0,0.0,0.0,0.0,0
70890960,0.0,0.0,0.0,0.9914548,0.013060264,-0.12979425,-0.0005195834,0.0,0.0,0.0,0.0,0
70922978,0.0,0.0,0.0,0.9914467,0.0130552,-0.1298568,-0.0005208626,0.0,0.0,0.0,0.0,0
70957743,0.0,0.0,0.0,0.99144655,0.0130673,-0.12985638,-0.0005047607,0.0,0.0,0.0,0.0,0
70991737,0.0,0.0,0.0,0.9914462,0.013059566,-0.1298601,-0.0005193144,0.0,0.0,0.0,0.0,0
71025752,0.0,0.0,0.0,0.99144745,0.013052747,-0.1298508,-0.00053277164,0.0,0.0,0.0,0.0,0
71063198,0.0,0.0,0.0,0.9914492,0.013053674,-0.12983762,-0.00054492237,0.0,0.0,0.0,0.0,0
71089733,0.0,0.0,0.0,0.991451,0.013068753,-0.12982173,-0.00053957297,0.0,0.0,0.0,0.0,0
71122775,0.0,0.0,0.0,0.991449,0.013078643,-0.12983613,-0.0005521306,0.0,0.0,0.0,0.0,0
71155950,0.0,0.0,0.0,0.991446,0.013077754,-0.12985957,-0.00054633437,0.0,0.0,0.0,0.0,0
71189742,0.0,0.0,0.0,0.99144375,0.013072664,-0.1298771,-0.0005506995,0.0,0.0,0.0,0.0,0
71224527,0.0,0.0,0.0,0.99144053,0.01309639,-0.129899,-0.00051312003,0.0,0.0,0.0,0.0,0
71255977,0.0,0.0,0.0,0.9914391,0.013104363,-0.12990966,-0.0005227273,0.0,0.0,0.0,0.0,0
71289733,0.0,0.0,0.0,0.9914435,0.013078812,-0.12987824,-0.0005365172,0.0,0.0,0.0,0.0,0
71324792,0.0,0.0,0.0,0.99145347,0.013074379,-0.129803,-0.000542707,0.0,0.0,0.0,0.0,0
71356082,0.0,0.0,0.0,0.9914532,0.013077678,-0.12980478,-0.00051564287,0.0,0.0,0.0,0.0,0
71389736,0.0,0.0,0.0,0.9914535,0.013070215,-0.12980306,-0.00051327486,0.0,0.0,0.0,0.0,0
71424145,0.0,0.0,0.0,0.9914515,0.013051788,-0.12982033,-0.0005166025,0.0,0.0,0.0,0.0,0
71457798,0.0,0.0,0.0,0.99144787,0.013035649,-0.12984964,-0.0004921554,0.0,0.0,0.0,0.0,0
71489764,0.0,0.0,0.0,0.991446,0.013052165,-0.1298625,-0.0004719161,0.0,0.0,0.0,0.0,0
71523536,0.0,0.0,0.0,0.99144465,0.013079755,-0.12986933,-0.00048179826,0.0,0.0,0.0,0.0,0
71555995,0.0,0.0,0.0,0.99144775,0.013088402,-0.1298457,-0.0004274435,0.0,0.0,0.0,0.0,0
71589762,0.0,0.0,0.0,0.9914477,0.013089447,-0.12984656,-0.00039545924,0.0,0.0,0.0,0.0,0
71629741,0.0,0.0,0.0,0.9914475,0.013070269,-0.12984928,-0.0004087372,0.0,0.0,0.0,0.0,0
71655964,0.0,0.0,0.0,0.99144846,0.0130645055,-0.12984219,-0.00039983366,0.0,0.0,0.0,0.0,0
71689740,0.0,0.0,0.0,0.9914499,0.013053701,-0.1298328,-0.00039847763,0.0,0.0,0.0,0.0,0
71722743,0.0,0.0,0.0,0.99144727,0.013047598,-0.12985276,-0.00043268615,0.0,0.0,0.0,0.0,0
71756242,0.0,0.0,0.0,0.99144936,0.013054755,-0.1298363,-0.00040270478,0.0,0.0,0.0,0.0,0
71792136,0.0,0.0,0.0,0.9914523,0.013044276,-0.129815,-0.00043842287,0.0,0.0,0.0,0.0,0
71832006,0.0,0.0,0.0,0.9914579,0.01307958,-0.12976903,-0.00044142883,0.0,0.0,0.0,0.0,0
71861825,0.0,0.0,0.0,0.9914575,0.013084523,-0.1297707,-0.00046039346,0.0,0.0,0.0,0.0,0
71889735,0.0,0.0,0.0,0.9914566,0.013076382,-0.12977931,-0.00043345135,0.0,0.0,0.0,0.0,0
71923905,0.0,0.0,0.0,0.9914556,0.0130889835,-0.12978554,-0.00042032622,0.0,0.0,0.0,0.0,0
71955864,0.0,0.0,0.0,0.9914559,0.013081929,-0.12978385,-0.00041128145,0.0,0.0,0.0,0.0,0
71991877,0.0,0.0,0.0,0.9914491,0.013075577,-0.12983656,-0.00042820754,0.0,0.0,0.0,0.0,0
72024905,0.0,0.0,0.0,0.99145025,0.013102008,-0.12982494,-0.00042026537,0.0,0.0,0.0,0.0,0
72056046,0.0,0.0,0.0,0.9914459,0.013096935,-0.12985834,-0.0004113887,0.0,0.0,0.0,0.0,0
72091846,0.0,0.0,0.0,0.9914471,0.013095051,-0.12985,-0.0004137305,0.0,0.0,0.0,0.0,0
72122741,0.0,0.0,0.0,0.9914518,0.013090789,-0.12981446,-0.0003653008,0.0,0.0,0.0,0.0,0
72156807,0.0,0.0,0.0,0.9914521,0.013083506,-0.12981258,-0.00035001512,0.0,0.0,0.0,0.0,0
72189817,0.0,0.0,0.0,0.9914523,0.013092625,-0.12981105,-0.00036650326,0.0,0.0,0.0,0.0,0
72231988,0.0,0.0,0.0,0.9914512,0.013105493,-0.12981707,-0.00034602662,0.0,0.0,0.0,0.0,0
72258717,0.0,0.0,0.0,0.99144983,0.013092791,-0.12982963,-0.0003315936,0.0,0.0,0.0,0.0,0
72290762,0.0,0.0,0.0,0.99145204,0.013078601,-0.12981428,-0.00030044097,0.0,0.0,0.0,0.0,0
72322733,0.0,0.0,0.0,0.99145055,0.013098576,-0.12982307,-0.00031872958,0.0,0.0,0.0,0.0,0
72356719,0.0,0.0,0.0,0.99145144,0.013119398,-0.12981443,-0.00031357087,0.0,0.0,0.0,0.0,0
72390731,0.0,0.0,0.0,0.99145293,0.013107938,-0.12980428,-0.00030127357,0.0,0.0,0.0,0.0,0
72425053,0.0,0.0,0.0,0.99145466,0.013109152,-0.12979116,-0.00027213912,0.0,0.0,0.0,0.0,0
72458692,0.0,0.0,0.0,0.9914528,0.013086292,-0.12980765,-0.0002898849,0.0,0.0,0.0,0.0,0
72490690,0.0,0.0,0.0,0.99145,0.013090595,-0.12982811,-0.00032446676,0.0,0.0,0.0,0.0,0
72522741,0.0,0.0,0.0,0.99144936,0.013098262,-0.12983301,-0.000327808,0.0,0.0,0.0,0.0,0
72556887,0.0,0.0,0.0,0.9914501,0.013082284,-0.129829,-0.0003142724,0.0,0.0,0.0,0.0,0
72590806,0.0,0.0,0.0,0.9914464,0.013072299,-0.12985812,-0.00031830234,0.0,0.0,0.0,0.0,0
72626749,0.0,0.0,0.0,0.9914525,0.013071006,-0.12981129,-0.0002813776,0.0,0.0,0.0,0.0,0
72662733,0.0,0.0,0.0,0.9914578,0.013076379,-0.1297701,-0.00027579887,0.0,0.0,0.0,0.0,0
72692541,0.0,0.0,0.0,0.9914551,0.013085183,-0.12979022,-0.00028667602,0.0,0.0,0.0,0.0,0
72722951,0.0,0.0,0.0,0.99145937,0.013069207,-0.12975839,-0.0002956102,0.0,0.0,0.0,0.0,0
72756764,0.0,0.0,0.0,0.99145705,0.013049397,-0.12977862,-0.00029965863,0.0,0.0,0.0,0.0,0
72790693,0.0,0.0,0.0,0.991452,0.0130764805,-0.12981443,-0.00026957787,0.0,0.0,0.0,0.0,0
72824996,0.0,0.0,0.0,0.99144965,0.013058639,-0.12983418,-0.00030741867,0.0,0.0,0.0,0.0,0
72858695,0.0,0.0,0.0,0.9914592,0.013072829,-0.12975983,-0.00029627795,0.0,0.0,0.0,0.0,0
72889024,0.0,0.0,0.0,0.9914621,0.013082569,-0.12973684,-0.00031694167,0.0,0.0,0.0,0.0,0
72922744,0.0,0.0,0.0,0.99146146,0.013077985,-0.12974243,-0.00031978605,0.0,0.0,0.0,0.0,0
72956848,0.0,0.0,0.0,0.99146783,0.013068321,-0.12969394,-0.00030338197,0.0,0.0,0.0,0.0,0
72992739,0.0,0.0,0.0,0.9914661,0.013082094,-0.1297066,-0.00029256978,0.0,0.0,0.0,0.0,0
73033735,0.0,0.0,0.0,0.9914636,0.0131089445,-0.12972301,-0.00031217773,0.0,0.0,0.0,0.0,0
73056927,0.0,0.0,0.0,0.9914593,0.013083606,-0.12975755,-0.00032766536,0.0,0.0,0.0,0.0,0
73088889,0.0,0.0,0.0,0.9914603,0.013102962,-0.12974812,-0.0003337488,0.0,0.0,0.0,0.0,0
73124688,0.0,0.0,0.0,0.99146205,0.013109073,-0.1297345,-0.00031513363,0.0,0.0,0.0,0.0,0
73157691,0.0,0.0,0.0,0.99146616,0.013103486,-0.12970357,-0.00032722848,0.0,0.0,0.0,0.0,0
73190724,0.0,0.0,0.0,0.9914663,0.013092146,-0.12970397,-0.0003321916,0.0,0.0,0.0,0.0,0
73227738,0.0,0.0,0.0,0.9914686,0.013086002,-0.12968655,-0.0003292932,0.0,0.0,0.0,0.0,0
73257566,0.0,0.0,0.0,0.9914678,0.013081091,-0.12969379,-0.00031588893,0.0,0.0,0.0,0.0,0
73289801,0.0,0.0,0.0,0.99145854,0.013063801,-0.12976602,-0.00030108963,0.0,0.0,0.0,0.0,0
73321578,0.0,0.0,0.0,0.99145865,0.013071104,-0.12976421,-0.00031549615,0.0,0.0,0.0,0.0,0
73355860,0.0,0.0,0.0,0.99145585,0.013083501,-0.12978388,-0.0003601847,0.0,0.0,0.0,0.0,0
73389760,0.0,0.0,0.0,0.9914621,0.013068238,-0.12973805,-0.000330535,0.0,0.0,0.0,0.0,0
73427702,0.0,0.0,0.0,0.9914625,0.01307116,-0.12973449,-0.00033589685,0.0,0.0,0.0,0.0,0
73459707,0.0,0.0,0.0,0.991468,0.013085933,-0.12969126,-0.0003278409,0.0,0.0,0.0,0.0,0
73489741,0.0,0.0,0.0,0.9914639,0.013069059,-0.12972437,-0.00034084718,0.0,0.0,0.0,0.0,0
73525329,0.0,0.0,0.0,0.9914654,0.013068077,-0.12971322,-0.00034705992,0.0,0.0,0.0,0.0,0
73555803,0.0,0.0,0.0,0.9914598,0.013084974,-0.12975404,-0.0003457782,0.0,0.0,0.0,0.0,0
73595962,0.0,0.0,0.0,0.9914617,0.0130769,-0.12974033,-0.00035748712,0.0,0.0,0.0,0.0,0
73622752,0.0,0.0,0.0,0.99146,0.013059122,-0.12975506,-0.0003657617,0.0,0.0,0.0,0.0,0
73657821,0.0,0.0,0.0,0.9914636,0.013065122,-0.12972686,-0.00033354212,0.0,0.0,0.0,0.0,0
73689741,0.0,0.0,0.0,0.99146837,0.013107509,-0.1296861,-0.00029453335,0.0,0.0,0.0,0.0,0
73723721,0.0,0.0,0.0,0.99146736,0.01310423,-0.12969454,-0.0003068097,0.0,0.0,0.0,0.0,0
73755898,0.0,0.0,0.0,0.991465,0.013115209,-0.12971112,-0.00032430867,0.0,0.0,0.0,0.0,0
73789745,0.0,0.0,0.0,0.99145985,0.0131312,-0.1297492,-0.00028832574,0.0,0.0,0.0,0.0,0
73825592,0.0,0.0,0.0,0.9914632,0.0131350905,-0.12972347,-0.0002738927,0.0,0.0,0.0,0.0,0
73859701,0.0,0.0,0.0,0.9914652,0.013131439,-0.12970819,-0.00029004205,0.0,0.0,0.0,0.0,0
73891720,0.0,0.0,0.0,0.99146336,0.013124267,-0.12972306,-0.00028739887,0.0,0.0,0.0,0.0,0
73922219,0.0,0.0,0.0,0.9914674,0.01314224,-0.12968999,-0.00025263726,0.0,0.0,0.0,0.0,0
73957688,0.0,0.0,0.0,0.9914701,0.013161759,-0.12966752,-0.00027492264,0.0,0.0,0.0,0.0,0
73989840,0.0,0.0,0.0,0.9914733,0.013182269,-0.12964082,-0.0002640243,0.0,0.0,0.0,0.0,0
74025708,0.0,0.0,0.0,0.99147,0.013182826,-0.1296667,-0.00021954355,0.0,0.0,0.0,0.0,0
74057627,0.0,0.0,0.0,0.9914729,0.013184289,-0.12964414,-0.00021374898,0.0,0.0,0.0,0.0,0
74089790,0.0,0.0,0.0,0.9914726,0.013194625,-0.12964527,-0.00020750109,0.0,0.0,0.0,0.0,0
74123701,0.0,0.0,0.0,0.99146986,0.0132198725,-0.12966399,-0.0002153186,0.0,0.0,0.0,0.0,0
74157441,0.0,0.0,0.0,0.9914706,0.01321596,-0.12965827,-0.00022148954,0.0,0.0,0.0,0.0,0
74190734,0.0,0.0,0.0,0.99147207,0.01321868,-0.12964709,-0.00023314574,0.0,0.0,0.0,0.0,0
74225508,0.0,0.0,0.0,0.9914733,0.013221594,-0.12963721,-0.00024417773,0.0,0.0,0.0,0.0,0
74262690,0.0,0.0,0.0,0.99146986,0.013232035,-0.12966292,-0.00026452003,0.0,0.0,0.0,0.0,0
74289919,0.0,0.0,0.0,0.9914702,0.013238921,-0.129659,-0.0002964426,0.0,0.0,0.0,0.0,0
74322951,0.0,0.0,0.0,0.99146706,0.013246914,-0.12968238,-0.00025915678,0.0,0.0,0.0,0.0,0
74355819,0.0,0.0,0.0,0.991463,0.013260991,-0.12971157,-0.00028350245,0.0,0.0,0.0,0.0,0
74393627,0.0,0.0,0.0,0.9914662,0.013268339,-0.1296862,-0.00028616036,0.0,0.0,0.0,0.0,0
74423851,0.0,0.0,0.0,0.99146444,0.013267281,-0.12969981,-0.00027855005,0.0,0.0,0.0,0.0,0
74457747,0.0,0.0,0.0,0.99146324,0.013283922,-0.12970737,-0.00026557464,0.0,0.0,0.0,0.0,0
74489822,0.0,0.0,0.0,0.99146855,0.01326018,-0.12966931,-0.00024355059,0.0,0.0,0.0,0.0,0
74525319,0.0,0.0,0.0,0.991468,0.013256912,-0.12967384,-0.00023903218,0.0,0.0,0.0,0.0,0
74555802,0.0,0.0,0.0,0.99147093,0.013252908,-0.12965217,-0.00026171267,0.0,0.0,0.0,0.0,0
74592733,0.0,0.0,0.0,0.9914711,0.013239491,-0.12965174,-0.00025150515,0.0,0.0,0.0,0.0,0
74630141,0.0,0.0,0.0,0.99146533,0.013246256,-0.1296953,-0.00027962256,0.0,0.0,0.0,0.0,0
74659716,0.0,0.0,0.0,0.9914673,0.013231618,-0.12968223,-0.00024198761,0.0,0.0,0.0,0.0,0
74690264,0.0,0.0,0.0,0.99146944,0.013241314,-0.12966442,-0.00022633499,0.0,0.0,0.0,0.0,0
74722639,0.0,0.0,0.0,0.991473,0.013263883,-0.12963484,-0.00024693247,0.0,0.0,0.0,0.0,0
74758440,0.0,0.0,0.0,0.9914743,0.013243024,-0.12962721,-0.00022106894,0.0,0.0,0.0,0.0,0
74790277,0.0,0.0,0.0,0.9914723,0.013235457,-0.12964307,-0.0002222955,0.0,0.0,0.0,0.0,0
74826335,0.0,0.0,0.0,0.9914763,0.013215221,-0.12961511,-0.00021209623,0.0,0.0,0.0,0.0,0
74856753,0.0,0.0,0.0,0.9914757,0.013220451,-0.12961936,-0.00021902061,0.0,0.0,0.0,0.0,0
74890441,0.0,0.0,0.0,0.9914726,0.013200668,-0.12964453,-0.00022264042,0.0,0.0,0.0,0.0,0
74922929,0.0,0.0,0.0,0.9914728,0.013186715,-0.12964438,-0.0002307413,0.0,0.0,0.0,0.0,0
74955082,0.0,0.0,0.0,0.9914765,0.0131844105,-0.12961654,-0.00022644487,0.0,0.0,0.0,0.0,0
74990108,0.0,0.0,0.0,0.9914788,0.0131993145,-0.12959778,-0.00021721268,0.0,0.0,0.0,0.0,0
75023955,0.0,0.0,0.0,0.9914821,0.013193865,-0.12957339,-0.0002235033,0.0,0.0,0.0,0.0,0
75056751,0.0,0.0,0.0,0.9914817,0.01320527,-0.1295747,-0.00021351149,0.0,0.0,0.0,0.0,0
75090539,0.0,0.0,0.0,0.9914815,0.013201516,-0.12957647,-0.00019770904,0.0,0.0,0.0,0.0,0
75124688,0.0,0.0,0.0,0.9914812,0.013196042,-0.12957937,-0.00020303085,0.0,0.0,0.0,0.0,0
75155970,0.0,0.0,0.0,0.9914789,0.013217217,-0.12959509,-0.00021723515,0.0,0.0,0.0,0.0,0
75192765,0.0,0.0,0.0,0.9914804,0.013218435,-0.12958299,-0.00021376365,0.0,0.0,0.0,0.0,0
75223944,0.0,0.0,0.0,0.9914857,0.013195576,-0.1295452,-0.00021961654,0.0,0.0,0.0,0.0,0
