timestamp,lat,lon,alt,x,y,z,yaw,valid_alt,valid_hpos,manual_home
57582656,0.0,0.0,0.0,0.0,0.0,0.0,0.0,1,0,0
58607912,30.787206553341054,103.85864418193849,-0.0812298,-0.005188239,-0.011277788,0.0812298,0.16761549,1,1,0
70361726,30.78720676218026,103.85864427342108,-0.008569272,0.018033622,-0.0025389423,0.008569272,0.15825075,1,1,0
76904092,30.787206754713306,103.85864441445781,-0.19519976,0.017203335,0.010933548,0.19519976,0.15767364,1,1,0
83128761,30.78720657624375,103.85864425939931,-0.07401236,-0.002641575,-0.0038783674,0.07401236,0.15825275,1,1,0
95180826,30.787206436196556,103.85864406849618,-0.06290905,-0.018214112,-0.02211433,0.06290905,0.15821205,1,1,0
97250724,30.787206596198658,103.85864411788201,0.11929422,-0.00042268957,-0.017396765,-0.11929422,0.15821357,1,1,0
100933017,30.78720663244694,103.85864437244648,0.06397103,0.003607934,0.0069204275,-0.06397103,0.15709484,1,1,0
102541667,30.787206464643443,103.85864418959883,0.086396545,-0.015050963,-0.010546037,-0.086396545,0.09957076,1,1,0
102641727,30.787206333027136,103.8586439995624,0.09653802,-0.029686028,-0.028699208,-0.09653802,0.0028417108,1,1,0
102742438,30.78720619661403,103.85864375117275,0.111389585,-0.044854473,-0.052426554,-0.111389585,-0.09395552,1,1,0
102809364,30.787206102113505,103.8586435282654,0.12500322,-0.05536245,-0.07371971,-0.12500322,-0.15318015,1,1,0
102874784,30.787206018189707,103.85864327911813,0.13967139,-0.06469435,-0.09751943,-0.13967139,-0.20481133,1,1,0
102941518,30.787205936133905,103.85864298895613,0.15609182,-0.07381854,-0.12523706,-0.15609182,-0.25445786,1,1,0
103006758,30.787205869497466,103.85864272509765,0.17440656,-0.081228174,-0.15044206,-0.17440656,-0.3009596,1,1,0
103073788,30.78720580241761,103.85864246992922,0.19693723,-0.088687114,-0.17481695,-0.19693723,-0.34669262,1,1,0
103151860,30.787205725137955,103.85864220434702,0.22385873,-0.09728022,-0.20018661,-0.22385873,-0.3941204,1,1,0
103230529,30.787205638158703,103.85864195581077,0.25243896,-0.10695187,-0.22392796,-0.25243896,-0.43903276,1,1,0
103318424,30.78720554139329,103.85864171020032,0.2825552,-0.11771169,-0.24738982,-0.2825552,-0.4823409,1,1,0
103428047,30.787205406750193,103.8586414832371,0.32353634,-0.13268332,-0.26907042,-0.32353634,-0.5257281,1,1,0
103559842,30.78720519819745,103.85864133901399,0.37155494,-0.15587333,-0.2828473,-0.37155494,-0.5787186,1,1,0
103758541,30.787204943013062,103.85864130883843,0.40263787,-0.18424854,-0.2857298,-0.40263787,-0.66352534,1,1,0
103934469,30.787204693539636,103.85864124823276,0.41589713,-0.21198872,-0.29151914,-0.41589713,-0.7469663,1,1,0
104122433,30.78720444746038,103.85864116938966,0.4472188,-0.23935148,-0.2990506,-0.4472188,-0.848256,1,1,0
104298961,30.787204217684444,103.85864105460426,0.4987166,-0.2649014,-0.31001544,-0.4987166,-0.92196846,1,1,0
104463900,30.78720405368485,103.8586408714226,0.57424164,-0.28313732,-0.3275138,-0.57424164,-0.9930771,1,1,0
104617725,30.78720387405307,103.85864070641533,0.6403283,-0.30311146,-0.34327608,-0.6403283,-1.0465715,1,1,0
104739061,30.78720367746616,103.8586405368434,0.67931277,-0.32497093,-0.3594744,-0.67931277,-1.0708647,1,1,0
104903868,30.78720351535824,103.85864032856313,0.70846516,-0.3429965,-0.3793703,-0.70846516,-1.0911871,1,1,0
105247364,30.78720371145468,103.85864019936086,0.73431975,-0.32119158,-0.3917123,-0.73431975,-1.0879883,1,1,0
105401776,30.78720392185071,103.85864030718368,0.7300417,-0.2977966,-0.38141257,-0.7300417,-1.0490335,1,1,0
105533761,30.78720414067969,103.85864044009293,0.7024369,-0.27346393,-0.36871645,-0.7024369,-1.0131407,1,1,0
105643856,30.787204347236912,103.85864058717257,0.65794754,-0.25049582,-0.3546667,-0.65794754,-0.96957093,1,1,0
105742755,30.787204541663723,103.85864073586642,0.6096634,-0.22887655,-0.34046277,-0.6096634,-0.924234,1,1,0
105832260,30.787204726989295,103.85864087726793,0.55715984,-0.20826928,-0.32695544,-0.55715984,-0.891327,1,1,0
105930725,30.787204914482196,103.8586410463335,0.50567037,-0.18742102,-0.3108055,-0.50567037,-0.8510861,1,1,0
106029777,30.787205114146506,103.8586411871282,0.45507437,-0.16521937,-0.29735613,-0.45507437,-0.8054602,1,1,0
106130752,30.787205321999174,103.85864130301677,0.40366128,-0.1421072,-0.2862859,-0.40366128,-0.75716895,1,1,0
106240759,30.78720551129907,103.85864144191804,0.34458867,-0.12105802,-0.2730174,-0.34458867,-0.69990474,1,1,0
106362752,30.787205669996506,103.85864160919718,0.28123882,-0.10341167,-0.25703812,-0.28123882,-0.6301529,1,1,0
106697755,30.78720563751834,103.85864184196927,0.09659138,-0.107023075,-0.23480263,-0.09659138,-0.48120287,1,1,0
106876727,30.787205411197565,103.85864180119059,0.010451406,-0.1321888,-0.238698,-0.010451406,-0.44572106,1,1,0
107036629,30.787205204162476,103.85864172129266,-0.039317556,-0.15521005,-0.24633023,0.039317556,-0.45102128,1,1,0
107225792,30.787204989698182,103.85864164813923,-0.056799937,-0.17905739,-0.2533182,0.056799937,-0.49724993,1,1,0
107641502,30.787204819613905,103.85864180027993,-0.027673047,-0.1979699,-0.238785,0.027673047,-0.4437989,1,1,0
107906779,30.78720464503442,103.85864199961856,0.004083281,-0.21738225,-0.21974324,-0.004083281,-0.4526289,1,1,0
108162272,30.78720447595387,103.85864215488252,0.011291849,-0.23618315,-0.2049117,-0.011291849,-0.45172256,1,1,0
108506725,30.787204319694276,103.85864233954581,0.006648547,-0.25355843,-0.18727179,-0.006648547,-0.45330828,1,1,0
108920755,30.787204519349192,103.85864245370803,-0.019704545,-0.23135781,-0.17636648,0.019704545,-0.45508453,1,1,0
109218513,30.787204718136405,103.85864254572206,-0.04226312,-0.20925368,-0.16757686,0.04226312,-0.45616466,1,1,0
109603937,30.787204916204246,103.8586426199191,-0.04708031,-0.18722954,-0.16048922,0.04708031,-0.45775956,1,1,0
110166796,30.787205117496633,103.85864262671849,-0.031258546,-0.16484685,-0.1598397,0.031258546,-0.4600708,1,1,0
115816758,30.787205324834176,103.8586425793154,-0.03779859,-0.14179197,-0.16436787,0.03779859,-0.47830957,1,1,0
123564635,30.787205153423734,103.85864242228327,0.023453766,-0.16085194,-0.17936832,-0.023453766,-0.49476403,1,1,0
125177795,30.78720535469749,103.85864249183497,0.017093683,-0.13847132,-0.17272441,-0.017093683,-0.49699014,1,1,0
131302739,30.787205495641967,103.85864230075475,-0.09807125,-0.12279901,-0.19097729,0.09807125,-0.50255346,1,1,0
132158309,30.78720544791145,103.85864256244386,-0.06644467,-0.1281064,-0.16597952,0.06644467,-0.573547,1,1,0
132566805,30.787205543651293,103.85864274771863,0.120338514,-0.117460616,-0.1482812,-0.120338514,-0.6181801,1,1,0
132755056,30.78720532372149,103.85864266635532,0.24672143,-0.1419157,-0.15605341,-0.24672143,-0.64253294,1,1,0
132854223,30.78720510331616,103.85864263676739,0.31235734,-0.16642365,-0.15887979,-0.31235734,-0.6518339,1,1,0
132942341,30.78720488002145,103.85864261836664,0.36574382,-0.19125289,-0.16063751,-0.36574382,-0.6482593,1,1,0
133030312,30.78720464234902,103.8586426413709,0.427135,-0.21768086,-0.15844004,-0.427135,-0.6422242,1,1,0
133118152,30.787204401296194,103.85864268256267,0.4922828,-0.24448471,-0.15450521,-0.4922828,-0.6482952,1,1,0
133206750,30.787204159861307,103.85864272697334,0.5541603,-0.27133104,-0.15026289,-0.5541603,-0.6714959,1,1,0
133294944,30.787203922913463,103.85864277536527,0.61119837,-0.29767844,-0.14564027,-0.61119837,-0.70347905,1,1,0
133383939,30.787203683658774,103.85864280135773,0.66626513,-0.32428235,-0.14315735,-0.66626513,-0.7363516,1,1,0
133472730,30.787203437774107,103.85864277826113,0.7205617,-0.35162348,-0.14536364,-0.7205617,-0.75700426,1,1,0
133560726,30.787203170604464,103.85864274239574,0.77070576,-0.38133138,-0.14878967,-0.77070576,-0.7645439,1,1,0
133627290,30.787202957083593,103.85864269933629,0.7935825,-0.40507382,-0.15290292,-0.7935825,-0.7634474,1,1,0
133703764,30.787202709010824,103.85864264984322,0.817092,-0.43265826,-0.15763073,-0.817092,-0.7686463,1,1,0
133771833,30.787202480577395,103.85864258308222,0.82998294,-0.4580589,-0.16400805,-0.82998294,-0.7755684,1,1,0
133837894,30.7872022564411,103.85864249368667,0.83158886,-0.4829817,-0.17254753,-0.83158886,-0.78204644,1,1,0
133903760,30.787202031529173,103.85864239322187,0.8340656,-0.5079908,-0.1821444,-0.8340656,-0.7864856,1,1,0
133971236,30.787201825412048,103.85864227587851,0.83355254,-0.53090996,-0.1933536,-0.83355254,-0.79624796,1,1,0
134047951,30.787201635260267,103.8586421448304,0.83333504,-0.55205387,-0.20587192,-0.83333504,-0.8158002,1,1,0
134135828,30.787201434449383,103.85864199577995,0.8323956,-0.574383,-0.22010992,-0.8323956,-0.84686965,1,1,0
134235192,30.787201259847507,103.8586418345435,0.82103735,-0.59379786,-0.23551199,-0.82103735,-0.8823124,1,1,0
134377754,30.787201091917154,103.85864164580413,0.8065917,-0.61247087,-0.25354126,-0.8065917,-0.9340249,1,1,0
134566788,30.787200937485835,103.85864148919708,0.7788159,-0.62964284,-0.2685011,-0.7788159,-0.97087914,1,1,0
134822727,30.787200952222566,103.8586412193215,0.72943896,-0.6280042,-0.2942809,-0.72943896,-1.02995,1,1,0
135012780,30.787201067546196,103.8586409910838,0.68380123,-0.6151808,-0.31608322,-0.68380123,-1.0653223,1,1,0
135168753,30.787201185225168,103.85864078687618,0.6411485,-0.6020955,-0.3355901,-0.6411485,-1.0683432,1,1,0
135334779,30.78720131740503,103.85864058917282,0.59955084,-0.58739775,-0.35447565,-0.59955084,-1.0625939,1,1,0
135543890,30.787201479106088,103.85864039538207,0.57414615,-0.5694174,-0.37298745,-0.57414615,-1.0700158,1,1,0
135732915,30.78720162061621,103.85864014136659,0.5647509,-0.5536822,-0.3972522,-0.5647509,-1.0881853,1,1,0
135856869,30.787201709926478,103.85863984701668,0.5855676,-0.54375136,-0.4253699,-0.5855676,-1.1072443,1,1,0
135968723,30.787201798977822,103.85863952966218,0.6328946,-0.5338493,-0.45568508,-0.6328946,-1.115548,1,1,0
136104634,30.78720187986747,103.85863922868101,0.7165771,-0.5248548,-0.4844362,-0.7165771,-1.1214545,1,1,0
136384799,30.78720182742318,103.85863922537804,0.9288031,-0.5306863,-0.48475173,-0.9288031,-1.1143994,1,1,0
136565340,30.787201705365312,103.85863951618286,1.0479994,-0.54425853,-0.4569727,-1.0479994,-1.1379123,1,1,0
136774795,30.78720152186094,103.85863975461905,1.1366123,-0.5646633,-0.43419614,-1.1366123,-1.1791949,1,1,0
136950815,30.787201339676294,103.8586400020454,1.1544372,-0.5849213,-0.41056082,-1.1544372,-1.1991436,1,1,0
137129441,30.787201199129434,103.85864026858525,1.1390941,-0.6005494,-0.38509968,-1.1390941,-1.1978974,1,1,0
137385850,30.78720110370834,103.85864057175436,1.1035502,-0.61115974,-0.35613954,-1.1035502,-1.1740488,1,1,0
138266796,30.78720093892238,103.85864031621983,1.0233978,-0.6294831,-0.3805494,-1.0233978,-1.1645644,1,1,0
138554796,30.787200802038246,103.85864010245517,1.1128744,-0.6447039,-0.4009692,-1.1128744,-1.174362,1,1,0
138766695,30.787200730314286,103.85863983950753,1.2262225,-0.65267926,-0.4260872,-1.2262225,-1.1758668,1,1,0
138888756,30.787200707144596,103.85863956472163,1.2293407,-0.6552556,-0.45233604,-1.2293407,-1.1715019,1,1,0
138966948,30.787200687958197,103.85863932048906,1.2266026,-0.65738904,-0.47566628,-1.2266026,-1.1685214,1,1,0
139034344,30.78720067159028,103.85863905622985,1.2181103,-0.6592091,-0.50090957,-1.2181103,-1.1637181,1,1,0
139099760,30.787200655966927,103.85863877364272,1.210241,-0.6609463,-0.5279036,-1.210241,-1.1587622,1,1,0
139155063,30.78720064344722,103.858638503399,1.2054911,-0.66233844,-0.55371857,-1.2054911,-1.1570399,1,1,0
139209988,30.787200631772308,103.85863821255862,1.2110823,-0.6636366,-0.581501,-1.2110823,-1.1583116,1,1,0
139264778,30.787200621164114,103.85863792759542,1.217596,-0.6648162,-0.60872203,-1.217596,-1.1603448,1,1,0
139319888,30.787200607665064,103.85863760358787,1.2255504,-0.6663172,-0.63967276,-1.2255504,-1.1628004,1,1,0
139363928,30.787200599305553,103.8586373454941,1.2341739,-0.66724676,-0.6643271,-1.2341739,-1.1654012,1,1,0
139407759,30.787200596298906,103.85863708307622,1.2471832,-0.6675811,-0.6893945,-1.2471832,-1.1676837,1,1,0
139452047,30.787200590229332,103.85863682445084,1.2584293,-0.668256,-0.7140996,-1.2584293,-1.1679428,1,1,0
139507759,30.787200582661,103.8586365153044,1.271861,-0.66909754,-0.7436307,-1.271861,-1.1675076,1,1,0
139563133,30.787200577324736,103.85863624315695,1.2806622,-0.6696909,-0.7696275,-1.2806622,-1.1733358,1,1,0
139628725,30.78720057808214,103.85863595938115,1.2752417,-0.6696067,-0.7967351,-1.2752417,-1.1811901,1,1,0
139695316,30.787200586442157,103.85863567678156,1.2678001,-0.6686771,-0.82373035,-1.2678001,-1.1872604,1,1,0
139760726,30.787200603442038,103.85863542928283,1.2612195,-0.6667868,-0.8473726,-1.2612195,-1.1950868,1,1,0
139848724,30.78720064854689,103.85863516117371,1.2557782,-0.66177136,-0.87298363,-1.2557782,-1.2012826,1,1,0
139947903,30.78720070363918,103.85863487856537,1.2492092,-0.6556454,-0.8999797,-1.2492092,-1.1965264,1,1,0
140024864,30.787200732723488,103.85863460361503,1.2455175,-0.65241134,-0.92624426,-1.2455175,-1.1816987,1,1,0
140090828,30.787200751409202,103.85863434385526,1.2427267,-0.6503336,-0.95105773,-1.2427267,-1.1665813,1,1,0
140157729,30.787200758949083,103.85863408388958,1.2392973,-0.6494952,-0.9758909,-1.2392973,-1.1545259,1,1,0
140223971,30.78720075346646,103.85863379256999,1.2315835,-0.6501048,-1.0037191,-1.2315835,-1.1432809,1,1,0
140279205,30.78720073985324,103.85863353442943,1.2251207,-0.65161854,-1.0283779,-1.2251207,-1.1335655,1,1,0
140344779,30.787200714029606,103.85863322004663,1.2176139,-0.65449,-1.0584092,-1.2176139,-1.1217817,1,1,0
140399764,30.78720068454645,103.85863294053382,1.2131785,-0.65776837,-1.0851096,-1.2131785,-1.1116182,1,1,0
140455751,30.78720065019822,103.8586326573221,1.2105261,-0.6615877,-1.1121633,-1.2105261,-1.1009209,1,1,0
140510733,30.787200614805776,103.85863237525601,1.2109324,-0.6655232,-1.1391076,-1.2109324,-1.0887328,1,1,0
140554783,30.787200586498155,103.85863212401034,1.2158785,-0.66867083,-1.1631078,-1.2158785,-1.0784876,1,1,0
140609726,30.78720056290284,103.85863181678323,1.2264805,-0.6712945,-1.1924555,-1.2264805,-1.0693895,1,1,0
140665903,30.787200549039266,103.85863155565885,1.2343016,-0.67283607,-1.2173994,-1.2343016,-1.0557309,1,1,0
140731862,30.787200545180312,103.85863128447853,1.2413493,-0.67326516,-1.2433038,-1.2413493,-1.0414697,1,1,0
140797728,30.787200558936078,103.85863101658158,1.2460752,-0.6717356,-1.2688946,-1.2460752,-1.0385984,1,1,0
140852758,30.787200584966563,103.85863076502766,1.2479414,-0.6688411,-1.2929242,-1.2479414,-1.0325543,1,1,0
140918755,30.787200632185,103.85863048746661,1.2485816,-0.66359067,-1.3194381,-1.2485816,-1.0112195,1,1,0
140973728,30.787200684711824,103.85863025715764,1.2470136,-0.65774995,-1.3414383,-1.2470136,-0.9921923,1,1,0
141040169,30.787200758756793,103.8586299837897,1.2432636,-0.6495165,-1.3675517,-1.2432636,-0.9720595,1,1,0
141106727,30.78720084588053,103.85862970814799,1.2400035,-0.6398288,-1.3938823,-1.2400035,-0.954496,1,1,0
141161725,30.787200934687437,103.85862945184563,1.2384164,-0.6299539,-1.4183655,-1.2384164,-0.9370428,1,1,0
141217776,30.787201040940754,103.85862920588997,1.240136,-0.6181391,-1.4418603,-1.240136,-0.92055655,1,1,0
141272741,30.787201158044535,103.85862894396189,1.2415785,-0.60511774,-1.4668809,-1.2415785,-0.90645266,1,1,0
141328214,30.78720128611618,103.85862866492326,1.2429183,-0.5908768,-1.493536,-1.2429183,-0.89613163,1,1,0
141371893,30.78720139256461,103.85862842808255,1.2440153,-0.5790403,-1.5161601,-1.2440153,-0.89137506,1,1,0
141416131,30.78720150066028,103.85862818065931,1.2459977,-0.5670206,-1.5397952,-1.2459977,-0.88802445,1,1,0
141459902,30.787201615242008,103.85862792017883,1.2488441,-0.5542797,-1.5646775,-1.2488441,-0.8858492,1,1,0
141504234,30.78720173382257,103.8586276476682,1.2538619,-0.5410941,-1.590709,-1.2538619,-0.8888898,1,1,0
141547921,30.787201858560056,103.85862736121307,1.2604518,-0.52722394,-1.6180725,-1.2604518,-0.8938814,1,1,0
141592743,30.787201984464488,103.85862706417288,1.2673637,-0.513224,-1.6464472,-1.2673637,-0.90026003,1,1,0
141637741,30.787202112930114,103.85862676521585,1.2743989,-0.49893928,-1.675005,-1.2743989,-0.9076867,1,1,0
141681722,30.787202237550474,103.8586264835291,1.2800094,-0.48508212,-1.701913,-1.2800094,-0.9124329,1,1,0
141729033,30.787202369287805,103.8586262095384,1.2832004,-0.4704336,-1.7280859,-1.2832004,-0.9117321,1,1,0
141772821,30.78720248366772,103.85862599744563,1.2871478,-0.45771512,-1.748346,-1.2871478,-0.9060361,1,1,0
141828778,30.787202624271917,103.85862574438417,1.2947938,-0.44208065,-1.7725196,-1.2947938,-0.89507675,1,1,0
141884832,30.787202761858484,103.85862548948823,1.3023151,-0.4267817,-1.7968684,-1.3023151,-0.8909052,1,1,0
141940747,30.787202897603496,103.85862525721498,1.3089063,-0.41168755,-1.8190563,-1.3089063,-0.88886136,1,1,0
142009779,30.787203059941866,103.85862505329122,1.313576,-0.39363635,-1.838536,-1.313576,-0.8838317,1,1,0
142076747,30.787203226911885,103.85862485737303,1.3175038,-0.37507012,-1.857251,-1.3175038,-0.87907183,1,1,0
142144958,30.787203396695016,103.85862464902782,1.3226205,-0.3561911,-1.8771532,-1.3226205,-0.8671555,1,1,0
142200911,30.787203535495987,103.858624435898,1.324499,-0.34075713,-1.8975123,-1.324499,-0.85513973,1,1,0
142257032,30.787203672091152,103.85862420808239,1.3264438,-0.32556844,-1.9192743,-1.3264438,-0.84533465,1,1,0
142312749,30.787203806883088,103.85862396593417,1.3282709,-0.31058025,-1.9424055,-1.3282709,-0.8373178,1,1,0
142368734,30.78720394354794,103.85862370656935,1.330545,-0.2953838,-1.9671812,-1.330545,-0.82875574,1,1,0
142412938,30.78720405055679,103.85862347988189,1.3336427,-0.28348497,-1.9888355,-1.3336427,-0.82434213,1,1,0
142457731,30.787204152624177,103.8586232202787,1.3385371,-0.2721356,-2.013634,-1.3385371,-0.823302,1,1,0
142502725,30.787204259405748,103.85862294877391,1.3464938,-0.260262,-2.0395694,-1.3464938,-0.8274449,1,1,0
142548351,30.78720437886324,103.85862263464439,1.3579865,-0.24697894,-2.0695765,-1.3579865,-0.8327449,1,1,0
142592872,30.78720448231092,103.85862233931138,1.3666761,-0.23547608,-2.097788,-1.3666761,-0.8350329,1,1,0
142636741,30.787204579714096,103.85862206518091,1.372481,-0.22464533,-2.1239743,-1.372481,-0.836044,1,1,0
142681489,30.787204666444516,103.85862180981948,1.3750237,-0.21500134,-2.1483676,-1.3750237,-0.8329767,1,1,0
142735837,30.787204762462046,103.85862154083303,1.3761578,-0.20432468,-2.1740625,-1.3761578,-0.8255896,1,1,0
142781473,30.787204846209008,103.85862128952992,1.3756622,-0.19501244,-2.1980681,-1.3756622,-0.82100594,1,1,0
142825751,30.787204929803064,103.85862105177696,1.3811283,-0.1857172,-2.2207794,-1.3811283,-0.81644094,1,1,0
142869742,30.78720502161566,103.8586208241548,1.3862708,-0.1755081,-2.242523,-1.3862708,-0.81179917,1,1,0
142925340,30.787205145244332,103.85862054612323,1.39058,-0.16176121,-2.2690818,-1.39058,-0.8097728,1,1,0
142981321,30.78720528207387,103.85862027552194,1.3929626,-0.14654645,-2.294931,-1.3929626,-0.81538403,1,1,0
143037325,30.787205411939745,103.85862000632332,1.3912678,-0.13210602,-2.320646,-1.3912678,-0.82562023,1,1,0
143093444,30.787205551709846,103.85861973248235,1.3890374,-0.11656429,-2.3468046,-1.3890374,-0.8333868,1,1,0
143137865,30.78720566815122,103.85861950650497,1.3874773,-0.103616595,-2.368391,-1.3874773,-0.8395543,1,1,0
143181815,30.787205798232513,103.85861927211894,1.3866824,-0.08915221,-2.3907807,-1.3866824,-0.8457115,1,1,0
143227851,30.78720593575489,103.85861904066557,1.3832849,-0.073860414,-2.4128902,-1.3832849,-0.84740853,1,1,0
143271898,30.78720608863219,103.85861880557569,1.3814901,-0.05686123,-2.435347,-1.3814901,-0.84665304,1,1,0
143317597,30.78720626380887,103.85861854358019,1.381354,-0.037382465,-2.460374,-1.381354,-0.84596944,1,1,0
143363160,30.78720643084604,103.85861829646764,1.3832244,-0.018808773,-2.4839795,-1.3832244,-0.8461109,1,1,0
143397436,30.787206576946005,103.85861808552544,1.3857652,-0.0025631937,-2.5041296,-1.3857652,-0.8466915,1,1,0
143429742,30.787206711438735,103.85861788811094,1.3847665,0.012391719,-2.5229876,-1.3847665,-0.84840935,1,1,0
143463881,30.78720684876332,103.85861768454659,1.3842049,0.027661521,-2.542433,-1.3842049,-0.8500754,1,1,0
143497640,30.787207002514627,103.8586174554593,1.3827573,0.04475789,-2.5643165,-1.3827573,-0.8504286,1,1,0
143541426,30.78720718862982,103.85861718763839,1.3818367,0.06545296,-2.5899,-1.3818367,-0.84825253,1,1,0
143585824,30.787207366326186,103.85861693876124,1.3777092,0.0852119,-2.613674,-1.3777092,-0.84546864,1,1,0
143629762,30.787207537228074,103.85861672287719,1.371052,0.10421533,-2.6342962,-1.371052,-0.84281385,1,1,0
143675061,30.787207702003396,103.85861652117225,1.3618286,0.122537516,-2.653564,-1.3618286,-0.8382289,1,1,0
143719835,30.78720786052042,103.8586163232386,1.3533098,0.14016381,-2.6724715,-1.3533098,-0.83114266,1,1,0
143765643,30.787208026777215,103.85861611395116,1.3427755,0.15865073,-2.6924636,-1.3427755,-0.82266736,1,1,0
143809925,30.78720817045169,103.85861592490785,1.3328818,0.1746266,-2.710522,-1.3328818,-0.81614375,1,1,0
143865981,30.787208342210366,103.8586156850658,1.3213034,0.1937253,-2.7334328,-1.3213034,-0.80931294,1,1,0
143921940,30.78720850266066,103.85861543777604,1.3104808,0.21156657,-2.757055,-1.3104808,-0.8041372,1,1,0
143977770,30.787208653972577,103.85861517583292,1.3006264,0.22839169,-2.782077,-1.3006264,-0.80062085,1,1,0
144021756,30.78720877311168,103.85861493433862,1.291762,0.24163936,-2.8051457,-1.291762,-0.7971996,1,1,0
144066758,30.78720888655122,103.85861468120848,1.2822524,0.25425327,-2.829326,-1.2822524,-0.794327,1,1,0
144111924,30.78720899634824,103.85861442048338,1.2740405,0.26646215,-2.8542316,-1.2740405,-0.78872854,1,1,0
144157164,30.787209101373183,103.85861415024647,1.2660306,0.2781404,-2.880046,-1.2660306,-0.78304744,1,1,0
144190344,30.787209186163274,103.85861392626828,1.262583,0.28756863,-2.9014413,-1.262583,-0.7797879,1,1,0
144234556,30.787209293420286,103.85861365147638,1.2643046,0.29949507,-2.9276907,-1.2643046,-0.7780865,1,1,0
144278221,30.787209396418472,103.85861337826685,1.2667001,0.31094795,-2.953789,-1.2667001,-0.77930987,1,1,0
144322593,30.787209494469035,103.85861310854159,1.270132,0.3218507,-2.9795544,-1.270132,-0.7794523,1,1,0
144366494,30.787209581703447,103.85861285959459,1.272719,0.33155072,-3.003335,-1.272719,-0.77925277,1,1,0
144410352,30.787209661448074,103.85861263368956,1.2796468,0.34041792,-3.0249145,-1.2796468,-0.7801828,1,1,0
144465076,30.787209747089918,103.85861239243985,1.288263,0.34994087,-3.0479598,-1.288263,-0.7829893,1,1,0
144519988,30.787209837648284,103.85861215114272,1.2977268,0.3600105,-3.0710096,-1.2977268,-0.78643197,1,1,0
144587091,30.787209949742763,103.8586118760538,1.3078562,0.37247485,-3.0972874,-1.3078562,-0.7901306,1,1,0
144643078,30.78721003953086,103.8586116485514,1.3145258,0.38245884,-3.1190195,-1.3145258,-0.79538673,1,1,0
144698677,30.787210133032072,103.85861142224954,1.3200268,0.3928557,-3.140637,-1.3200268,-0.802596,1,1,0
144755077,30.787210234180137,103.85861118316873,1.3248912,0.40410286,-3.163475,-1.3248912,-0.81095326,1,1,0
144810490,30.787210348755934,103.85861092643954,1.3268553,0.41684312,-3.187999,-1.3268553,-0.81736106,1,1,0
144864778,30.787210468110768,103.85861067061634,1.3265463,0.43011478,-3.2124364,-1.3265463,-0.8213898,1,1,0
144908721,30.78721057698233,103.85861043850655,1.3262844,0.44222075,-3.2346087,-1.3262844,-0.82585037,1,1,0
144952820,30.78721069294057,103.85861019764619,1.3259315,0.45511472,-3.2576168,-1.3259315,-0.8324256,1,1,0
144998257,30.787210823981816,103.85860992211049,1.3269318,0.46968585,-3.2839372,-1.3269318,-0.8419053,1,1,0
145042588,30.787210943614856,103.85860965864488,1.3303964,0.48298845,-3.3091047,-1.3303964,-0.85564995,1,1,0
145086418,30.787211065682037,103.85860939702623,1.3341266,0.4965617,-3.3340957,-1.3341266,-0.8715922,1,1,0
145130548,30.787211188998445,103.85860912774773,1.339581,0.5102739,-3.3598185,-1.339581,-0.88932264,1,1,0
145174259,30.787211317137594,103.85860886121968,1.3457931,0.5245223,-3.3852785,-1.3457931,-0.9077882,1,1,0
145218361,30.787211450549204,103.85860859223068,1.3566787,0.539357,-3.4109735,-1.3566787,-0.9198897,1,1,0
145263117,30.787211585662735,103.85860834022118,1.3666283,0.55304694,-3.433189,-1.3662264,-0.92542076,1,1,0
145307194,30.78721171400075,103.85860811564643,1.3759235,0.5686515,-3.456499,-1.3759235,-0.9293041,1,1,0
145364044,30.787211870876337,103.85860787634599,1.3855003,0.5860953,-3.4793582,-1.3855003,-0.9314172,1,1,0
145419202,30.787212030665827,103.85860766985641,1.3891904,0.60386306,-3.499083,-1.3891904,-0.92786425,1,1,0
145484852,30.787212223060333,103.85860747246682,1.3853738,0.62525636,-3.5179386,-1.3853738,-0.91827536,1,1,0
145551048,30.78721242262114,103.85860732013793,1.3812151,0.6474465,-3.5324898,-1.3812151,-0.90261763,1,1,0
145628730,30.787212636730004,103.85860720867166,1.3751721,0.67125434,-3.5431376,-1.3751721,-0.88684464,1,1,0
145716747,30.787212856361688,103.85860716648862,1.3684517,0.69567627,-3.547167,-1.3684517,-0.8649489,1,1,0
145827485,30.78721307212106,103.85860718985751,1.3658416,0.7196676,-3.5449347,-1.3658416,-0.83105105,1,1,0
146025118,30.78721325964093,103.8586073138904,1.3681048,0.74051887,-3.5330865,-1.3681048,-0.78956103,1,1,0
146499764,30.787213153174182,103.85860708105437,1.370562,0.7286803,-3.5553281,-1.370562,-0.7787243,1,1,0
146610755,30.787213068711758,103.85860685088146,1.3651531,0.7192885,-3.5773153,-1.3651531,-0.7894826,1,1,0
146700187,30.7872129883956,103.85860661318344,1.3602042,0.7103578,-3.6000214,-1.3602042,-0.80256087,1,1,0
146789725,30.787212916243803,103.8586063571157,1.3575114,0.7023349,-3.6244822,-1.3575114,-0.8104771,1,1,0
146866722,30.787212866307016,103.85860610817123,1.357978,0.6967822,-3.6482625,-1.357978,-0.81515247,1,1,0
146943890,30.78721283392385,103.85860582081509,1.3593662,0.69318134,-3.675712,-1.3593662,-0.81980264,1,1,0
147021752,30.787212820598942,103.85860554739594,1.360432,0.6916997,-3.7018304,-1.360432,-0.8233638,1,1,0
147098756,30.787212828161817,103.85860527108903,1.3605587,0.69254065,-3.7282245,-1.3605587,-0.8240712,1,1,0
147175865,30.7872128581155,103.85860497962463,1.3606855,0.69587135,-3.7560666,-1.3606855,-0.8052908,1,1,0
147265749,30.787212933667753,103.8586047104909,1.3587968,0.7042724,-3.7817755,-1.3587968,-0.7728677,1,1,0
147354644,30.78721304083335,103.85860446068027,1.3586246,0.71618867,-3.8056386,-1.3586246,-0.75416785,1,1,0
147420176,30.78721317089634,103.85860423363461,1.3613876,0.730651,-3.827327,-1.3613876,-0.75225925,1,1,0
147476184,30.787213310628367,103.85860403318758,1.3633109,0.7461885,-3.8464746,-1.3633109,-0.7518972,1,1,0
147530727,30.78721346520489,103.85860383159243,1.3633195,0.76337665,-3.865732,-1.3633195,-0.75322986,1,1,0
147576511,30.787213632443155,103.85860362099463,1.362507,0.7819727,-3.8858492,-1.362507,-0.75332004,1,1,0
147620696,30.787213797262808,103.85860341057652,1.3619115,0.8002998,-3.9059494,-1.3619115,-0.7539331,1,1,0
147664804,30.78721395690541,103.85860319372901,1.3619066,0.8180513,-3.9266636,-1.3619066,-0.7567904,1,1,0
147709782,30.78721412259559,103.85860296489128,1.3618196,0.8364752,-3.9485233,-1.3618196,-0.7586582,1,1,0
147744546,30.787214263591608,103.85860276308898,1.3614053,0.85215324,-3.9678004,-1.3614053,-0.76060665,1,1,0
147788887,30.78721444413269,103.85860250355186,1.3619252,0.8722285,-3.9925926,-1.3619252,-0.7674329,1,1,0
147821750,30.787214582817302,103.85860231923323,1.3636338,0.88764954,-4.0101995,-1.3636338,-0.7751596,1,1,0
147856654,30.787214750809234,103.85860212475383,1.368797,0.9063294,-4.028777,-1.368797,-0.78640777,1,1,0
147893025,30.78721492605482,103.85860193385355,1.3759458,0.9258158,-4.047013,-1.3759458,-0.8043996,1,1,0
147936780,30.7872151462005,103.85860169676438,1.3842813,0.9502949,-4.0696607,-1.3842813,-0.8313772,1,1,0
147973540,30.78721532405445,103.85860152304076,1.3922857,0.9700714,-4.0862556,-1.3922857,-0.8468148,1,1,0
148008509,30.78721549277004,103.85860136311439,1.3979583,0.9888317,-4.1015325,-1.3979583,-0.8583667,1,1,0
148052733,30.787215680023415,103.85860119472696,1.40105,1.0096533,-4.1176176,-1.40105,-0.8688533,1,1,0
148096908,30.7872158559798,103.85860104423503,1.4035132,1.0292188,-4.1319933,-1.4035132,-0.8733152,1,1,0
148152726,30.787216064870314,103.85860087227849,1.406445,1.0524464,-4.1484194,-1.406445,-0.86637557,1,1,0
148208728,30.787216264266554,103.8586007059177,1.4085658,1.0746182,-4.164311,-1.4085658,-0.85648173,1,1,0
148264881,30.787216458200543,103.85860053999122,1.409636,1.0961827,-4.180161,-1.409636,-0.8444933,1,1,0
148332893,30.787216660570696,103.85860032866957,1.4094417,1.1186852,-4.2003474,-1.4094417,-0.81989664,1,1,0
148400657,30.78721682650744,103.85860010757905,1.406982,1.1371366,-4.221467,-1.406982,-0.79191405,1,1,0
148458724,30.787216970831178,103.85859991003471,1.4034308,1.1531847,-4.2403374,-1.4034308,-0.777736,1,1,0
148514954,30.787217129347013,103.85859967691903,1.3997023,1.1708108,-4.2626057,-1.3997023,-0.77926964,1,1,0
148560558,30.787217274919698,103.8585994418316,1.3974245,1.1869978,-4.2850623,-1.3974245,-0.7847647,1,1,0
148604999,30.787217414669936,103.85859920265091,1.3959074,1.2025373,-4.30791,-1.3959074,-0.79694885,1,1,0
148650814,30.78721755685807,103.85859894576443,1.3951161,1.2183479,-4.332449,-1.3951161,-0.81581455,1,1,0
148695013,30.7872177023707,103.85859867039342,1.3947926,1.2345282,-4.3587537,-1.3947926,-0.8336768,1,1,0
148739766,30.787217836076568,103.85859838238825,1.3953652,1.2493956,-4.3862653,-1.3953652,-0.85051465,1,1,0
148785443,30.787217972301793,103.8585980564007,1.3970433,1.2645432,-4.417405,-1.3970433,-0.86839473,1,1,0
148829756,30.78721810646221,103.85859775308576,1.4038309,1.2794611,-4.446379,-1.4038309,-0.88444346,1,1,0
148873936,30.787218234960996,103.85859744079065,1.413189,1.2937496,-4.476211,-1.413189,-0.9007077,1,1,0
148917780,30.787218365542813,103.8585971144337,1.4251096,1.3082696,-4.507386,-1.4251096,-0.92131793,1,1,0
148961832,30.787218485355645,103.85859678347936,1.4371691,1.3215922,-4.5390005,-1.4371691,-0.9434981,1,1,0
149006727,30.7872186004492,103.85859647265181,1.4485888,1.33439,-4.568692,-1.4485888,-0.9681759,1,1,0
149050736,30.78721869135461,103.85859618483634,1.4581772,1.3444983,-4.5961857,-1.4581772,-0.99949586,1,1,0
149094950,30.787218772999445,103.85859590480803,1.467157,1.3535768,-4.6229353,-1.467157,-1.034735,1,1,0
149138758,30.787218839882875,103.85859562384628,1.4749739,1.3610139,-4.649774,-1.4749739,-1.0655425,1,1,0
149183086,30.78721889390784,103.85859533882123,1.482835,1.3670212,-4.677001,-1.482835,-1.0930184,1,1,0
149226755,30.78721894237409,103.85859504090742,1.4914157,1.3724104,-4.705459,-1.4914157,-1.1231247,1,1,0
149270946,30.787218998647184,103.85859472577701,1.502666,1.3786677,-4.735562,-1.502666,-1.1583469,1,1,0
149305450,30.78721903294705,103.85859446554109,1.5104641,1.3824817,-4.760421,-1.5104641,-1.189878,1,1,0
149349532,30.787219071134228,103.85859414630744,1.5201197,1.3867279,-4.7909155,-1.5201197,-1.2299937,1,1,0
149393429,30.78721909592155,103.85859383112214,1.5286906,1.3894842,-4.8210235,-1.5286906,-1.2688658,1,1,0
149437739,30.787219121325325,103.85859353126655,1.529262,1.392309,-4.849667,-1.529262,-1.3095112,1,1,0
149481750,30.787219130791623,103.85859323452084,1.5295215,1.3933616,-4.8780136,-1.5295215,-1.3605214,1,1,0
149526779,30.78721913202226,103.85859293676181,1.5294992,1.3934984,-4.906457,-1.5294992,-1.4231292,1,1,0
149570757,30.78721911914867,103.85859263820909,1.5310427,1.392067,-4.934976,-1.5310427,-1.4908628,1,1,0
149615054,30.787219101661936,103.85859234652007,1.5304514,1.3901225,-4.9628396,-1.5304514,-1.5516334,1,1,0
149658756,30.78721908423954,103.85859208247545,1.5236065,1.3881853,-4.9880624,-1.5236065,-1.6064018,1,1,0
149713945,30.787219055621453,103.85859178485121,1.5109922,1.3850031,-5.016493,-1.5109922,-1.6737301,1,1,0
149769739,30.787219015638307,103.85859152310782,1.4961205,1.3805572,-5.041496,-1.4961205,-1.7323592,1,1,0
149825524,30.787218950256648,103.85859126934628,1.4814255,1.3732871,-5.0657363,-1.4814255,-1.782553,1,1,0
149879767,30.78721884309838,103.85859102266308,1.4689599,1.3613716,-5.0893006,-1.4689599,-1.8254384,1,1,0
149925905,30.787218724138707,103.85859079544281,1.457975,1.3481439,-5.111006,-1.457975,-1.8620958,1,1,0
149981546,30.787218563495678,103.85859053732351,1.4447066,1.3302813,-5.1356626,-1.4447066,-1.9003228,1,1,0
150035965,30.787218411521472,103.85859032219832,1.4359475,1.3133825,-5.1562123,-1.4359475,-1.9339212,1,1,0
150090733,30.787218246927868,103.85859011570389,1.4303293,1.2950805,-5.1759377,-1.4303293,-1.9728717,1,1,0
150145852,30.78721806532151,103.8585899094391,1.4256669,1.2748868,-5.195641,-1.4256669,-2.0110755,1,1,0
150200728,30.787217886174503,103.8585897170165,1.422335,1.2549666,-5.214022,-1.422335,-2.048404,1,1,0
150244849,30.78721773727823,103.85858953921475,1.4225931,1.2384101,-5.2310066,-1.4225931,-2.0788212,1,1,0
150288755,30.787217587883447,103.8585893532914,1.4252075,1.2217982,-5.248767,-1.4252075,-2.1076674,1,1,0
150332795,30.787217427794705,103.85858915699517,1.4288356,1.2039971,-5.267518,-1.4288356,-2.1344583,1,1,0
150376757,30.78721726184599,103.85858894752565,1.4346988,1.1855445,-5.2875276,-1.4346988,-2.1533065,1,1,0
150420755,30.787217095351604,103.85858872497272,1.4394473,1.1670312,-5.308787,-1.4394473,-2.1638281,1,1,0
150454597,30.787216964691307,103.8585885229559,1.4395629,1.1525024,-5.3280845,-1.4395629,-2.1684437,1,1,0
150498317,30.787216819911777,103.8585882787886,1.4378647,1.1364037,-5.3514085,-1.4378647,-2.17403,1,1,0
150542412,30.787216687912448,103.85858802634992,1.434097,1.121726,-5.3755226,-1.434097,-2.1827989,1,1,0
150586286,30.78721655343126,103.85858776184614,1.4302851,1.1067724,-5.4007893,-1.4302851,-2.194544,1,1,0
150618974,30.787216435140568,103.85858754965109,1.4322808,1.0936191,-5.421059,-1.4322808,-2.203487,1,1,0
150651985,30.787216304233702,103.85858732343918,1.4357601,1.0790629,-5.442668,-1.4357601,-2.2109554,1,1,0
150684865,30.787216168012538,103.85858708718382,1.4387802,1.0639158,-5.465236,-1.4387802,-2.217879,1,1,0
150718521,30.787216009304593,103.85858681003093,1.4416004,1.0462683,-5.491711,-1.4416004,-2.2258635,1,1,0
150750779,30.787215866430127,103.85858655910477,1.4427838,1.0303814,-5.515681,-1.4427838,-2.2328978,1,1,0
150784986,30.78721571753811,103.85858630124504,1.4434872,1.0138254,-5.540313,-1.4434872,-2.241271,1,1,0
150818119,30.787215556097976,103.85858601583077,1.4412297,0.9958741,-5.567577,-1.4412297,-2.2526436,1,1,0
150850797,30.78721540564663,103.8585857570775,1.4394023,0.9791447,-5.592294,-1.4394023,-2.2642272,1,1,0
150883865,30.78721525509878,103.85858549730595,1.4378158,0.96240455,-5.617109,-1.4378158,-2.2757573,1,1,0
150916755,30.787215108308555,103.8585852394063,1.4368641,0.94608223,-5.6417446,-1.4368641,-2.2859502,1,1,0
150950496,30.787214948354865,103.85858495143124,1.437066,0.9282962,-5.6692533,-1.437066,-2.2986495,1,1,0
150982756,30.78721481108467,103.858584697525,1.438914,0.9130325,-5.6935077,-1.438914,-2.3133426,1,1,0
151015989,30.787214672609984,103.85858444284504,1.4428962,0.8976348,-5.717836,-1.4428962,-2.3310363,1,1,0
151048757,30.787214530745413,103.85858418747122,1.4487561,0.8818602,-5.7422304,-1.4487561,-2.3525035,1,1,0
151082142,30.78721436656023,103.85858390139305,1.4565811,0.86360365,-5.769558,-1.4565811,-2.378025,1,1,0
151114953,30.787214217782388,103.8585836500426,1.4636779,0.8470603,-5.793568,-1.4636779,-2.397969,1,1,0
151147843,30.787214072576155,103.8585834035142,1.4699974,0.83091414,-5.8171177,-1.4699974,-2.4127975,1,1,0
151191852,30.78721388336015,103.85858307639371,1.4766052,0.8098743,-5.848366,-1.4766052,-2.425539,1,1,0
151235866,30.787213724045916,103.85858277001901,1.475557,0.7921594,-5.877632,-1.475557,-2.4367957,1,1,0
151279899,30.78721356957962,103.8585824770522,1.4701021,0.7749835,-5.9056177,-1.4701021,-2.4489477,1,1,0
151324208,30.787213412083105,103.85858219285592,1.4641092,0.7574707,-5.9327655,-1.4641092,-2.4602592,1,1,0
151367912,30.787213256238662,103.85858191627709,1.4555962,0.74014163,-5.9591856,-1.4555962,-2.465321,1,1,0
151411863,30.7872131054721,103.85858164748541,1.4458249,0.72337717,-5.984862,-1.4458249,-2.4621131,1,1,0
151456023,30.787212943073534,103.85858135647038,1.4302746,0.7053193,-6.012661,-1.4302746,-2.458416,1,1,0
151499903,30.787212775260965,103.85858106911432,1.415714,0.6866594,-6.0401106,-1.415714,-2.4569526,1,1,0
151532819,30.78721264645696,103.85858085598585,1.4043367,0.67233706,-6.0604696,-1.4043367,-2.4570081,1,1,0
151565826,30.787212512063693,103.8585806383598,1.3929738,0.6573932,-6.0812583,-1.3929738,-2.459075,1,1,0
151599340,30.787212354823417,103.85858038514243,1.3800207,0.6399089,-6.105447,-1.3800207,-2.4631631,1,1,0
151632014,30.787212204895237,103.85858015268084,1.3719577,0.62323767,-6.1276526,-1.3719577,-2.4655006,1,1,0
151664933,30.787212053576564,103.85857991678493,1.3641847,0.6064118,-6.1501865,-1.3641847,-2.4672585,1,1,0
151697780,30.7872119016838,103.85857967940147,1.3571404,0.5895221,-6.1728625,-1.3571404,-2.4674902,1,1,0
151731043,30.78721173437674,103.85857941411903,1.35053,0.57091844,-6.1982036,-1.35053,-2.4661648,1,1,0
151763865,30.78721158507733,103.85857917651592,1.3454987,0.5543171,-6.2209005,-1.3454987,-2.4656088,1,1,0
151796792,30.787211434636152,103.85857893813909,1.3417561,0.53758883,-6.2436714,-1.3417561,-2.4655614,1,1,0
151829787,30.78721126897902,103.85857870358099,1.339163,0.5191686,-6.2660775,-1.339163,-2.463776,1,1,0
151863873,30.78721107143783,103.85857843611717,1.3378896,0.49720305,-6.291627,-1.3378896,-2.4566193,1,1,0
151896792,30.787210896855942,103.85857819750075,1.3378123,0.47779045,-6.3144207,-1.3378123,-2.4459064,1,1,0
151929873,30.78721072436057,103.85857795762142,1.338151,0.45860985,-6.337335,-1.338151,-2.4344563,1,1,0
151963178,30.787210539794433,103.85857768623904,1.3385631,0.43808705,-6.363259,-1.3385631,-2.424395,1,1,0
151995984,30.78721037761511,103.85857744941968,1.339628,0.42005354,-6.385881,-1.339628,-2.4191022,1,1,0
152028822,30.78721022058497,103.8585772293876,1.3436939,0.4025926,-6.4068995,-1.3436939,-2.415091,1,1,0
152061793,30.787210064600373,103.85857701636898,1.3471624,0.38524792,-6.427248,-1.3471624,-2.412326,1,1,0
152095369,30.787209884024247,103.85857678512542,1.3505353,0.36516878,-6.4493375,-1.3505353,-2.4113278,1,1,0
152131521,30.787209700870044,103.858576551975,1.3520479,0.34480298,-6.471609,-1.3520479,-2.4112968,1,1,0
152163758,30.78720952797428,103.85857634763708,1.3527908,0.32557786,-6.4911284,-1.3527908,-2.4117355,1,1,0
152196747,30.787209346868018,103.85857614129247,1.3525393,0.30543977,-6.5108395,-1.3525393,-2.4111118,1,1,0
152229726,30.787209156338488,103.85857591147658,1.35409,0.28425387,-6.5327926,-1.35409,-2.409232,1,1,0
152251756,30.787209006903204,103.85857573005583,1.355287,0.26763743,-6.5501227,-1.355287,-2.4080238,1,1,0
152284813,30.787208799100252,103.85857547911976,1.3558744,0.24453081,-6.5740933,-1.3558744,-2.4074695,1,1,0
152307158,30.787208636947614,103.85857528471045,1.3555031,0.22650027,-6.5926642,-1.3555031,-2.408009,1,1,0
152339759,30.78720841419014,103.85857501852456,1.3539059,0.20173079,-6.6180916,-1.3539059,-2.4089363,1,1,0
152373737,30.78720818298256,103.85857473845657,1.3502744,0.1760217,-6.644845,-1.3502744,-2.4090757,1,1,0
152395918,30.78720801264879,103.85857452969593,1.3465927,0.15708145,-6.664787,-1.3465927,-2.4077613,1,1,0
152428728,30.78720778514094,103.85857424338822,1.3407106,0.13178375,-6.6921363,-1.3407106,-2.405045,1,1,0
152461724,30.78720755210668,103.85857395380091,1.3341699,0.10587154,-6.719799,-1.3341699,-2.403855,1,1,0
152483837,30.78720737308043,103.85857373422813,1.3292212,0.08596475,-6.7407737,-1.3292212,-2.403842,1,1,0
152516746,30.787207130836613,103.85857344003342,1.3229681,0.05902848,-6.7688766,-1.3229681,-2.4058068,1,1,0
152549724,30.787206888198025,103.85857314473057,1.3174034,0.03204832,-6.7970853,-1.3174034,-2.4119623,1,1,0
152571979,30.787206707057738,103.8585729224772,1.3143363,0.011906451,-6.818316,-1.3143363,-2.4191942,1,1,0
152604897,30.787206472201536,103.8585726269447,1.3122399,-0.014208349,-6.8465466,-1.3122399,-2.428312,1,1,0
152627763,30.78720631437292,103.85857241423558,1.3074218,-0.031758077,-6.8668656,-1.3074218,-2.4347212,1,1,0
152660729,30.787206118931742,103.85857214052709,1.2993269,-0.05349013,-6.8930116,-1.2993269,-2.4434245,1,1,0
152693753,30.787205928227458,103.85857187344764,1.2927455,-0.07469546,-6.9185243,-1.2927455,-2.4511151,1,1,0
152726755,30.787205737192004,103.85857160865444,1.2878788,-0.09593762,-6.9438186,-1.2878788,-2.4556317,1,1,0
152760216,30.787205526601287,103.85857131280247,1.2825655,-0.11935422,-6.9720798,-1.2825655,-2.4523506,1,1,0
152792746,30.78720534003103,103.85857105060498,1.2784063,-0.14009987,-6.997126,-1.2784063,-2.446025,1,1,0
152826753,30.787205150608518,103.85857079440261,1.2761799,-0.16116267,-7.0216,-1.2761799,-2.4402232,1,1,0
152859869,30.787204937376554,103.85857051120477,1.2739694,-0.18487297,-7.048652,-1.2739694,-2.4361672,1,1,0
152892823,30.787204753207078,103.8585702675517,1.2705041,-0.20535167,-7.071927,-1.2705041,-2.4373267,1,1,0
152925743,30.78720457044242,103.85857002869572,1.2658376,-0.22567415,-7.0947437,-1.2658376,-2.441475,1,1,0
152958776,30.787204388730554,103.85856979412767,1.2604744,-0.24587958,-7.117151,-1.2604744,-2.4432495,1,1,0
152992817,30.787204182452342,103.8585695366025,1.2538861,-0.26881665,-7.141751,-1.2538861,-2.4416075,1,1,0
153025744,30.787204002211485,103.85856930396127,1.2490467,-0.2888585,-7.163974,-1.2490467,-2.4355092,1,1,0
153059585,30.78720382424693,103.85856907254303,1.2451054,-0.30864725,-7.18608,-1.2451054,-2.424202,1,1,0
153092818,30.787203622120455,103.85856881746882,1.2416694,-0.33112267,-7.210446,-1.2416694,-2.4114983,1,1,0
153126776,30.787203437929286,103.85856859566472,1.2404041,-0.35160378,-7.2316337,-1.2404041,-2.4045272,1,1,0
153160788,30.787203227041022,103.85856834924127,1.2409762,-0.37505347,-7.255173,-1.2409762,-2.399704,1,1,0
153193740,30.787203042725753,103.85856812989812,1.2428409,-0.39554837,-7.276126,-1.2428409,-2.3935878,1,1,0
153226727,30.78720285968197,103.85856791461826,1.2450522,-0.4159019,-7.2966905,-1.2450522,-2.3861377,1,1,0
153260064,30.787202655916044,103.85856767729977,1.247442,-0.43855962,-7.3193603,-1.247442,-2.3813126,1,1,0
153292807,30.787202481902884,103.85856746992191,1.2488075,-0.457909,-7.33917,-1.2488075,-2.3815575,1,1,0
153325888,30.787202312763647,103.85856726417633,1.249262,-0.4767164,-7.358824,-1.249262,-2.3810782,1,1,0
153369781,30.78720208462113,103.85856698284043,1.2484534,-0.5020847,-7.3856983,-1.2484534,-2.375503,1,1,0
153403823,30.78720189289111,103.85856675080323,1.2466214,-0.52340406,-7.4078636,-1.2466214,-2.370749,1,1,0
153436779,30.78720170960477,103.85856654509261,1.2378315,-0.54378456,-7.427514,-1.2378315,-2.3684971,1,1,0
153469729,30.78720152102614,103.85856633844853,1.2281142,-0.56475353,-7.4472537,-1.2281142,-2.368673,1,1,0
153502791,30.78720132606866,103.85856613009727,1.217687,-0.5864318,-7.4671564,-1.217687,-2.3714995,1,1,0
153536099,30.787201098789716,103.8585658943712,1.2045805,-0.61170405,-7.489674,-1.2045805,-2.3770075,1,1,0
153568980,30.78720088407281,103.85856567631596,1.1929556,-0.63557947,-7.510504,-1.1929556,-2.383126,1,1,0
153604642,30.78720064431812,103.85856543042664,1.1809825,-0.66223896,-7.5339923,-1.1809825,-2.3882105,1,1,0
153636860,30.787200439563474,103.85856520544283,1.1715713,-0.6850066,-7.555484,-1.1715713,-2.3905742,1,1,0
153670790,30.78720022910538,103.85856497813784,1.1627996,-0.7084085,-7.577197,-1.1627996,-2.3923452,1,1,0
153704947,30.787199990735264,103.8585647191052,1.1534497,-0.734914,-7.601941,-1.1534497,-2.3916886,1,1,0
153729051,30.787199827598595,103.85856454385933,1.1483084,-0.75305396,-7.6186814,-1.1483084,-2.3902097,1,1,0
153761827,30.787199603044858,103.85856430722974,1.143172,-0.7780232,-7.6412854,-1.143172,-2.388698,1,1,0
153796646,30.787199339407543,103.85856403769445,1.1398113,-0.8073383,-7.6670327,-1.1398113,-2.3886585,1,1,0
153828791,30.787199105294647,103.85856380041095,1.1433716,-0.83337045,-7.689699,-1.1433716,-2.3898714,1,1,0
153852543,30.787198927363864,103.85856362172076,1.146607,-0.85315543,-7.7067685,-1.146607,-2.3913379,1,1,0
153884941,30.787198687538428,103.85856338407288,1.151264,-0.8798228,-7.72947,-1.151264,-2.3936746,1,1,0
153908552,30.787198507395964,103.8585632077538,1.1548064,-0.8998537,-7.7463126,-1.1548064,-2.3935585,1,1,0
153940823,30.787198271088002,103.85856297838225,1.1590854,-0.92612994,-7.7682233,-1.1590854,-2.3896728,1,1,0
153964621,30.787198096852674,103.85856281181209,1.1617013,-0.945504,-7.784135,-1.1617013,-2.3865194,1,1,0
153996823,30.78719786862763,103.85856259983187,1.1635692,-0.97088146,-7.804384,-1.1635692,-2.3839326,1,1,0
154030802,30.78719764591789,103.85856240494843,1.1624349,-0.99564564,-7.8230004,-1.1624349,-2.382329,1,1,0
154065154,30.787197394287848,103.85856220052575,1.1604836,-1.0236256,-7.842528,-1.1604836,-2.3829973,1,1,0
154097890,30.787197167843,103.85856202904375,1.1581916,-1.0488051,-7.8589087,-1.1581916,-2.3848195,1,1,0
154132663,30.787196909842702,103.8585618473586,1.1548153,-1.0774934,-7.876264,-1.1548153,-2.3870382,1,1,0
154166723,30.78719668311914,103.85856169951259,1.1509906,-1.1027039,-7.890387,-1.1509906,-2.388621,1,1,0
154200931,30.787196430625038,103.85856154765325,1.1458943,-1.13078,-7.9048934,-1.1458943,-2.3877938,1,1,0
154233748,30.787196215314786,103.85856140346122,1.1427734,-1.1547214,-7.9186673,-1.1427734,-2.3858078,1,1,0
154268632,30.787195974118184,103.85856124154346,1.1393378,-1.1815412,-7.9341345,-1.1393378,-2.3835478,1,1,0
154300818,30.78719576159856,103.85856109995714,1.1364037,-1.2051723,-7.9476595,-1.1364037,-2.3829045,1,1,0
154336811,30.78719552352707,103.85856094143377,1.1334141,-1.2316446,-7.9628024,-1.1334141,-2.3838928,1,1,0
154369724,30.78719530613056,103.8585607990238,1.1310579,-1.255818,-7.976406,-1.1310579,-2.38483,1,1,0
154404777,30.787195054663496,103.85856063468005,1.1290472,-1.2837799,-7.992105,-1.1290472,-2.3838694,1,1,0
154440954,30.78719479858973,103.85856047751446,1.1313813,-1.312254,-8.007118,-1.1313813,-2.3811445,1,1,0
154473743,30.787194564755094,103.85856033289316,1.1344075,-1.3382552,-8.020933,-1.1344075,-2.3772163,1,1,0
154508389,30.78719430226816,103.85856016159589,1.137822,-1.3674424,-8.037296,-1.137822,-2.3724933,1,1,0
154540816,30.78719407556174,103.8585600038063,1.1412694,-1.392651,-8.052369,-1.1412694,-2.368513,1,1,0
154574779,30.787193853373036,103.85855983908814,1.1446073,-1.4173572,-8.068104,-1.1446073,-2.3671064,1,1,0
154608741,30.78719360845633,103.85855964696519,1.148609,-1.4445907,-8.086456,-1.148609,-2.3689518,1,1,0
154641912,30.7871933975319,103.85855945822664,1.1501805,-1.4680444,-8.1044855,-1.1501805,-2.3712285,1,1,0
154676507,30.787193164717838,103.85855923795012,1.1509802,-1.4939321,-8.125527,-1.1509802,-2.3703947,1,1,0
154708816,30.787192963407765,103.8585590348752,1.1509577,-1.5163168,-8.144926,-1.1509577,-2.3660073,1,1,0
154742771,30.78719276517455,103.8585588230447,1.149784,-1.5383593,-8.165161,-1.149784,-2.360354,1,1,0
154776806,30.787192545561986,103.85855857268778,1.1474526,-1.5627791,-8.189076,-1.1474526,-2.352499,1,1,0
154809761,30.787192346309205,103.85855833194499,1.1442657,-1.584935,-8.212073,-1.1442657,-2.34273,1,1,0
154842756,30.78719216563868,103.85855806878912,1.1412635,-1.6050246,-8.237211,-1.1412635,-2.3318143,1,1,0
154865975,30.787192030781164,103.85855786192042,1.138914,-1.62002,-8.256972,-1.138914,-2.322899,1,1,0
154898757,30.78719185321429,103.85855757400539,1.1358893,-1.6397645,-8.284475,-1.1358893,-2.3094409,1,1,0
154921965,30.787191722811233,103.8585573486871,1.1338009,-1.6542647,-8.305999,-1.1338009,-2.2979054,1,1,0
154954942,30.787191553359932,103.8585570385587,1.1314484,-1.6731068,-8.335624,-1.1314484,-2.2806127,1,1,0
154977637,30.78719142767293,103.85855679900389,1.1302816,-1.6870825,-8.358507,-1.1302816,-2.268068,1,1,0
155010258,30.787191261533263,103.85855647057566,1.1298211,-1.7055564,-8.38988,-1.1298211,-2.2547116,1,1,0
155042792,30.78719110007963,103.85855613337192,1.1308155,-1.7235092,-8.4220915,-1.1308155,-2.2431445,1,1,0
155066139,30.787190982178014,103.85855587713462,1.1322732,-1.7366192,-8.4465685,-1.1322732,-2.2358854,1,1,0
155098758,30.787190832042274,103.85855553388083,1.1348637,-1.7533135,-8.479358,-1.1348637,-2.2258687,1,1,0
155121813,30.787190724726326,103.85855527640555,1.1372013,-1.7652465,-8.503953,-1.1372013,-2.2169178,1,1,0
155155058,30.787190590912928,103.85855493629658,1.1405139,-1.7801259,-8.536442,-1.1405139,-2.2014527,1,1,0
155189416,30.787190453627044,103.85855455984755,1.1437954,-1.7953913,-8.572402,-1.1437954,-2.1787312,1,1,0
155221901,30.78719034692855,103.85855422889345,1.145967,-1.8072556,-8.604016,-1.145967,-2.1572595,1,1,0
155245415,30.787190275988124,103.85855398603402,1.1468186,-1.8151438,-8.627215,-1.1468186,-2.141017,1,1,0
155277743,30.787190186471786,103.85855366253763,1.1477951,-1.8250976,-8.658117,-1.1477951,-2.1171758,1,1,0
155310751,30.787190103635552,103.85855333847215,1.1482682,-1.8343085,-8.689074,-1.1482682,-2.0904937,1,1,0
155343885,30.787190025143357,103.8585530146163,1.1481137,-1.8430364,-8.72001,-1.1481137,-2.0608072,1,1,0
155377716,30.787189944449096,103.85855264917906,1.1469697,-1.8520092,-8.754918,-1.1469697,-2.02394,1,1,0
155410728,30.78718987673768,103.8585523221884,1.1450129,-1.8595383,-8.786154,-1.1450129,-1.9903215,1,1,0
155445319,30.78718980378703,103.85855196275124,1.1459682,-1.86765,-8.820489,-1.1459682,-1.9526381,1,1,0
155477744,30.787189745867952,103.8585516408322,1.146588,-1.8740903,-8.85124,-1.146588,-1.9184257,1,1,0
155510728,30.787189693714495,103.85855131810449,1.1469864,-1.8798895,-8.882069,-1.1469864,-1.8830855,1,1,0
155543801,30.78718964968629,103.85855099636514,1.1473107,-1.8847852,-8.912803,-1.1473107,-1.846262,1,1,0
155577583,30.787189617183948,103.85855064131073,1.148274,-1.8883992,-8.946719,-1.148274,-1.8017539,1,1,0
155609790,30.787189600432548,103.85855032922544,1.1493853,-1.8902619,-8.976531,-1.1493853,-1.7606739,1,1,0
155642757,30.787189593617132,103.858550018428,1.1515942,-1.8910197,-9.00622,-1.1515942,-1.7188048,1,1,0
155677410,30.787189596183428,103.85854965803236,1.1557536,-1.8907343,-9.040647,-1.1557536,-1.6737376,1,1,0
155709788,30.787189612105653,103.85854933411653,1.1609443,-1.8889638,-9.0715885,-1.1609443,-1.6362255,1,1,0
155742815,30.787189645250756,103.85854901784809,1.1663393,-1.8852782,-9.1018,-1.1663393,-1.5989951,1,1,0
155775972,30.787189698905745,103.85854872243523,1.1711109,-1.879312,-9.130019,-1.1711109,-1.5589914,1,1,0
155809688,30.78718977996832,103.85854841379415,1.1761377,-1.8702983,-9.159502,-1.1761377,-1.5116146,1,1,0
155842726,30.787189852201312,103.85854814949995,1.1726528,-1.8622663,-9.184749,-1.1726528,-1.4684724,1,1,0
155877472,30.787189942086002,103.85854785742156,1.1692551,-1.8522716,-9.212649,-1.1692551,-1.4222714,1,1,0
155909744,30.787190031359636,103.85854760731394,1.1653552,-1.8423448,-9.236541,-1.1653552,-1.3831929,1,1,0
155942751,30.787190129658004,103.85854736361574,1.1607955,-1.8314145,-9.25982,-1.1607955,-1.3454392,1,1,0
155975745,30.78719023675382,103.85854712477952,1.1554635,-1.8195059,-9.282635,-1.1554635,-1.3091623,1,1,0
156009644,30.787190364413078,103.85854685932716,1.1481158,-1.8053108,-9.307992,-1.1481158,-1.2736707,1,1,0
156041727,30.787190482244657,103.85854662084036,1.1415508,-1.7922086,-9.330773,-1.1415508,-1.2471077,1,1,0
156075018,30.787190605975855,103.85854637710219,1.1346576,-1.7784503,-9.354056,-1.1346576,-1.2220234,1,1,0
156109341,30.787190751032735,103.8585460923217,1.1274557,-1.7623206,-9.38126,-1.1274557,-1.1956782,1,1,0
156141811,30.78719088427429,103.85854583689282,1.1208954,-1.7475048,-9.40566,-1.1208954,-1.1745571,1,1,0
156175022,30.78719101914113,103.85854558359041,1.1146704,-1.7325083,-9.429856,-1.1146704,-1.154929,1,1,0
156207871,30.787191154446443,103.85854533563919,1.1089526,-1.717463,-9.453542,-1.1089526,-1.1370425,1,1,0
156241624,30.78719127519834,103.85854509017388,1.1031687,-1.704036,-9.47699,-1.1031687,-1.1197901,1,1,0
156285426,30.78719142515887,103.8585447814329,1.0988466,-1.6873611,-9.506482,-1.0988466,-1.0984565,1,1,0
156328865,30.787191552339966,103.85854450028641,1.0959127,-1.6732192,-9.533339,-1.0959127,-1.0791636,1,1,0
156374411,30.787191686587082,103.8585441738047,1.0931664,-1.6582916,-9.564526,-1.0931664,-1.0561628,1,1,0
156418376,30.78719179291417,103.85854388670805,1.0853795,-1.6464685,-9.59195,-1.0853795,-1.0330486,1,1,0
156462308,30.78719190068427,103.85854358457621,1.0705993,-1.634485,-9.620811,-1.0705993,-1.0172026,1,1,0
156506304,30.787191995603408,103.85854328646775,1.0533594,-1.6239305,-9.649288,-1.0533594,-1.0065777,1,1,0
156550162,30.787192091093956,103.85854297504123,1.0381571,-1.6133124,-9.679037,-1.0381571,-0.99872935,1,1,0
156594543,30.78719217752868,103.85854266462307,1.0204325,-1.6037012,-9.70869,-1.0204325,-0.9939636,1,1,0
156638118,30.78719227424887,103.85854234139602,1.0108036,-1.5929464,-9.739566,-1.0108036,-0.9882401,1,1,0
156682404,30.787192368482938,103.85854202096436,1.0025661,-1.582468,-9.770175,-1.0025661,-0.9817002,1,1,0
156726222,30.78719246778683,103.85854169456255,0.99554914,-1.5714259,-9.801354,-0.99554914,-0.976492,1,1,0
156770627,30.787192569175925,103.85854138338561,0.98920286,-1.5601519,-9.8310795,-0.98920286,-0.9732811,1,1,0
156803495,30.787192645284485,103.85854115900557,0.9868209,-1.551689,-9.852513,-0.9868209,-0.9737544,1,1,0
156847285,30.787192749146868,103.85854085484706,0.98973113,-1.54014,-9.881568,-0.98973113,-0.9764602,1,1,0
156891289,30.787192857613814,103.85854056461558,0.9939957,-1.528079,-9.909292,-0.9939957,-0.9817949,1,1,0
156935205,30.787192976161503,103.85854029794524,0.995164,-1.5148971,-9.934766,-0.995164,-0.9818134,1,1,0
156990363,30.787193131531712,103.85854000136418,0.9939399,-1.4976207,-9.963097,-0.9939399,-0.97186124,1,1,0
157035075,30.78719327477469,103.85853978968312,0.9974186,-1.4816928,-9.983317,-0.9974186,-0.96395284,1,1,0
157078789,30.787193434807428,103.85853957301026,0.99909526,-1.463898,-10.004015,-0.99909526,-0.9542407,1,1,0
157123905,30.787193607329836,103.85853936669032,1.0014579,-1.4447143,-10.023724,-1.0014579,-0.941263,1,1,0
157167844,30.787193799107776,103.85853915137521,1.0013189,-1.4233896,-10.0442915,-1.0013189,-0.9261957,1,1,0
157212780,30.78719401156497,103.85853893174716,1.0015533,-1.3997654,-10.065271,-1.0015533,-0.9099147,1,1,0
157246382,30.787194200954346,103.85853873073846,0.9981163,-1.3787062,-10.084473,-0.9981163,-0.8987179,1,1,0
157278767,30.787194379280987,103.85853854245875,0.99562174,-1.3588772,-10.102458,-0.99562174,-0.8897349,1,1,0
157311754,30.787194564674742,103.8585383477796,0.99327356,-1.3382623,-10.121055,-0.99327356,-0.88090575,1,1,0
157344812,30.787194755730113,103.85853814719019,0.9910692,-1.3170179,-10.140216,-0.9910692,-0.87375253,1,1,0
157378349,30.787194977337464,103.85853791473329,0.98916674,-1.2923763,-10.162421,-0.98916674,-0.8679491,1,1,0
157410965,30.787195173834675,103.85853770041652,0.9878995,-1.2705268,-10.182894,-0.9878995,-0.86577207,1,1,0
157443833,30.787195361234254,103.85853747778346,0.98776346,-1.2496889,-10.204161,-0.98776346,-0.86195326,1,1,0
157476905,30.78719555524639,103.85853724715358,0.98823714,-1.2281157,-10.2261915,-0.98823714,-0.8557426,1,1,0
157509724,30.787195745182483,103.85853701752207,0.98949957,-1.2069957,-10.248127,-0.98949957,-0.84785414,1,1,0
157543109,30.78719596100168,103.85853676107473,0.9909535,-1.1829977,-10.272624,-0.9909535,-0.8376738,1,1,0
157575885,30.78719615104178,103.8585365342286,0.99195325,-1.1618662,-10.294293,-0.99195325,-0.8301388,1,1,0
157608722,30.78719633728136,103.85853631000818,0.9934225,-1.1411573,-10.315712,-0.9934225,-0.82269454,1,1,0
157641756,30.787196517098167,103.85853608907232,0.99650264,-1.1211625,-10.336817,-0.99650264,-0.8192565,1,1,0
157675738,30.787196712533998,103.85853584140054,0.9996995,-1.099431,-10.360476,-0.9996995,-0.82107335,1,1,0
157708730,30.787196881707242,103.85853563196574,1.001383,-1.0806198,-10.380482,-1.001383,-0.82006043,1,1,0
157741763,30.787197044299024,103.85853543094704,1.0024838,-1.0625404,-10.399684,-1.0024838,-0.8140305,1,1,0
157775255,30.78719722374489,103.85853521650048,1.0028026,-1.0425869,-10.420169,-1.0028026,-0.80345416,1,1,0
157807761,30.78719738075331,103.85853502756189,1.0031686,-1.0251284,-10.438217,-1.0031686,-0.79239553,1,1,0
157851763,30.787197598795974,103.85853476925762,1.0037165,-1.0008831,-10.462892,-1.0037165,-0.7784534,1,1,0
157895764,30.787197829347065,103.8585345007701,1.0037102,-0.97524697,-10.488539,-1.0037102,-0.76050967,1,1,0
157939877,30.787198064799128,103.85853422333736,1.004052,-0.94906586,-10.51504,-1.004052,-0.72906244,1,1,0
157972754,30.787198240960166,103.8585340177462,1.004272,-0.92947763,-10.534679,-1.004272,-0.70017195,1,1,0
158006955,30.78719844144227,103.8585337921979,1.0093529,-0.907185,-10.556225,-1.0093529,-0.6658755,1,1,0
158039760,30.787198617790377,103.85853359272666,1.0201523,-0.887576,-10.575279,-1.0201523,-0.63991994,1,1,0
158072732,30.787198797470495,103.85853338454974,1.031992,-0.86759645,-10.595165,-1.031992,-0.6192985,1,1,0
158105751,30.787198979597605,103.85853316963396,1.0444543,-0.8473448,-10.615695,-1.0444543,-0.6056441,1,1,0
158139431,30.78719917812638,103.85853292605542,1.0596684,-0.8252694,-10.638963,-1.0596684,-0.59645075,1,1,0
158171826,30.787199342952345,103.85853271878702,1.0714194,-0.80694157,-10.658762,-1.0714194,-0.5876254,1,1,0
158215842,30.787199550489742,103.8585324479634,1.084971,-0.78386444,-10.684632,-1.084971,-0.5740983,1,1,0
158259886,30.787199740066665,103.85853218483709,1.0983988,-0.7627844,-10.709767,-1.0983988,-0.563194,1,1,0
158303858,30.78719991914636,103.85853191007,1.1086376,-0.74287164,-10.736014,-1.1086376,-0.5647254,1,1,0
158348724,30.7872000949235,103.85853161812123,1.1189483,-0.7233261,-10.763903,-1.1189483,-0.5727804,1,1,0
158392725,30.787200271960856,103.85853131233529,1.1259228,-0.7036404,-10.793113,-1.1259228,-0.5850632,1,1,0
158436724,30.787200468541048,103.85853098340749,1.1327597,-0.68178165,-10.824533,-1.1327597,-0.6011561,1,1,0
158469728,30.7872006211255,103.8585307347274,1.1364771,-0.664815,-10.848289,-1.1364771,-0.6124636,1,1,0
158503057,30.787200801995542,103.85853044802997,1.1396195,-0.64470315,-10.875675,-1.1396195,-0.6271688,1,1,0
158535754,30.787200970734006,103.85853018475392,1.1427361,-0.62594026,-10.900825,-1.1427361,-0.63985366,1,1,0
158568725,30.7872011464774,103.8585299134611,1.1459355,-0.60639846,-10.92674,-1.1459355,-0.6515299,1,1,0
158601801,30.787201327128738,103.85852963455082,1.1494018,-0.5863109,-10.9533825,-1.1494018,-0.664147,1,1,0
158623761,30.78720147430137,103.85852939770123,1.1526084,-0.56994605,-10.976007,-1.1526084,-0.67535377,1,1,0
158656744,30.787201676637526,103.85852907014116,1.157704,-0.54744726,-11.0072975,-1.157704,-0.6946172,1,1,0
158689754,30.78720187492499,103.85852874883076,1.1633071,-0.5253987,-11.037991,-1.1633071,-0.714299,1,1,0
158711893,30.787202023876727,103.8585285065002,1.1681063,-0.508836,-11.061139,-1.1681063,-0.7282581,1,1,0
158746728,30.787202223797763,103.85852818274387,1.1752006,-0.48660573,-11.092066,-1.1752006,-0.74485505,1,1,0
158768724,30.78720237471139,103.85852793965455,1.1808325,-0.46982488,-11.115287,-1.1808325,-0.7559935,1,1,0
158791869,30.787202526669212,103.858527694888,1.186652,-0.45292792,-11.138668,-1.186652,-0.7658991,1,1,0
158814095,30.787202674399875,103.85852749548664,1.1878666,-0.436501,-11.157716,-1.1878666,-0.771989,1,1,0
158836234,30.787202846497443,103.85852726417787,1.1898149,-0.4173646,-11.1798115,-1.1898149,-0.7763554,1,1,0
158868740,30.78720307516726,103.85852696214566,1.1920177,-0.39193764,-11.208663,-1.1920177,-0.78043085,1,1,0
158892202,30.787203246072405,103.85852673747594,1.1933861,-0.37293383,-11.230124,-1.1933861,-0.7844417,1,1,0
158924788,30.787203471255314,103.85852644175333,1.1947426,-0.3478946,-11.258373,-1.1947426,-0.7908527,1,1,0
158957876,30.78720368896264,103.85852615463652,1.1953256,-0.32368663,-11.2858,-1.1953256,-0.79694766,1,1,0
158979978,30.787203847420745,103.85852594181728,1.1952759,-0.30606687,-11.306129,-1.1952759,-0.8011412,1,1,0
159012744,30.787204056364676,103.85852565844431,1.1957326,-0.28283334,-11.333199,-1.1957326,-0.8057608,1,1,0
159045726,30.787204270433378,103.85852536714441,1.1989633,-0.25902995,-11.361025,-1.1989633,-0.8079724,1,1,0
