timestamp,voltage_v,voltage_filtered_v,current_a,current_filtered_a,average_current_a,discharged_mah,remaining,scale,temperature,cell_count,capacity,cycle_count,run_time_to_empty,average_time_to_empty,serial_number,connected,system_source,priority,is_powering_off,warning
5300650,17.659565,17.537754,0.0,0.022409948,0.0,0.0039597326,1.0,1.0,0.0,4,0,0,0,0,0,1,1,0,0,0
5804662,17.691673,17.548483,0.0,0.028770022,0.0,0.008745146,1.0,1.0,0.0,4,0,0,0,0,0,1,1,0,0,0
6309546,17.499023,17.557693,0.1172,0.027896006,0.0,0.012750392,1.0,1.0,0.0,4,0,0,0,0,0,1,1,0,0,0
6813571,17.515078,17.564949,0.0,0.023970123,0.0,0.015582554,1.0,1.0,0.0,4,0,0,0,0,0,1,1,0,0,0
7306325,17.611403,17.568521,0.1465,0.028863432,0.0,0.01980645,1.0,1.0,0.0,4,0,0,0,0,0,1,1,0,0,0
7810338,17.499023,17.55801,0.0293,0.033807684,0.0,0.024494044,1.0,1.0,0.0,4,0,0,0,0,0,1,1,0,0,0
8314373,17.627457,17.55889,0.1465,0.036599934,0.0,0.029672172,1.0,1.0,0.0,4,0,0,0,0,0,1,1,0,0,0
8807187,17.499023,17.556437,0.0586,0.031364586,0.0,0.033388536,1.0,1.0,0.0,4,0,0,0,0,0,1,1,0,0,0
9311219,17.707727,17.56194,0.0,0.031284165,0.0,0.03768814,1.0,1.0,0.0,4,0,0,0,0,0,1,1,0,0,0
9815930,17.499023,17.573727,0.0,0.024584461,0.0,0.04032791,1.0,1.0,0.0,4,0,0,0,0,0,1,1,0,0,0
10307949,17.64351,17.576166,0.0,0.026087167,0.0,0.044039838,1.0,1.0,0.0,4,0,0,0,0,0,1,1,0,0,0
10812787,17.515078,17.573502,0.0,0.026638392,0.0,0.04785286,1.0,1.0,0.0,4,0,0,0,0,0,1,1,0,0,0
11316724,17.547186,17.575863,0.0,0.02299164,0.0,0.05068711,1.0,1.0,0.0,4,0,0,0,0,0,1,1,0,0,0
11809522,17.691673,17.577732,0.0,0.027054459,0.0,0.054785322,1.0,1.0,0.0,4,0,0,0,0,0,1,1,0,0,0
12313567,17.499023,17.57719,0.1465,0.02347157,0.0,0.057618372,1.0,1.0,0.0,4,0,0,0,0,0,1,1,0,0,0
12818337,17.48297,17.577326,0.0,0.023802595,0.0,0.061140105,1.0,1.0,0.0,4,0,0,0,0,0,1,1,0,0,0
13322397,17.499023,17.57013,0.1172,0.029672835,0.0,0.06573151,1.0,1.0,0.0,4,0,0,0,0,0,1,1,0,0,0
13814373,17.691673,17.57067,0.0,0.028530097,0.0,0.069049954,1.0,1.0,0.0,4,0,0,0,0,0,1,1,0,0,0
14319162,17.691673,17.56909,0.0293,0.032063074,0.0,0.07407008,1.0,1.0,0.0,4,0,0,0,0,0,1,1,0,0,0
14823142,17.691673,17.56992,0.0,0.038368233,0.0,0.08002609,1.0,1.0,0.0,4,0,0,0,0,0,1,1,0,0,0
15315992,17.56324,17.570173,0.0293,0.029384214,0.0,0.0827631,1.0,1.0,0.0,4,0,0,0,0,0,1,1,0,0,0
15819928,17.499023,17.573814,0.0,0.03411878,0.0,0.08813496,1.0,1.0,0.0,4,0,0,0,0,0,1,1,0,0,0
16324811,17.611403,17.568674,0.0,0.027668646,0.0,0.09165728,1.0,1.0,0.0,4,0,0,0,0,0,1,1,0,0,0
16816748,17.627457,17.566742,0.0,0.031516485,0.0,0.09663401,1.0,1.0,0.0,4,0,0,0,0,0,1,1,0,0,0
17321517,17.723782,17.565802,0.0,0.03439272,0.0,0.10210326,1.0,1.0,0.0,4,0,0,0,0,0,1,1,0,0,0
17825577,17.499023,17.566774,0.0,0.032112144,0.0,0.10611263,1.0,1.0,0.0,4,0,0,0,0,0,1,1,0,0,0
18317549,17.499023,17.55935,0.0879,0.022419885,0.0,0.10787305,1.0,1.0,0.0,4,0,0,0,0,0,1,1,0,0,0
18822383,17.707727,17.569855,0.0,0.029950885,0.0,0.112575345,1.0,1.0,0.0,4,0,0,0,0,0,1,1,0,0,0
19326328,17.659565,17.567308,0.0,0.027987707,0.0,0.116189145,1.0,1.0,0.0,4,0,0,0,0,0,1,1,0,0,0
19819187,17.515078,17.56368,0.1172,0.037712727,0.0,0.1220781,1.0,1.0,0.0,4,0,0,0,0,0,1,1,0,0,0
20323148,17.499023,17.566381,0.0,0.025386196,0.0,0.12461559,1.0,1.0,0.0,4,0,0,0,0,0,1,1,0,0,0
20827953,17.48297,17.569715,0.0,0.022785604,0.0,0.128135,1.0,1.0,0.0,4,0,0,0,0,0,1,1,0,0,0
21319929,17.48297,17.563332,0.0,0.023563316,0.0,0.13174967,1.0,1.0,0.0,4,0,0,0,0,0,1,1,0,0,0
21824900,17.48297,17.568954,0.0,0.033042252,0.0,0.13702457,1.0,1.0,0.0,4,0,0,0,0,0,1,1,0,0,0
22328794,17.627457,17.571478,0.0,0.036765456,0.0,0.14249265,1.0,1.0,0.0,4,0,0,0,0,0,1,1,0,0,0
22820732,17.64351,17.572994,0.0,0.03602389,0.0,0.1469842,1.0,1.0,0.0,4,0,0,0,0,0,1,1,0,0,0
23325538,17.499023,17.566738,0.0,0.029894216,0.0,0.15099068,1.0,1.0,0.0,4,0,0,0,0,0,1,1,0,0,0
23829526,17.499023,17.555758,0.1172,0.031545315,0.0,0.15528911,1.0,1.0,0.0,4,0,0,0,0,0,1,1,0,0,0
24322302,17.611403,17.564217,0.0,0.023531478,0.0,0.15782714,1.0,1.0,0.0,4,0,0,0,0,0,1,1,0,0,0
24826324,17.691673,17.573622,0.0,0.033165768,0.0,0.16319998,1.0,1.0,0.0,4,0,0,0,0,0,1,1,0,0,0
25331172,17.499023,17.57151,0.0,0.033248316,0.0,0.16792327,1.0,1.0,0.0,4,0,0,0,0,0,1,1,0,0,0
25823147,17.611403,17.573568,0.0,0.026346883,0.0,0.17095158,1.0,1.0,0.0,4,0,0,0,0,0,1,1,0,0,0
26327958,17.499023,17.580067,0.0,0.030721845,0.0,0.17544423,1.0,1.0,0.0,4,0,0,0,0,0,1,1,0,0,0
26831979,17.531132,17.562336,0.0586,0.03241431,0.0,0.18081883,1.0,1.0,0.0,4,0,0,0,0,0,1,1,0,0,0
27324793,17.48297,17.568926,0.1172,0.036751885,0.0,0.1860102,1.0,1.0,0.0,4,0,0,0,0,0,1,1,0,0,0
27828721,17.499023,17.56999,0.0,0.024697766,0.0,0.1885491,1.0,1.0,0.0,4,0,0,0,0,0,1,1,0,0,0
28332740,17.691673,17.573439,0.0,0.021192446,0.0,0.1906973,1.0,1.0,0.0,4,0,0,0,0,0,1,1,0,0,0
28837523,17.499023,17.574133,0.0,0.025575263,0.0,0.19499452,1.0,1.0,0.0,4,0,0,0,0,0,1,1,0,0,0
29329523,17.691673,17.564983,0.0293,0.026525345,0.0,0.19890013,1.0,1.0,0.0,4,0,0,0,0,0,1,1,0,0,0
29834323,17.515078,17.571371,0.0879,0.03411869,0.0,0.20427424,1.0,1.0,0.0,4,0,0,0,0,0,1,1,0,0,0
30338335,17.611403,17.56138,0.0,0.023677083,0.0,0.20652114,1.0,1.0,0.0,4,0,0,0,0,0,1,1,0,0,0
30830358,17.499023,17.560719,0.0,0.024788383,0.0,0.21013856,1.0,1.0,0.0,4,0,0,0,0,0,1,1,0,0,0
31335159,17.723782,17.560783,0.0,0.024554534,0.0,0.21364829,1.0,1.0,0.0,4,0,0,0,0,0,1,1,0,0,0
31839156,17.48297,17.567535,0.1172,0.030535363,0.0,0.21833786,1.0,1.0,0.0,4,0,0,0,0,0,1,1,0,0,0
32331909,17.499023,17.565956,0.1172,0.03376208,0.0,0.22353613,1.0,1.0,0.0,4,0,0,0,0,0,1,1,0,0,0
32835929,17.531132,17.566107,0.0,0.03051887,0.0,0.22783825,1.0,1.0,0.0,4,0,0,0,0,0,1,1,0,0,0
33340725,17.48297,17.564402,0.0,0.0332735,0.0,0.2332184,1.0,1.0,0.0,4,0,0,0,0,0,1,1,0,0,0
33832702,17.531132,17.573805,0.0,0.0337182,0.0,0.23770937,1.0,1.0,0.0,4,0,0,0,0,0,1,1,0,0,0
34337521,17.499023,17.56338,0.0879,0.023913568,0.0,0.2399511,1.0,1.0,0.0,4,0,0,0,0,0,1,1,0,0,0
34841497,17.499023,17.562216,0.0,0.027215092,0.0,0.24405044,1.0,1.0,0.0,4,0,0,0,0,0,1,1,0,0,0
35333551,17.48297,17.556767,0.0,0.025831385,0.0,0.24756813,1.0,1.0,0.0,4,0,0,0,0,0,1,1,0,0,0
35838349,17.499023,17.555426,0.0,0.024992237,0.0,0.25080624,1.0,1.0,0.0,4,0,0,0,0,0,1,1,0,0,0
36342358,17.707727,17.556028,0.1172,0.03283403,0.0,0.25588962,1.0,1.0,0.0,4,0,0,0,0,0,1,1,0,0,0
36835143,17.515078,17.56286,0.0,0.031741686,0.0,0.25992548,1.0,1.0,0.0,4,0,0,0,0,0,1,1,0,0,0
37339164,17.627457,17.56329,0.0293,0.026024817,0.0,0.26285025,1.0,1.0,0.0,4,0,0,0,0,0,1,1,0,0,0
37843952,17.723782,17.563927,0.0,0.027597357,0.0,0.26677796,1.0,1.0,0.0,4,0,0,0,0,0,1,1,0,0,0
38335982,17.852215,17.5753,0.1465,0.033830594,0.0,0.27195537,1.0,1.0,0.0,4,0,0,0,0,0,1,1,0,0,0
38840721,17.707727,17.56949,0.0,0.026445027,0.0,0.27490428,1.0,1.0,0.0,4,0,0,0,0,0,1,1,0,0,0
39344784,17.499023,17.566357,0.1172,0.02251131,0.0,0.27764627,1.0,1.0,0.0,4,0,0,0,0,0,1,1,0,0,0
39848725,17.56324,17.56013,0.0,0.030816423,0.0,0.2827271,1.0,1.0,0.0,4,0,0,0,0,0,1,1,0,0,0
40341530,17.627457,17.56026,0.1172,0.038119182,0.0,0.2882004,1.0,1.0,0.0,4,0,0,0,0,0,1,1,0,0,0
40845520,17.547186,17.567703,0.1172,0.03705492,0.0,0.2925932,1.0,1.0,0.0,4,0,0,0,0,0,1,1,0,0,0
41350343,17.499023,17.559862,0.1172,0.03877745,0.0,0.29828253,1.0,1.0,0.0,4,0,0,0,0,0,1,1,0,0,0
41854356,17.499023,17.560692,0.1172,0.035434175,0.0,0.30258277,1.0,1.0,0.0,4,0,0,0,0,0,1,1,0,0,0
42347169,17.707727,17.561176,0.0,0.029715369,0.0,0.30609593,1.0,1.0,0.0,4,0,0,0,0,0,1,1,0,0,0
42851231,17.499023,17.56492,0.0,0.027703265,0.0,0.3091222,1.0,1.0,0.0,4,0,0,0,0,0,1,1,0,0,0
43355165,17.48297,17.565262,0.0,0.026563754,0.0,0.3127333,1.0,1.0,0.0,4,0,0,0,0,0,1,1,0,0,0
43859939,17.515078,17.561241,0.0,0.025558174,0.0,0.3162525,1.0,1.0,0.0,4,0,0,0,0,0,1,1,0,0,0
44363934,17.499023,17.55751,0.0,0.028124891,0.0,0.32045603,1.0,1.0,0.0,4,0,0,0,0,0,1,1,0,0,0
44856715,17.48297,17.55757,0.0,0.03630353,0.0,0.32614332,1.0,1.0,0.0,4,0,0,0,0,0,1,1,0,0,0
45360730,17.48297,17.56055,0.1172,0.030476782,0.0,0.32985607,1.0,1.0,0.0,4,0,0,0,0,0,1,1,0,0,0
45865526,17.515078,17.554918,0.1172,0.035427265,0.0,0.33503297,1.0,1.0,0.0,4,0,0,0,0,0,1,1,0,0,0
46369532,17.611403,17.56699,0.0,0.028938435,0.0,0.33845332,1.0,1.0,0.0,4,0,0,0,0,0,1,1,0,0,0
46861513,17.691673,17.565886,0.0,0.02723146,0.0,0.34196806,1.0,1.0,0.0,4,0,0,0,0,0,1,1,0,0,0
47366335,17.499023,17.558975,0.0,0.02745261,0.0,0.3458784,1.0,1.0,0.0,4,0,0,0,0,0,1,1,0,0,0
47870322,17.499023,17.566208,0.0,0.026468825,0.0,0.3493937,1.0,1.0,0.0,4,0,0,0,0,0,1,1,0,0,0
48363130,17.659565,17.561771,0.0293,0.020768357,0.0,0.35183638,1.0,1.0,0.0,4,0,0,0,0,0,1,1,0,0,0
48867169,17.48297,17.56056,0.0,0.024093386,0.0,0.35545203,1.0,1.0,0.0,4,0,0,0,0,0,1,1,0,0,0
49371920,17.499023,17.561817,0.0586,0.029574735,0.0,0.36036053,1.0,1.0,0.0,4,0,0,0,0,0,1,1,0,0,0
49863928,17.499023,17.561308,0.0,0.030841488,0.0,0.36465284,1.0,1.0,0.0,4,0,0,0,0,0,1,1,0,0,0
50368729,17.499023,17.562107,0.0,0.027867649,0.0,0.36808124,1.0,1.0,0.0,4,0,0,0,0,0,1,1,0,0,0
50872792,17.691673,17.563532,0.1172,0.029148396,0.0,0.37247646,1.0,1.0,0.0,4,0,0,0,0,0,1,1,0,0,0
51364787,17.67562,17.56289,0.0,0.024680473,0.0,0.37511492,1.0,1.0,0.0,4,0,0,0,0,0,1,1,0,0,0
51869544,17.515078,17.5647,0.0,0.024625998,0.0,0.37853396,1.0,1.0,0.0,4,0,0,0,0,0,1,1,0,0,0
52373531,17.64351,17.563845,0.0,0.027950604,0.0,0.3831256,1.0,1.0,0.0,4,0,0,0,0,0,1,1,0,0,0
52866393,17.499023,17.560427,0.0,0.03233027,0.0,0.38830107,1.0,1.0,0.0,4,0,0,0,0,0,1,1,0,0,0
53370358,17.547186,17.555367,0.0,0.032833014,0.0,0.39269045,1.0,1.0,0.0,4,0,0,0,0,0,1,1,0,0,0
53875141,17.499023,17.552483,0.0,0.036540903,0.0,0.39825946,1.0,1.0,0.0,4,0,0,0,0,0,1,1,0,0,0
54367179,17.48297,17.55559,0.0,0.028666576,0.0,0.40158007,1.0,1.0,0.0,4,0,0,0,0,0,1,1,0,0,0
54871156,17.48297,17.555155,0.0,0.027872745,0.0,0.40519813,1.0,1.0,0.0,4,0,0,0,0,0,1,1,0,0,0
55375951,17.64351,17.554066,0.0,0.0209365,0.0,0.4072448,1.0,1.0,0.0,4,0,0,0,0,0,1,1,0,0,0
55867929,17.48297,17.554932,0.1172,0.031089697,0.0,0.41242763,1.0,1.0,0.0,4,0,0,0,0,0,1,1,0,0,0
56372738,17.595348,17.559566,0.1172,0.034028012,0.0,0.4174041,1.0,1.0,0.0,4,0,0,0,0,0,1,1,0,0,0
56876730,17.466915,17.560127,0.1465,0.02759014,0.0,0.42053276,1.0,1.0,0.0,4,0,0,0,0,0,1,1,0,0,0
57369510,17.547186,17.551424,0.0,0.039536938,0.0,0.42708117,1.0,1.0,0.0,4,0,0,0,0,0,1,1,0,0,0
57873551,17.466915,17.552046,0.0,0.032522004,0.0,0.4306951,1.0,1.0,0.0,4,0,0,0,0,0,1,1,0,0,0
58378367,17.659565,17.559402,0.0,0.027315296,0.0,0.43394002,1.0,1.0,0.0,4,0,0,0,0,0,1,1,0,0,0
58870318,17.579294,17.557615,0.0293,0.021768227,0.0,0.43608862,1.0,1.0,0.0,4,0,0,0,0,0,1,1,0,0,0
59374380,17.67562,17.54556,0.0,0.021068204,0.0,0.43921658,1.0,1.0,0.0,4,0,0,0,0,0,1,1,0,0,0
59879160,17.48297,17.543612,0.0,0.021470206,0.0,0.44234282,1.0,1.0,0.0,4,0,0,0,0,0,1,1,0,0,0
60383197,17.547186,17.551788,0.1172,0.023466757,0.0,0.44546306,1.0,1.0,0.0,4,0,0,0,0,0,1,1,0,0,0
60875936,17.64351,17.555943,0.0,0.019771291,0.0,0.44814292,1.0,1.0,0.0,4,0,0,0,0,0,1,1,0,0,0
61379924,17.691673,17.561607,0.1758,0.022111718,0.0,0.4512664,1.0,1.0,0.0,4,0,0,0,0,0,1,1,0,0,0
61884709,17.48297,17.56375,0.0,0.021074288,0.0,0.4544877,1.0,1.0,0.0,4,0,0,0,0,0,1,1,0,0,0
62388740,17.48297,17.558037,0.0,0.022775328,0.0,0.45771244,1.0,1.0,0.0,4,0,0,0,0,0,1,1,0,0,0
62892738,17.691673,17.553986,0.0,0.027859818,0.0,0.4620134,1.0,1.0,0.0,4,0,0,0,0,0,1,1,0,0,0
63385542,17.515078,17.558025,0.0,0.029984111,0.0,0.46601376,1.0,1.0,0.0,4,0,0,0,0,0,1,1,0,0,0
63889511,17.48297,17.556776,0.0586,0.027377056,0.0,0.46962887,1.0,1.0,0.0,4,0,0,0,0,0,1,1,0,0,0
64394329,17.515078,17.552057,0.0,0.02633533,0.0,0.47333923,1.0,1.0,0.0,4,0,0,0,0,0,1,1,0,0,0
64898333,17.48297,17.552593,0.0586,0.034663614,0.0,0.4794956,1.0,1.0,0.0,4,0,0,0,0,0,1,1,0,0,0
65391176,17.67562,17.559813,0.0,0.029843183,0.0,0.48340014,1.0,1.0,0.0,4,0,0,0,0,0,1,1,0,0,0
65895163,17.48297,17.567646,0.0586,0.027974498,0.0,0.48691425,1.0,1.0,0.0,4,0,0,0,0,0,1,1,0,0,0
66399208,17.659565,17.57138,0.0879,0.03184439,0.0,0.4912104,1.0,1.0,0.0,4,0,0,0,0,0,1,1,0,0,0
66903932,17.402699,17.561867,0.0879,0.02089141,0.0,0.49287188,1.0,1.0,0.0,4,0,0,0,0,0,1,1,0,0,0
67395947,17.499023,17.561417,0.0,0.029975824,0.0,0.49766153,1.0,1.0,0.0,4,0,0,0,0,0,1,1,0,0,0
67900791,17.466915,17.559328,0.0,0.02339434,0.0,0.5005197,1.0,1.0,0.0,4,0,0,0,0,0,1,1,0,0,0
68404816,17.48297,17.557182,0.1465,0.020959964,0.0,0.5033532,1.0,1.0,0.0,4,0,0,0,0,0,1,1,0,0,0
68897536,17.48297,17.563868,0.0,0.024483014,0.0,0.50698805,1.0,1.0,0.0,4,0,0,0,0,0,1,1,0,0,0
69401557,17.67562,17.570732,0.1172,0.026937306,0.0,0.51099455,1.0,1.0,0.0,4,0,0,0,0,0,1,1,0,0,0
69905547,17.48297,17.560125,0.0,0.02929073,0.0,0.5157773,1.0,1.0,0.0,4,0,0,0,0,0,1,1,0,0,0
70398348,17.64351,17.56372,0.0,0.02395692,0.0,0.5185112,1.0,1.0,0.0,4,0,0,0,0,0,1,1,0,0,0
70902374,17.67562,17.554209,0.0,0.029539652,0.0,0.52349454,1.0,1.0,0.0,4,0,0,0,0,0,1,1,0,0,0
71407253,17.499023,17.556808,0.1172,0.030693518,0.0,0.5276937,1.0,1.0,0.0,4,0,0,0,0,0,1,1,0,0,0
71899207,17.499023,17.549189,0.0,0.03533795,0.0,0.5333484,1.0,1.0,0.0,4,0,0,0,0,0,1,1,0,0,0
72403954,17.48297,17.550503,0.0586,0.03977922,0.0,0.5392098,1.0,1.0,0.0,4,0,0,0,0,0,1,1,0,0,0
72907918,17.48297,17.546926,0.0293,0.028667793,0.0,0.5422386,1.0,1.0,0.0,4,0,0,0,0,0,1,1,0,0,0
73400745,17.515078,17.548483,0.0,0.027659278,0.0,0.5464412,1.0,1.0,0.0,4,0,0,0,0,0,1,1,0,0,0
73904853,17.611403,17.547794,0.1172,0.03198349,0.0,0.5516224,1.0,1.0,0.0,4,0,0,0,0,0,1,1,0,0,0
74408759,17.64351,17.553917,0.0,0.027708547,0.0,0.55542725,1.0,1.0,0.0,4,0,0,0,0,0,1,1,0,0,0
74901540,17.48297,17.552317,0.0,0.020055238,0.0,0.5572795,1.0,1.0,0.0,4,0,0,0,0,0,1,1,0,0,0
75405552,17.547186,17.554214,0.0,0.022882152,0.0,0.5609915,1.0,1.0,0.0,4,0,0,0,0,0,1,1,0,0,0
75910385,17.48297,17.550901,0.1172,0.0259261,0.0,0.5651894,1.0,1.0,0.0,4,0,0,0,0,0,1,1,0,0,0
76402321,17.466915,17.553764,0.0,0.031321585,0.0,0.57027495,1.0,1.0,0.0,4,0,0,0,0,0,1,1,0,0,0
76907205,17.611403,17.548426,0.0,0.028584957,0.0,0.5740863,1.0,1.0,0.0,4,0,0,0,0,0,1,1,0,0,0
77411185,17.691673,17.549965,0.0,0.024648173,0.0,0.5772144,1.0,1.0,0.0,4,0,0,0,0,0,1,1,0,0,0
77903176,17.466915,17.54919,0.1172,0.027008155,0.0,0.5814095,1.0,1.0,0.0,4,0,0,0,0,0,1,1,0,0,0
78407951,17.499023,17.55333,0.0,0.033022527,0.0,0.58697677,1.0,1.0,0.0,4,0,0,0,0,0,1,1,0,0,0
78911935,17.466915,17.549816,0.0,0.0352496,0.0,0.5919592,1.0,1.0,0.0,4,0,0,0,0,0,1,1,0,0,0
79416748,17.48297,17.552633,0.1172,0.03084697,0.0,0.5960626,1.0,1.0,0.0,4,0,0,0,0,0,1,1,0,0,0
79908737,17.466915,17.554739,0.0,0.03395661,0.0,0.6011429,1.0,1.0,0.0,4,0,0,0,0,0,1,1,0,0,0
80413595,17.499023,17.557188,0.0,0.030513136,0.0,0.60524696,1.0,1.0,0.0,4,0,0,0,0,0,1,1,0,0,0
80917534,17.67562,17.55922,0.0,0.038247395,0.0,0.6113032,1.0,1.0,0.0,4,0,0,0,0,0,1,1,0,0,0
81421526,17.499023,17.546885,0.1465,0.035798132,0.0,0.61560327,1.0,1.0,0.0,4,0,0,0,0,0,1,1,0,0,0
81914366,17.48297,17.54705,0.0,0.037896153,0.0,0.6208744,1.0,1.0,0.0,4,0,0,0,0,0,1,1,0,0,0
82418365,17.547186,17.548698,0.0,0.033523686,0.0,0.62517035,1.0,1.0,0.0,4,0,0,0,0,0,1,1,0,0,0
82923230,17.627457,17.54988,0.0879,0.035273436,0.0,0.6301533,1.0,1.0,0.0,4,0,0,0,0,0,1,1,0,0,0
83415185,17.48297,17.55544,0.0,0.027764684,0.0,0.63328165,1.0,1.0,0.0,4,0,0,0,0,0,1,1,0,0,0
83919939,17.67562,17.553896,0.0,0.032688223,0.0,0.6383566,1.0,1.0,0.0,4,0,0,0,0,0,1,1,0,0,0
84423945,17.67562,17.550049,0.0,0.028697206,0.0,0.6422582,1.0,1.0,0.0,4,0,0,0,0,0,1,1,0,0,0
84916743,17.595348,17.554375,0.0,0.029719448,0.0,0.64605844,1.0,1.0,0.0,4,0,0,0,0,0,1,1,0,0,0
85420749,17.579294,17.552673,0.0293,0.028923692,0.0,0.6499651,1.0,1.0,0.0,4,0,0,0,0,0,1,1,0,0,0
85924789,17.466915,17.550207,0.0,0.03108517,0.0,0.6547502,1.0,1.0,0.0,4,0,0,0,0,0,1,1,0,0,0
86417530,17.48297,17.545637,0.0,0.031618956,0.0,0.6585617,1.0,1.0,0.0,4,0,0,0,0,0,1,1,0,0,0
86921586,17.48297,17.547089,0.1172,0.035168014,0.0,0.6634478,1.0,1.0,0.0,4,0,0,0,0,0,1,1,0,0,0
87426339,17.579294,17.546333,0.0586,0.031891316,0.0,0.667933,1.0,1.0,0.0,4,0,0,0,0,0,1,1,0,0,0
87918354,17.466915,17.555574,0.0,0.02920335,0.0,0.67184395,1.0,1.0,0.0,4,0,0,0,0,0,1,1,0,0,0
88423227,17.56324,17.546097,0.0,0.02713578,0.0,0.67525864,1.0,1.0,0.0,4,0,0,0,0,0,1,1,0,0,0
88927174,17.595348,17.549042,0.0,0.029498015,0.0,0.6800427,1.0,1.0,0.0,4,0,0,0,0,0,1,1,0,0,0
89419187,17.67562,17.550913,0.0,0.025831353,0.0,0.68326515,1.0,1.0,0.0,4,0,0,0,0,0,1,1,0,0,0
89923950,17.466915,17.547714,0.0,0.030682713,0.0,0.68805176,1.0,1.0,0.0,4,0,0,0,0,0,1,1,0,0,0
90428738,17.595348,17.546974,0.0,0.029211177,0.0,0.69206107,1.0,1.0,0.0,4,0,0,0,0,0,1,1,0,0,0
90920729,17.515078,17.542664,0.0,0.024837112,0.0,0.6948927,1.0,1.0,0.0,4,0,0,0,0,0,1,1,0,0,0
91424802,17.691673,17.547705,0.0,0.01723008,0.0,0.696746,1.0,1.0,0.0,4,0,0,0,0,0,1,1,0,0,0
91929531,17.499023,17.551157,0.0,0.022015959,0.0,0.7005553,1.0,1.0,0.0,4,0,0,0,0,0,1,1,0,0,0
92421639,17.515078,17.557713,0.1172,0.021540582,0.0,0.7034895,1.0,1.0,0.0,4,0,0,0,0,0,1,1,0,0,0
92926328,17.627457,17.554224,0.0,0.022604903,0.0,0.7070081,1.0,1.0,0.0,4,0,0,0,0,0,1,1,0,0,0
93430343,17.67562,17.552958,0.1172,0.029921457,0.0,0.71149826,1.0,1.0,0.0,4,0,0,0,0,0,1,1,0,0,0
93934427,17.466915,17.551682,0.0,0.028694762,0.0,0.71578926,1.0,1.0,0.0,4,0,0,0,0,0,1,1,0,0,0
94427254,17.48297,17.545687,0.0879,0.033076856,0.0,0.72040665,1.0,1.0,0.0,4,0,0,0,0,0,1,1,0,0,0
94931120,17.466915,17.543118,0.1465,0.031485215,0.0,0.7244058,1.0,1.0,0.0,4,0,0,0,0,0,1,1,0,0,0
95435957,17.611403,17.544567,0.0,0.033787843,0.0,0.7290044,1.0,1.0,0.0,4,0,0,0,0,0,1,1,0,0,0
95939944,17.48297,17.546017,0.0,0.030796766,0.0,0.73300946,1.0,1.0,0.0,4,0,0,0,0,0,1,1,0,0,0
96432794,17.499023,17.55595,0.0,0.032593057,0.0,0.73762864,1.0,1.0,0.0,4,0,0,0,0,0,1,1,0,0,0
96936744,17.48297,17.55585,0.0,0.033443842,0.0,0.7424126,1.0,1.0,0.0,4,0,0,0,0,0,1,1,0,0,0
97441545,17.595348,17.562372,0.0,0.021538552,0.0,0.74416715,1.0,1.0,0.0,4,0,0,0,0,0,1,1,0,0,0
97945545,17.659565,17.560003,0.1172,0.027319487,0.0,0.748457,1.0,1.0,0.0,4,0,0,0,0,0,1,1,0,0,0
98449518,17.499023,17.553755,0.0,0.028896503,0.0,0.7524606,1.0,1.0,0.0,4,0,0,0,0,0,1,1,0,0,0
98942342,17.611403,17.549187,0.1172,0.02587707,0.0,0.75558794,1.0,1.0,0.0,4,0,0,0,0,0,1,1,0,0,0
99446330,17.466915,17.5485,0.1172,0.029109485,0.0,0.7601784,1.0,1.0,0.0,4,0,0,0,0,0,1,1,0,0,0
99951177,17.499023,17.552153,0.0586,0.031381533,0.0,0.7646694,1.0,1.0,0.0,4,0,0,0,0,0,1,1,0,0,0
100443173,17.67562,17.559385,0.1172,0.032944303,0.0,0.7690623,1.0,1.0,0.0,4,0,0,0,0,0,1,1,0,0,0
100947947,17.466915,17.554089,0.0,0.02531567,0.0,0.7722961,1.0,1.0,0.0,4,0,0,0,0,0,1,1,0,0,0
101451934,17.579294,17.546076,0.0,0.028710997,0.0,0.7763006,1.0,1.0,0.0,4,0,0,0,0,0,1,1,0,0,0
101956804,17.691673,17.545427,0.0,0.021747233,0.0,0.7788389,1.0,1.0,0.0,4,0,0,0,0,0,1,1,0,0,0
102448738,17.48297,17.551771,0.1172,0.019561848,0.0,0.7811803,1.0,1.0,0.0,4,0,0,0,0,0,1,1,0,0,0
102952811,17.67562,17.545404,0.0,0.018743707,0.0,0.78381664,1.0,1.0,0.0,4,0,0,0,0,0,1,1,0,0,0
103457541,17.466915,17.545753,0.0,0.024716696,0.0,0.78772634,1.0,1.0,0.0,4,0,0,0,0,0,1,1,0,0,0
103961568,17.627457,17.551302,0.0,0.020925509,0.0,0.79016846,1.0,1.0,0.0,4,0,0,0,0,0,1,1,0,0,0
104466337,17.48297,17.544418,0.0,0.019941332,0.0,0.79280466,1.0,1.0,0.0,4,0,0,0,0,0,1,1,0,0,0
104958354,17.466915,17.554876,0.1465,0.021221614,0.0,0.7953459,1.0,1.0,0.0,4,0,0,0,0,0,1,1,0,0,0
105463188,17.48297,17.546057,0.0,0.029808206,0.0,0.80013305,1.0,1.0,0.0,4,0,0,0,0,0,1,1,0,0,0
105967223,17.531132,17.540585,0.0,0.029127663,0.0,0.80423397,1.0,1.0,0.0,4,0,0,0,0,0,1,1,0,0,0
106471216,17.499023,17.544918,0.0,0.026425468,0.0,0.80736196,1.0,1.0,0.0,4,0,0,0,0,0,1,1,0,0,0
106963937,17.466915,17.554886,0.0879,0.03381219,0.0,0.8126297,1.0,1.0,0.0,4,0,0,0,0,0,1,1,0,0,0
107468737,17.611403,17.553013,0.0586,0.030167729,0.0,0.8162574,1.0,1.0,0.0,4,0,0,0,0,0,1,1,0,0,0
107972740,17.466915,17.550192,0.1465,0.028781883,0.0,0.8200608,1.0,1.0,0.0,4,0,0,0,0,0,1,1,0,0,0
108476742,17.67562,17.55332,0.0,0.02530176,0.0,0.8229986,1.0,1.0,0.0,4,0,0,0,0,0,1,1,0,0,0
108969539,17.499023,17.554722,0.1172,0.030820692,0.0,0.8272173,1.0,1.0,0.0,4,0,0,0,0,0,1,1,0,0,0
109473558,17.48297,17.55008,0.0,0.032428488,0.0,0.83200306,1.0,1.0,0.0,4,0,0,0,0,0,1,1,0,0,0
109978356,17.659565,17.53682,0.0,0.029895999,0.0,0.83609974,1.0,1.0,0.0,4,0,0,0,0,0,1,1,0,0,0
110482337,17.48297,17.538345,0.0879,0.028062899,0.0,0.8398047,1.0,1.0,0.0,4,0,0,0,0,0,1,1,0,0,0
110986353,17.48297,17.534824,0.0,0.02460965,0.0,0.8429223,1.0,1.0,0.0,4,0,0,0,0,0,1,1,0,0,0
111479224,17.659565,17.537111,0.0,0.027823377,0.0,0.8472244,1.0,1.0,0.0,4,0,0,0,0,0,1,1,0,0,0
111983201,17.579294,17.546408,0.0,0.030415984,0.0,0.8516199,1.0,1.0,0.0,4,0,0,0,0,0,1,1,0,0,0
112487946,17.659565,17.539675,0.1172,0.029374806,0.0,0.8557199,1.0,1.0,0.0,4,0,0,0,0,0,1,1,0,0,0
112991942,17.64351,17.547556,0.0,0.02883241,0.0,0.8595274,1.0,1.0,0.0,4,0,0,0,0,0,1,1,0,0,0
113484784,17.499023,17.546331,0.0,0.026632326,0.0,0.86306864,1.0,1.0,0.0,4,0,0,0,0,0,1,1,0,0,0
113988809,17.466915,17.544476,0.1172,0.034730442,0.0,0.8681457,1.0,1.0,0.0,4,0,0,0,0,0,1,1,0,0,0
114492818,17.515078,17.54829,0.0,0.022953577,0.0,0.8701996,1.0,1.0,0.0,4,0,0,0,0,0,1,1,0,0,0
114997555,17.579294,17.540596,0.0,0.02673936,0.0,0.8748937,1.0,1.0,0.0,4,0,0,0,0,0,1,1,0,0,0
115501542,17.659565,17.538826,0.0,0.025630528,0.0,0.8782116,1.0,1.0,0.0,4,0,0,0,0,0,1,1,0,0,0
115994366,17.499023,17.543127,0.0293,0.026186332,0.0,0.88173026,1.0,1.0,0.0,4,0,0,0,0,0,1,1,0,0,0
116498347,17.64351,17.54003,0.1172,0.028732415,0.0,0.8856446,1.0,1.0,0.0,4,0,0,0,0,0,1,1,0,0,0
117003166,17.627457,17.541426,0.0,0.034167513,0.0,0.8907226,1.0,1.0,0.0,4,0,0,0,0,0,1,1,0,0,0
117495168,17.466915,17.540533,0.0879,0.031127239,0.0,0.89424175,1.0,1.0,0.0,4,0,0,0,0,0,1,1,0,0,0
117999156,17.499023,17.547623,0.0,0.0302973,0.0,0.89815027,1.0,1.0,0.0,4,0,0,0,0,0,1,1,0,0,0
118503920,17.48297,17.538998,0.0,0.029979711,0.0,0.9019863,1.0,1.0,0.0,4,0,0,0,0,0,1,1,0,0,0
119007962,17.611403,17.551065,0.0,0.037700064,0.0,0.9082384,1.0,1.0,0.0,4,0,0,0,0,0,1,1,0,0,0
119500764,17.466915,17.550655,0.0,0.02732265,0.0,0.91087407,1.0,1.0,0.0,4,0,0,0,0,0,1,1,0,0,0
120004774,17.48297,17.544933,0.0,0.018933102,0.0,0.91243756,1.0,1.0,0.0,4,0,0,0,0,0,1,1,0,0,0
120509521,17.466915,17.549088,0.0,0.020440113,0.0,0.9154721,1.0,1.0,0.0,4,0,0,0,0,0,1,1,0,0,0
121001562,17.659565,17.549074,0.0,0.030294258,0.0,0.9206503,1.0,1.0,0.0,4,0,0,0,0,0,1,1,0,0,0
121506344,17.659565,17.542934,0.0,0.030826908,0.0,0.92484665,1.0,1.0,0.0,4,0,0,0,0,0,1,1,0,0,0
122010399,17.691673,17.54134,0.0,0.03753342,0.0,0.9312897,1.0,1.0,0.0,4,0,0,0,0,0,1,1,0,0,0
122502397,17.466915,17.534065,0.0879,0.033029772,0.0,0.9354928,1.0,1.0,0.0,4,0,0,0,0,0,1,1,0,0,0
123007203,17.499023,17.542973,0.1172,0.026478035,0.0,0.9386156,1.0,1.0,0.0,4,0,0,0,0,0,1,1,0,0,0
123511173,17.466915,17.535133,0.0879,0.026496407,0.0,0.9424231,1.0,1.0,0.0,4,0,0,0,0,0,1,1,0,0,0
124003947,17.595348,17.542284,0.0,0.023012187,0.0,0.9453549,1.0,1.0,0.0,4,0,0,0,0,0,1,1,0,0,0
124507933,17.499023,17.53661,0.0,0.023612248,0.0,0.9489656,1.0,1.0,0.0,4,0,0,0,0,0,1,1,0,0,0
125012733,17.466915,17.53086,0.0,0.02846078,0.0,0.9537524,1.0,1.0,0.0,4,0,0,0,0,0,1,1,0,0,0
125504802,17.627457,17.533102,0.0,0.029025847,0.0,0.95776236,1.0,1.0,0.0,4,0,0,0,0,0,1,1,0,0,0
126008781,17.48297,17.544184,0.0,0.025413193,0.0,0.96088684,1.0,1.0,0.0,4,0,0,0,0,0,1,1,0,0,0
126513582,17.466915,17.54133,0.0,0.02267928,0.0,0.96430665,1.0,1.0,0.0,4,0,0,0,0,0,1,1,0,0,0
127005523,17.48297,17.539219,0.0,0.026642993,0.0,0.9686009,1.0,1.0,0.0,4,0,0,0,0,0,1,1,0,0,0
127510327,17.595348,17.543047,0.0,0.027266227,0.0,0.97301114,1.0,1.0,0.0,4,0,0,0,0,0,1,1,0,0,0
128014390,17.48297,17.536327,0.0,0.025674157,0.0,0.97623134,1.0,1.0,0.0,4,0,0,0,0,0,1,1,0,0,0
128506318,17.450861,17.536554,0.1172,0.030400123,0.0,0.98091465,1.0,1.0,0.0,4,0,0,0,0,0,1,1,0,0,0
129011182,17.48297,17.535635,0.0,0.029285636,0.0,0.9847189,1.0,1.0,0.0,4,0,0,0,0,0,1,1,0,0,0
129515215,17.466915,17.535616,0.0,0.030354341,0.0,0.98930997,1.0,1.0,0.0,4,0,0,0,0,0,1,1,0,0,0
130007926,17.466915,17.538086,0.0293,0.026052248,0.0,0.9924391,1.0,1.0,0.0,4,0,0,0,0,0,1,1,0,0,0
130511984,17.466915,17.54205,0.0,0.02517033,0.0,0.99586177,1.0,1.0,0.0,4,0,0,0,0,0,1,1,0,0,0
131016757,17.531132,17.542812,0.0,0.023181476,0.0,0.9989121,1.0,1.0,0.0,4,0,0,0,0,0,1,1,0,0,0
131520735,17.627457,17.539688,0.0,0.031756584,0.0,1.0039959,1.0,1.0,0.0,4,0,0,0,0,0,1,1,0,0,0
132024801,17.466915,17.541197,0.0879,0.032308374,0.0,1.0085883,1.0,1.0,0.0,4,0,0,0,0,0,1,1,0,0,0
132517546,17.691673,17.532816,0.1172,0.023006836,0.0,1.0107352,1.0,1.0,0.0,4,0,0,0,0,0,1,1,0,0,0
133021530,17.466915,17.52301,0.0586,0.031046769,0.0,1.015521,1.0,1.0,0.0,4,0,0,0,0,0,1,1,0,0,0
133526362,17.67562,17.522161,0.1172,0.031823598,0.0,1.019625,1.0,1.0,0.0,4,0,0,0,0,0,1,1,0,0,0
134018363,17.627457,17.51797,0.0,0.028145691,0.0,1.0229477,1.0,1.0,0.0,4,0,0,0,0,0,1,1,0,0,0
134523177,17.56324,17.52338,0.0,0.027457956,0.0,1.0268532,1.0,1.0,0.0,4,0,0,0,0,0,1,1,0,0,0
135027186,17.466915,17.52564,0.0,0.024609549,0.0,1.0303696,1.0,1.0,0.0,4,0,0,0,0,0,1,1,0,0,0
135531259,17.56324,17.529854,0.0,0.034966227,0.0,1.0363305,1.0,1.0,0.0,4,0,0,0,0,0,1,1,0,0,0
136023935,17.499023,17.536308,0.1172,0.0332828,0.0,1.0404297,1.0,1.0,0.0,4,0,0,0,0,0,1,1,0,0,0
136527968,17.659565,17.533928,0.0,0.027237425,0.0,1.0438496,1.0,1.0,0.0,4,0,0,0,0,0,1,1,0,0,0
137032738,17.659565,17.537859,0.0,0.029585365,0.0,1.0484341,1.0,1.0,0.0,4,0,0,0,0,0,1,1,0,0,0
137524798,17.659565,17.54285,0.0,0.026072355,0.0,1.0515528,1.0,1.0,0.0,4,0,0,0,0,0,1,1,0,0,0
138028765,17.659565,17.543467,0.0,0.023749763,0.0,1.0547736,1.0,1.0,0.0,4,0,0,0,0,0,1,1,0,0,0
138533594,17.659565,17.547373,0.1172,0.031148098,0.0,1.0597723,1.0,1.0,0.0,4,0,0,0,0,0,1,1,0,0,0
139037574,17.466915,17.544836,0.1172,0.027855955,0.0,1.0627047,1.0,1.0,0.0,4,0,0,0,0,0,1,1,0,0,0
139530408,17.723782,17.532068,0.0,0.02770884,0.0,1.0661215,1.0,1.0,0.0,4,0,0,0,0,0,1,1,0,0,0
140034403,17.466915,17.532225,0.0,0.025177909,0.0,1.0696383,1.0,1.0,0.0,4,0,0,0,0,0,1,1,0,0,0
140539240,17.466915,17.537079,0.1465,0.027488068,0.0,1.0738405,1.0,1.0,0.0,4,0,0,0,0,0,1,1,0,0,0
141031229,17.466915,17.527372,0.0,0.025420373,0.0,1.0768622,1.0,1.0,0.0,4,0,0,0,0,0,1,1,0,0,0
141535166,17.547186,17.529772,0.1758,0.02837264,0.0,1.081058,1.0,1.0,0.0,4,0,0,0,0,0,1,1,0,0,0
142039993,17.659565,17.528723,0.0,0.029323537,0.0,1.0857742,1.0,1.0,0.0,4,0,0,0,0,0,1,1,0,0,0
142531991,17.659565,17.52579,0.0,0.022715049,0.0,1.0882157,1.0,1.0,0.0,4,0,0,0,0,0,1,1,0,0,0
143036737,17.48297,17.532742,0.0,0.031032333,0.0,1.0930026,1.0,1.0,0.0,4,0,0,0,0,0,1,1,0,0,0
143540745,17.466915,17.544313,0.0,0.033861686,0.0,1.0977858,1.0,1.0,0.0,4,0,0,0,0,0,1,1,0,0,0
144032809,17.466915,17.543064,0.0,0.028717615,0.0,1.1012062,1.0,1.0,0.0,4,0,0,0,0,0,1,1,0,0,0
144537542,17.611403,17.534489,0.0,0.030741658,0.0,1.1053171,1.0,1.0,0.0,4,0,0,0,0,0,1,1,0,0,0
145041546,17.499023,17.538479,0.0,0.029520532,0.0,1.1091251,1.0,1.0,0.0,4,0,0,0,0,0,1,1,0,0,0
145534338,17.466915,17.527342,0.0,0.03136118,0.0,1.1136243,1.0,1.0,0.0,4,0,0,0,0,0,1,1,0,0,0
146038348,17.466915,17.52998,0.0,0.034485072,0.0,1.1185057,1.0,1.0,0.0,4,0,0,0,0,0,1,1,0,0,0
146543195,17.659565,17.526766,0.0,0.034701236,0.0,1.1229273,1.0,1.0,0.0,4,0,0,0,0,0,1,1,0,0,0
147035160,17.48297,17.530214,0.0,0.025272375,0.0,1.125464,1.0,1.0,0.0,4,0,0,0,0,0,1,1,0,0,0
147539916,17.466915,17.53404,0.0879,0.027105007,0.0,1.1295656,1.0,1.0,0.0,4,0,0,0,0,0,1,1,0,0,0
148043943,17.499023,17.533499,0.1172,0.026364105,0.0,1.1328866,1.0,1.0,0.0,4,0,0,0,0,0,1,1,0,0,0
148547948,17.354536,17.52769,0.0,0.025527546,0.0,1.1360089,1.0,1.0,0.0,4,0,0,0,0,0,1,1,0,0,0
149040742,17.611403,17.522602,0.0,0.027363325,0.0,1.1398208,1.0,1.0,0.0,4,0,0,0,0,0,1,1,0,0,0
149544793,17.466915,17.524086,0.1172,0.023951646,0.0,1.1425488,1.0,1.0,0.0,4,0,0,0,0,0,1,1,0,0,0
150048727,17.659565,17.52842,0.1172,0.03706736,0.0,1.1488944,1.0,1.0,0.0,4,0,0,0,0,0,1,1,0,0,0
150541537,17.627457,17.532913,0.0586,0.033226844,0.0,1.1531982,1.0,1.0,0.0,4,0,0,0,0,0,1,1,0,0,0
151045534,17.691673,17.536963,0.1172,0.030943532,0.0,1.1573989,1.0,1.0,0.0,4,0,0,0,0,0,1,1,0,0,0
151550401,17.499023,17.5344,0.0,0.028539015,0.0,1.1615068,1.0,1.0,0.0,4,0,0,0,0,0,1,1,0,0,0
152042355,17.659565,17.535395,0.1172,0.032600917,0.0,1.1661977,1.0,1.0,0.0,4,0,0,0,0,0,1,1,0,0,0
152547195,17.418753,17.52986,0.0,0.02240372,0.0,1.1680714,1.0,1.0,0.0,4,0,0,0,0,0,1,1,0,0,0
153051168,17.450861,17.527723,0.0,0.020771898,0.0,1.1708086,1.0,1.0,0.0,4,0,0,0,0,0,1,1,0,0,0
153543169,17.434807,17.521517,0.0,0.020892935,0.0,1.1737446,1.0,1.0,0.0,4,0,0,0,0,0,1,1,0,0,0
154048004,17.466915,17.529507,0.0,0.026675018,0.0,1.1773574,1.0,1.0,0.0,4,0,0,0,0,0,1,1,0,0,0
154551911,17.48297,17.533543,0.0,0.022136793,0.0,1.1802828,1.0,1.0,0.0,4,0,0,0,0,0,1,1,0,0,0
155044830,17.659565,17.528229,0.0,0.019527707,0.0,1.1826272,1.0,1.0,0.0,4,0,0,0,0,0,1,1,0,0,0
155548738,17.499023,17.535013,0.0293,0.024296638,0.0,1.186721,1.0,1.0,0.0,4,0,0,0,0,0,1,1,0,0,0
156052781,17.466915,17.542845,0.0,0.017876998,0.0,1.1886715,1.0,1.0,0.0,4,0,0,0,0,0,1,1,0,0,0
156545542,17.659565,17.543846,0.0,0.02081595,0.0,1.1923878,1.0,1.0,0.0,4,0,0,0,0,0,1,1,0,0,0
157049532,17.48297,17.542894,0.0,0.031197382,0.0,1.1978616,1.0,1.0,0.0,4,0,0,0,0,0,1,1,0,0,0
157554378,17.466915,17.52803,0.0,0.023209764,0.0,1.2002072,1.0,1.0,0.0,4,0,0,0,0,0,1,1,0,0,0
158046355,17.466915,17.527592,0.0,0.031604115,0.0,1.2050921,1.0,1.0,0.0,4,0,0,0,0,0,1,1,0,0,0
158550334,17.595348,17.53181,0.0879,0.028153801,0.0,1.208314,1.0,1.0,0.0,4,0,0,0,0,0,1,1,0,0,0
159055173,17.466915,17.537298,0.0,0.02618856,0.0,1.2119277,1.0,1.0,0.0,4,0,0,0,0,0,1,1,0,0,0
159559143,17.627457,17.532877,0.0,0.032213233,0.0,1.2172954,1.0,1.0,0.0,4,0,0,0,0,0,1,1,0,0,0
160052019,17.67562,17.546532,0.0,0.03208232,0.0,1.2212015,1.0,1.0,0.0,4,0,0,0,0,0,1,1,0,0,0
160555939,17.466915,17.539427,0.0586,0.027682897,0.0,1.2246215,1.0,1.0,0.0,4,0,0,0,0,0,1,1,0,0,0
161060776,17.466915,17.53663,0.1465,0.032881256,0.0,1.2296449,1.0,1.0,0.0,4,0,0,0,0,0,1,1,0,0,0
161564804,17.466915,17.531946,0.0,0.028047213,0.0,1.2330651,1.0,1.0,0.0,4,0,0,0,0,0,1,1,0,0,0
162068757,17.67562,17.531267,0.0,0.031084806,0.0,1.2378541,1.0,1.0,0.0,4,0,0,0,0,0,1,1,0,0,0
162561559,17.48297,17.532621,0.1465,0.033682145,0.0,1.2426662,1.0,1.0,0.0,4,0,0,0,0,0,1,1,0,0,0
163065543,17.531132,17.537807,0.0,0.027283894,0.0,1.2455996,1.0,1.0,0.0,4,0,0,0,0,0,1,1,0,0,0
163569525,17.48297,17.540411,0.1172,0.031557534,0.0,1.2504913,1.0,1.0,0.0,4,0,0,0,0,0,1,1,0,0,0
164074423,17.659565,17.54123,0.0,0.03655318,0.0,1.2560695,1.0,1.0,0.0,4,0,0,0,0,0,1,1,0,0,0
164578367,17.466915,17.528463,0.0,0.031384982,0.0,1.2601763,1.0,1.0,0.0,4,0,0,0,0,0,1,1,0,0,0
165071199,17.67562,17.53809,0.0,0.025517583,0.0,1.2632998,1.0,1.0,0.0,4,0,0,0,0,0,1,1,0,0,0
165575194,17.691673,17.538763,0.0,0.02253708,0.0,1.266327,1.0,1.0,0.0,4,0,0,0,0,0,1,1,0,0,0
166079206,17.627457,17.544823,0.0293,0.047407597,0.0,1.275211,1.0,1.0,0.0,4,0,0,0,0,0,1,1,0,0,0
166584012,17.48297,17.545265,0.0,0.03777628,0.0,1.2795291,1.0,1.0,0.0,4,0,0,0,0,0,1,1,0,0,0
167087936,17.37059,17.54363,0.0,0.03326698,0.0,1.2829472,1.0,1.0,0.0,4,0,0,0,0,0,1,1,0,0,0
167580772,17.48297,17.542751,0.0,0.032747082,0.0,1.287434,1.0,1.0,0.0,4,0,0,0,0,0,1,1,0,0,0
168084790,17.531132,17.545849,0.1172,0.03574131,0.0,1.2922223,1.0,1.0,0.0,4,0,0,0,0,0,1,1,0,0,0
168588745,17.627457,17.545673,0.1172,0.03904522,0.0,1.2983794,1.0,1.0,0.0,4,0,0,0,0,0,1,1,0,0,0
169093556,17.56324,17.536156,0.1172,0.033351373,0.0,1.301997,1.0,1.0,0.0,4,0,0,0,0,0,1,1,0,0,0
169585533,17.595348,17.534262,0.0,0.0325599,0.0,1.306295,1.0,1.0,0.0,4,0,0,0,0,0,1,1,0,0,0
170090341,17.531132,17.531418,0.0,0.023630258,0.0,1.3091278,1.0,1.0,0.0,4,0,0,0,0,0,1,1,0,0,0
170594365,17.466915,17.536842,0.0,0.032116532,0.0,1.3146002,1.0,1.0,0.0,4,0,0,0,0,0,1,1,0,0,0
171098343,17.466915,17.531439,0.0879,0.028892139,0.0,1.3184109,1.0,1.0,0.0,4,0,0,0,0,0,1,1,0,0,0
171591180,17.48297,17.536444,0.0,0.025008753,0.0,1.3215054,1.0,1.0,0.0,4,0,0,0,0,0,1,1,0,0,0
172095172,17.466915,17.534721,0.0,0.031696074,0.0,1.3266784,1.0,1.0,0.0,4,0,0,0,0,0,1,1,0,0,0
172599952,17.579294,17.525,0.0,0.025918663,0.0,1.3297088,1.0,1.0,0.0,4,0,0,0,0,0,1,1,0,0,0
173091983,17.64351,17.53476,0.0,0.03558293,0.0,1.3352784,1.0,1.0,0.0,4,0,0,0,0,0,1,1,0,0,0
173596753,17.48297,17.540604,0.0,0.042329,0.0,1.3420223,1.0,1.0,0.0,4,0,0,0,0,0,1,1,0,0,0
174100826,17.579294,17.541805,0.1172,0.031058965,0.0,1.3452543,1.0,1.0,0.0,4,0,0,0,0,0,1,1,0,0,0
174592741,17.466915,17.538536,0.0,0.025932934,0.0,1.3485646,1.0,1.0,0.0,4,0,0,0,0,0,1,1,0,0,0
175097552,17.466915,17.542456,0.0,0.026289528,0.0,1.3523741,1.0,1.0,0.0,4,0,0,0,0,0,1,1,0,0,0
175601560,17.48297,17.546474,0.0,0.02666082,0.0,1.3562764,1.0,1.0,0.0,4,0,0,0,0,0,1,1,0,0,0
176094315,17.466915,17.544268,0.0,0.019636197,0.0,1.3583262,1.0,1.0,0.0,4,0,0,0,0,0,1,1,0,0,0
176598400,17.466915,17.53745,0.1172,0.025105473,0.0,1.362424,1.0,1.0,0.0,4,0,0,0,0,0,1,1,0,0,0
177102395,17.64351,17.54131,0.0,0.020953799,0.0,1.3651562,1.0,1.0,0.0,4,0,0,0,0,0,1,1,0,0,0
177595178,17.48297,17.538631,0.1172,0.02891033,0.0,1.3698413,1.0,1.0,0.0,4,0,0,0,0,0,1,1,0,0,0
178099176,17.48297,17.537506,0.0,0.029584194,0.0,1.3739457,1.0,1.0,0.0,4,0,0,0,0,0,1,1,0,0,0
178603172,17.466915,17.53414,0.0,0.02099624,0.0,1.376194,1.0,1.0,0.0,4,0,0,0,0,0,1,1,0,0,0
179095938,17.627457,17.535936,0.0879,0.03428554,0.0,1.3825518,1.0,1.0,0.0,4,0,0,0,0,0,1,1,0,0,0
179599943,17.466915,17.529448,0.0586,0.02966721,0.0,1.3858739,1.0,1.0,0.0,4,0,0,0,0,0,1,1,0,0,0
180104799,17.579294,17.535099,0.0586,0.03697587,0.0,1.3914722,1.0,1.0,0.0,4,0,0,0,0,0,1,1,0,0,0
180596803,17.499023,17.532806,0.0,0.035361286,0.0,1.396256,1.0,1.0,0.0,4,0,0,0,0,0,1,1,0,0,0
181100740,17.595348,17.528072,0.0,0.029631328,0.0,1.4000676,1.0,1.0,0.0,4,0,0,0,0,0,1,1,0,0,0
181605533,17.466915,17.533985,0.0,0.029069474,0.0,1.4044595,1.0,1.0,0.0,4,0,0,0,0,0,1,1,0,0,0
182109537,17.466915,17.530035,0.0,0.024494851,0.0,1.4074906,1.0,1.0,0.0,4,0,0,0,0,0,1,1,0,0,0
182613585,17.64351,17.528942,0.0586,0.02414297,0.0,1.410814,1.0,1.0,0.0,4,0,0,0,0,0,1,1,0,0,0
183118334,17.434807,17.528841,0.1172,0.02825666,0.0,1.415201,1.0,1.0,0.0,4,0,0,0,0,0,1,1,0,0,0
183610338,17.531132,17.525381,0.0,0.024981575,0.0,1.418135,1.0,1.0,0.0,4,0,0,0,0,0,1,1,0,0,0
184115167,17.450861,17.51846,0.0,0.025117487,0.0,1.4214644,1.0,1.0,0.0,4,0,0,0,0,0,1,1,0,0,0
184619187,17.466915,17.520205,0.0,0.034305193,0.0,1.4272248,1.0,1.0,0.0,4,0,0,0,0,0,1,1,0,0,0
185111935,17.627457,17.523745,0.0293,0.03446681,0.0,1.4324024,1.0,1.0,0.0,4,0,0,0,0,0,1,1,0,0,0
185615937,17.627457,17.523922,0.0,0.033375148,0.0,1.4368935,1.0,1.0,0.0,4,0,0,0,0,0,1,1,0,0,0
186119948,17.466915,17.518373,0.0,0.029715843,0.0,1.4404132,1.0,1.0,0.0,4,0,0,0,0,0,1,1,0,0,0
186624822,17.627457,17.519997,0.0,0.02542231,0.0,1.4434369,1.0,1.0,0.0,4,0,0,0,0,0,1,1,0,0,0
187116747,17.611403,17.53162,0.1172,0.034764174,0.0,1.4495955,1.0,1.0,0.0,4,0,0,0,0,0,1,1,0,0,0
187620760,17.466915,17.526676,0.0,0.03190015,0.0,1.4539917,1.0,1.0,0.0,4,0,0,0,0,0,1,1,0,0,0
188125611,17.659565,17.535267,0.0,0.0296349,0.0,1.4578178,1.0,1.0,0.0,4,0,0,0,0,0,1,1,0,0,0
188629517,17.611403,17.527029,0.0,0.024451647,0.0,1.4611341,1.0,1.0,0.0,4,0,0,0,0,0,1,1,0,0,0
189122335,17.659565,17.529003,0.0,0.022862965,0.0,1.4646541,1.0,1.0,0.0,4,0,0,0,0,0,1,1,0,0,0
189626331,17.466915,17.533524,0.1172,0.034733456,0.0,1.4702134,1.0,1.0,0.0,4,0,0,0,0,0,1,1,0,0,0
190130321,17.48297,17.541092,0.0,0.03002073,0.0,1.4743121,1.0,1.0,0.0,4,0,0,0,0,0,1,1,0,0,0
190623234,17.627457,17.54612,0.0,0.02977432,0.0,1.4785296,1.0,1.0,0.0,4,0,0,0,0,0,1,1,0,0,0
191127230,17.67562,17.53987,0.0,0.02517163,0.0,1.48156,1.0,1.0,0.0,4,0,0,0,0,0,1,1,0,0,0
191631932,17.466915,17.530247,0.0,0.029736847,0.0,1.4857707,1.0,1.0,0.0,4,0,0,0,0,0,1,1,0,0,0
192123928,17.499023,17.533686,0.1172,0.026859358,0.0,1.4894783,1.0,1.0,0.0,4,0,0,0,0,0,1,1,0,0,0
192628735,17.64351,17.536856,0.0,0.025052348,0.0,1.4930905,1.0,1.0,0.0,4,0,0,0,0,0,1,1,0,0,0
193132755,17.67562,17.541027,0.0,0.025746455,0.0,1.4963146,1.0,1.0,0.0,4,0,0,0,0,0,1,1,0,0,0
193624823,17.64351,17.535553,0.0879,0.03350102,0.0,1.5018891,1.0,1.0,0.0,4,0,0,0,0,0,1,1,0,0,0
194129562,17.466915,17.527058,0.0,0.026662903,0.0,1.5050237,1.0,1.0,0.0,4,0,0,0,0,0,1,1,0,0,0
194633597,17.56324,17.535715,0.0586,0.03538442,0.0,1.5111808,1.0,1.0,0.0,4,0,0,0,0,0,1,1,0,0,0
195125584,17.67562,17.53674,0.0,0.037414394,0.0,1.5168413,1.0,1.0,0.0,4,0,0,0,0,0,1,1,0,0,0
195630344,17.466915,17.529665,0.0586,0.028852351,0.0,1.5201657,1.0,1.0,0.0,4,0,0,0,0,0,1,1,0,0,0
196134393,17.56324,17.532812,0.0,0.024903808,0.0,1.5237777,1.0,1.0,0.0,4,0,0,0,0,0,1,1,0,0,0
196627232,17.466915,17.535004,0.0,0.027926568,0.0,1.5279753,1.0,1.0,0.0,4,0,0,0,0,0,1,1,0,0,0
197131213,17.659565,17.534847,0.0,0.036424365,0.0,1.5335424,1.0,1.0,0.0,4,0,0,0,0,0,1,1,0,0,0
197635194,17.466915,17.527319,0.0,0.034620274,0.0,1.5382308,1.0,1.0,0.0,4,0,0,0,0,0,1,1,0,0,0
198139972,17.595348,17.52979,0.0586,0.026196495,0.0,1.5409756,1.0,1.0,0.0,4,0,0,0,0,0,1,1,0,0,0
198643963,17.67562,17.528915,0.0,0.025147177,0.0,1.5442958,1.0,1.0,0.0,4,0,0,0,0,0,1,1,0,0,0
199136737,17.48297,17.531258,0.0293,0.021122476,0.0,1.5470245,1.0,1.0,0.0,4,0,0,0,0,0,1,1,0,0,0
199640757,17.659565,17.533558,0.1172,0.030141847,0.0,1.5519035,1.0,1.0,0.0,4,0,0,0,0,0,1,1,0,0,0
200144784,17.659565,17.53785,0.0,0.025202233,0.0,1.5547321,1.0,1.0,0.0,4,0,0,0,0,0,1,1,0,0,0
200649552,17.450861,17.53409,0.0,0.031607937,0.0,1.5597223,1.0,1.0,0.0,4,0,0,0,0,0,1,1,0,0,0
201141543,17.450861,17.526533,0.0,0.03612419,0.0,1.5649012,1.0,1.0,0.0,4,0,0,0,0,0,1,1,0,0,0
201646377,17.466915,17.526411,0.0,0.03448814,0.0,1.5698835,1.0,1.0,0.0,4,0,0,0,0,0,1,1,0,0,0
202150381,17.402699,17.526848,0.0,0.032723926,0.0,1.5743748,1.0,1.0,0.0,4,0,0,0,0,0,1,1,0,0,0
202654389,17.466915,17.531263,0.1172,0.029156744,0.0,1.5779924,1.0,1.0,0.0,4,0,0,0,0,0,1,1,0,0,0
203147235,17.466915,17.522005,0.0,0.032146867,0.0,1.5822927,1.0,1.0,0.0,4,0,0,0,0,0,1,1,0,0,0
203651231,17.659565,17.537085,0.0,0.024381816,0.0,1.5855116,1.0,1.0,0.0,4,0,0,0,0,0,1,1,0,0,0
204156089,17.466915,17.532877,0.0,0.027158823,0.0,1.5898094,1.0,1.0,0.0,4,0,0,0,0,0,1,1,0,0,0
204648013,17.466915,17.534311,0.1172,0.035557374,0.0,1.595371,1.0,1.0,0.0,4,0,0,0,0,0,1,1,0,0,0
205152843,17.547186,17.534855,0.0586,0.031267203,0.0,1.5990849,1.0,1.0,0.0,4,0,0,0,0,0,1,1,0,0,0
205656741,17.659565,17.541788,0.0,0.031549282,0.0,1.6037673,1.0,1.0,0.0,4,0,0,0,0,0,1,1,0,0,0
206148771,17.659565,17.54871,0.0,0.029520303,0.0,1.607774,1.0,1.0,0.0,4,0,0,0,0,0,1,1,0,0,0
206653582,17.466915,17.537165,0.0,0.032850355,0.0,1.6125627,1.0,1.0,0.0,4,0,0,0,0,0,1,1,0,0,0
207157562,17.466915,17.528204,0.1172,0.027280664,0.0,1.6154935,1.0,1.0,0.0,4,0,0,0,0,0,1,1,0,0,0
207649522,17.466915,17.527416,0.1172,0.036316227,0.0,1.6214447,1.0,1.0,0.0,4,0,0,0,0,0,1,1,0,0,0
208154347,17.466915,17.52996,0.1172,0.037904106,0.0,1.6273313,1.0,1.0,0.0,4,0,0,0,0,0,1,1,0,0,0
208658359,17.466915,17.529974,0.0,0.030722853,0.0,1.6310418,1.0,1.0,0.0,4,0,0,0,0,0,1,1,0,0,0
209151175,17.466915,17.526407,0.0,0.030206285,0.0,1.6347767,1.0,1.0,0.0,4,0,0,0,0,0,1,1,0,0,0
209655170,17.450861,17.528214,0.0,0.03470155,0.0,1.6397564,1.0,1.0,0.0,4,0,0,0,0,0,1,1,0,0,0
210159191,17.466915,17.528063,0.1172,0.04202346,0.0,1.6461957,1.0,1.0,0.0,4,0,0,0,0,0,1,1,0,0,0
210651912,17.515078,17.527557,0.0,0.03831008,0.0,1.6507025,1.0,1.0,0.0,4,0,0,0,0,0,1,1,0,0,0
211155924,17.37059,17.52365,0.0,0.03256084,0.0,1.6547071,1.0,1.0,0.0,4,0,0,0,0,0,1,1,0,0,0
211660795,17.627457,17.522045,0.0,0.028438857,0.0,1.6585127,1.0,1.0,0.0,4,0,0,0,0,0,1,1,0,0,0
212152796,17.466915,17.524582,0.0,0.031254284,0.0,1.6631984,1.0,1.0,0.0,4,0,0,0,0,0,1,1,0,0,0
212656738,17.579294,17.529827,0.1465,0.04100569,0.0,1.6701268,1.0,1.0,0.0,4,0,0,0,0,0,1,1,0,0,0
213161537,17.466915,17.52855,0.0,0.030166643,0.0,1.6732534,1.0,1.0,0.0,4,0,0,0,0,0,1,1,0,0,0
213665559,17.659565,17.525097,0.0,0.025942078,0.0,1.6763784,1.0,1.0,0.0,4,0,0,0,0,0,1,1,0,0,0
214170355,17.48297,17.527756,0.0,0.027620971,0.0,1.6810739,1.0,1.0,0.0,4,0,0,0,0,0,1,1,0,0,0
214662361,17.579294,17.52884,0.0586,0.03176996,0.0,1.6856636,1.0,1.0,0.0,4,0,0,0,0,0,1,1,0,0,0
215166374,17.402699,17.525106,0.0879,0.025813665,0.0,1.6886886,1.0,1.0,0.0,4,0,0,0,0,0,1,1,0,0,0
215671233,17.450861,17.522451,0.0,0.02011692,0.0,1.6913533,1.0,1.0,0.0,4,0,0,0,0,0,1,1,0,0,0
216175161,17.450861,17.528793,0.0,0.023224073,0.0,1.6950709,1.0,1.0,0.0,4,0,0,0,0,0,1,1,0,0,0
216667955,17.466915,17.526411,0.0,0.025480043,0.0,1.6991757,1.0,1.0,0.0,4,0,0,0,0,0,1,1,0,0,0
217171922,17.450861,17.528786,0.1465,0.028946968,0.0,1.703276,1.0,1.0,0.0,4,0,0,0,0,0,1,1,0,0,0
217676722,17.611403,17.528204,0.0,0.027024489,0.0,1.7072804,1.0,1.0,0.0,4,0,0,0,0,0,1,1,0,0,0
218180742,17.691673,17.53748,0.0,0.024090527,0.0,1.7103094,1.0,1.0,0.0,4,0,0,0,0,0,1,1,0,0,0
218684862,17.434807,17.532051,0.0586,0.026043667,0.0,1.7136365,1.0,1.0,0.0,4,0,0,0,0,0,1,1,0,0,0
219177558,17.659565,17.527231,0.0,0.026031107,0.0,1.7174646,1.0,1.0,0.0,4,0,0,0,0,0,1,1,0,0,0
219681552,17.611403,17.530907,0.0,0.023812016,0.0,1.7204947,1.0,1.0,0.0,4,0,0,0,0,0,1,1,0,0,0
220186346,17.466915,17.529936,0.1172,0.02703097,0.0,1.7245247,1.0,1.0,0.0,4,0,0,0,0,0,1,1,0,0,0
220690338,17.56324,17.530636,0.0,0.027331028,0.0,1.7287221,1.0,1.0,0.0,4,0,0,0,0,0,1,1,0,0,0
221194424,17.48297,17.520834,0.0586,0.029984504,0.0,1.7329266,1.0,1.0,0.0,4,0,0,0,0,0,1,1,0,0,0
221687177,17.659565,17.523539,0.0879,0.020979386,0.0,1.7348787,1.0,1.0,0.0,4,0,0,0,0,0,1,1,0,0,0
222191137,17.531132,17.531134,0.1465,0.02774656,0.0,1.7391691,1.0,1.0,0.0,4,0,0,0,0,0,1,1,0,0,0
222695938,17.466915,17.527899,0.1172,0.028094368,0.0,1.7424854,1.0,1.0,0.0,4,0,0,0,0,0,1,1,0,0,0
223199957,17.611403,17.526999,0.0,0.020836279,0.0,1.7448304,1.0,1.0,0.0,4,0,0,0,0,0,1,1,0,0,0
223692823,17.48297,17.531118,0.0293,0.03078229,0.0,1.7503345,1.0,1.0,0.0,4,0,0,0,0,0,1,1,0,0,0
224196739,17.434807,17.534441,0.0586,0.034742575,0.0,1.755507,1.0,1.0,0.0,4,0,0,0,0,0,1,1,0,0,0
224700806,17.466915,17.529491,0.0,0.02929782,0.0,1.7587261,1.0,1.0,0.0,4,0,0,0,0,0,1,1,0,0,0
225205617,17.64351,17.532427,0.0,0.029311199,0.0,1.7627333,1.0,1.0,0.0,4,0,0,0,0,0,1,1,0,0,0
225709542,17.611403,17.533495,0.1172,0.029612271,0.0,1.7668347,1.0,1.0,0.0,4,0,0,0,0,0,1,1,0,0,0
226202391,17.64351,17.526628,0.0,0.028245015,0.0,1.7703773,1.0,1.0,0.0,4,0,0,0,0,0,1,1,0,0,0
226706367,17.466915,17.527794,0.0,0.022923205,0.0,1.7730148,1.0,1.0,0.0,4,0,0,0,0,0,1,1,0,0,0
227211146,17.466915,17.524496,0.1172,0.029635113,0.0,1.7776428,1.0,1.0,0.0,4,0,0,0,0,0,1,1,0,0,0
227703252,17.515078,17.524893,0.0586,0.032241818,0.0,1.7822398,1.0,1.0,0.0,4,0,0,0,0,0,1,1,0,0,0
228207204,17.466915,17.529358,0.0586,0.03922999,0.0,1.7880014,1.0,1.0,0.0,4,0,0,0,0,0,1,1,0,0,0
228711918,17.64351,17.53274,0.0,0.03490956,0.0,1.7925941,1.0,1.0,0.0,4,0,0,0,0,0,1,1,0,0,0
229215984,17.466915,17.529306,0.0293,0.044975758,0.0,1.7992383,1.0,1.0,0.0,4,0,0,0,0,0,1,1,0,0,0
229708745,17.450861,17.525284,0.0,0.04324939,0.0,1.8048999,1.0,1.0,0.0,4,0,0,0,0,0,1,1,0,0,0
230212715,17.48297,17.532494,0.1172,0.033402547,0.0,1.8083187,1.0,1.0,0.0,4,0,0,0,0,0,1,1,0,0,0
230716794,17.434807,17.526184,0.0,0.028899932,0.0,1.8117368,1.0,1.0,0.0,4,0,0,0,0,0,1,1,0,0,0
231221546,17.531132,17.529394,0.0,0.022773301,0.0,1.8144866,1.0,1.0,0.0,4,0,0,0,0,0,1,1,0,0,0
231713588,17.627457,17.534409,0.0879,0.030568343,0.0,1.819274,1.0,1.0,0.0,4,0,0,0,0,0,1,1,0,0,0
232218340,17.434807,17.533611,0.0,0.020089468,0.0,1.8211263,1.0,1.0,0.0,4,0,0,0,0,0,1,1,0,0,0
232722386,17.450861,17.52892,0.0293,0.021539003,0.0,1.8240527,1.0,1.0,0.0,4,0,0,0,0,0,1,1,0,0,0
233214455,17.547186,17.52591,0.0,0.02339183,0.0,1.8271736,1.0,1.0,0.0,4,0,0,0,0,0,1,1,0,0,0
233719167,17.434807,17.532667,0.0,0.025323259,0.0,1.8309133,1.0,1.0,0.0,4,0,0,0,0,0,1,1,0,0,0
234223305,17.466915,17.531921,0.0,0.01906738,0.0,1.8330605,1.0,1.0,0.0,4,0,0,0,0,0,1,1,0,0,0
234715996,17.531132,17.540066,0.0879,0.022873295,0.0,1.8366038,1.0,1.0,0.0,4,0,0,0,0,0,1,1,0,0,0
235219920,17.659565,17.534445,0.0,0.029452793,0.0,1.8413832,1.0,1.0,0.0,4,0,0,0,0,0,1,1,0,0,0
235724857,17.67562,17.531944,0.0293,0.030446276,0.0,1.8454826,1.0,1.0,0.0,4,0,0,0,0,0,1,1,0,0,0
236216812,17.499023,17.535255,0.0,0.022638217,0.0,1.8480178,1.0,1.0,0.0,4,0,0,0,0,0,1,1,0,0,0
236721594,17.64351,17.544394,0.1172,0.026851643,0.0,1.8520505,1.0,1.0,0.0,4,0,0,0,0,0,1,1,0,0,0
237225562,17.611403,17.539486,0.1172,0.037082784,0.0,1.858011,1.0,1.0,0.0,4,0,0,0,0,0,1,1,0,0,0
237717584,17.659565,17.538563,0.1172,0.033708766,0.0,1.8623091,1.0,1.0,0.0,4,0,0,0,0,0,1,1,0,0,0
238222345,17.466915,17.52934,0.0,0.025803069,0.0,1.8651396,1.0,1.0,0.0,4,0,0,0,0,0,1,1,0,0,0
238726343,17.659565,17.52667,0.0,0.02138996,0.0,1.8676782,1.0,1.0,0.0,4,0,0,0,0,0,1,1,0,0,0
239219212,17.515078,17.52582,0.0,0.021174688,0.0,1.8707305,1.0,1.0,0.0,4,0,0,0,0,0,1,1,0,0,0
239723225,17.466915,17.527317,0.0,0.02604383,0.0,1.8751239,1.0,1.0,0.0,4,0,0,0,0,0,1,1,0,0,0
240227255,17.466915,17.52691,0.0,0.039199118,0.0,1.881572,1.0,1.0,0.0,4,0,0,0,0,0,1,1,0,0,0
240719954,17.48297,17.524878,0.0879,0.026883831,0.0,1.8838176,1.0,1.0,0.0,4,0,0,0,0,0,1,1,0,0,0
241224894,17.48297,17.517017,0.0,0.030501604,0.0,1.8883098,1.0,1.0,0.0,4,0,0,0,0,0,1,1,0,0,0
241728775,17.547186,17.520208,0.0586,0.02551945,0.0,1.8912382,1.0,1.0,0.0,4,0,0,0,0,0,1,1,0,0,0
242232805,17.579294,17.523218,0.0,0.025617307,0.0,1.8947517,1.0,1.0,0.0,4,0,0,0,0,0,1,1,0,0,0
242725540,17.659565,17.523584,0.0293,0.025941392,0.0,1.8984642,1.0,1.0,0.0,4,0,0,0,0,0,1,1,0,0,0
243229561,17.434807,17.518024,0.0586,0.02950743,0.0,1.9030566,1.0,1.0,0.0,4,0,0,0,0,0,1,1,0,0,0
243733598,17.466915,17.519003,0.0,0.028294757,0.0,1.9070622,1.0,1.0,0.0,4,0,0,0,0,0,1,1,0,0,0
244238344,17.434807,17.529013,0.0,0.029899243,0.0,1.911362,1.0,1.0,0.0,4,0,0,0,0,0,1,1,0,0,0
244730326,17.434807,17.526512,0.0,0.033241168,0.0,1.9163384,1.0,1.0,0.0,4,0,0,0,0,0,1,1,0,0,0
245235192,17.466915,17.522213,0.1172,0.030642608,0.0,1.9205405,1.0,1.0,0.0,4,0,0,0,0,0,1,1,0,0,0
245739224,17.466915,17.5197,0.0,0.03142744,0.0,1.9249337,1.0,1.0,0.0,4,0,0,0,0,0,1,1,0,0,0
246231934,17.547186,17.521452,0.0879,0.03290731,0.0,1.9297441,1.0,1.0,0.0,4,0,0,0,0,0,1,1,0,0,0
246735911,17.64351,17.525812,0.0,0.028229676,0.0,1.9331642,1.0,1.0,0.0,4,0,0,0,0,0,1,1,0,0,0
247240737,17.434807,17.527267,0.0,0.026576156,0.0,1.9367069,1.0,1.0,0.0,4,0,0,0,0,0,1,1,0,0,0
247732838,17.499023,17.523441,0.0,0.029878782,0.0,1.9414942,1.0,1.0,0.0,4,0,0,0,0,0,1,1,0,0,0
248236718,17.418753,17.526424,0.0,0.03613916,0.0,1.9473435,1.0,1.0,0.0,4,0,0,0,0,0,1,1,0,0,0
248741508,17.64351,17.532434,0.0,0.026926164,0.0,1.9501762,1.0,1.0,0.0,4,0,0,0,0,0,1,1,0,0,0
249233596,17.450861,17.531237,0.0,0.026492741,0.0,1.9542745,1.0,1.0,0.0,4,0,0,0,0,0,1,1,0,0,0
249738385,17.434807,17.531267,0.0586,0.020254305,0.0,1.9565192,1.0,1.0,0.0,4,0,0,0,0,0,1,1,0,0,0
250242332,17.434807,17.528234,0.1172,0.030044973,0.0,1.961497,1.0,1.0,0.0,4,0,0,0,0,0,1,1,0,0,0
250735166,17.466915,17.526756,0.0,0.017768715,0.0,1.9627671,1.0,1.0,0.0,4,0,0,0,0,0,1,1,0,0,0
251239207,17.64351,17.529234,0.0879,0.024120055,0.0,1.9667683,1.0,1.0,0.0,4,0,0,0,0,0,1,1,0,0,0
251743157,17.48297,17.5266,0.0,0.033143904,0.0,1.972426,1.0,1.0,0.0,4,0,0,0,0,0,1,1,0,0,0
252235936,17.450861,17.525496,0.1172,0.030958889,0.0,1.9760425,1.0,1.0,0.0,4,0,0,0,0,0,1,1,0,0,0
252739967,17.466915,17.524282,0.0,0.028267477,0.0,1.9796544,1.0,1.0,0.0,4,0,0,0,0,0,1,1,0,0,0
253244794,17.64351,17.522373,0.0,0.02760731,0.0,1.983456,1.0,1.0,0.0,4,0,0,0,0,0,1,1,0,0,0
253736743,17.659565,17.532532,0.0,0.026290866,0.0,1.9867728,1.0,1.0,0.0,4,0,0,0,0,0,1,1,0,0,0
254241551,17.418753,17.532574,0.1172,0.025449898,0.0,1.9899936,1.0,1.0,0.0,4,0,0,0,0,0,1,1,0,0,0
254745583,17.64351,17.529871,0.0,0.03136689,0.0,1.9948812,1.0,1.0,0.0,4,0,0,0,0,0,1,1,0,0,0
255249538,17.659565,17.530764,0.0,0.027362453,0.0,1.9981058,1.0,1.0,0.0,4,0,0,0,0,0,1,1,0,0,0
255742361,17.627457,17.523615,0.0,0.026651932,0.0,2.001426,1.0,1.0,0.0,4,0,0,0,0,0,1,1,0,0,0
256246382,17.450861,17.521307,0.0879,0.029934168,0.0,2.006116,1.0,1.0,0.0,4,0,0,0,0,0,1,1,0,0,0
256751170,17.56324,17.51904,0.0,0.0303324,0.0,2.0105567,1.0,1.0,0.0,4,0,0,0,0,0,1,1,0,0,0
257243201,17.466915,17.520088,0.1465,0.03914153,0.0,2.0166125,1.0,1.0,0.0,4,0,0,0,0,0,1,1,0,0,0
257747949,17.434807,17.518219,0.1172,0.03133287,0.0,2.0200264,1.0,1.0,0.0,4,0,0,0,0,0,1,1,0,0,0
258251936,17.627457,17.51618,0.0293,0.02943476,0.0,2.0239341,1.0,1.0,0.0,4,0,0,0,0,0,1,1,0,0,0
258756777,17.579294,17.519377,0.0,0.029996663,0.0,2.0285478,1.0,1.0,0.0,4,0,0,0,0,0,1,1,0,0,0
259248740,17.418753,17.521328,0.0586,0.01835215,0.0,2.0297182,1.0,1.0,0.0,4,0,0,0,0,0,1,1,0,0,0
259752735,17.627457,17.526043,0.0,0.023046084,0.0,2.033241,1.0,1.0,0.0,4,0,0,0,0,0,1,1,0,0,0
260257536,17.64351,17.527304,0.0,0.017709576,0.0,2.0357077,1.0,1.0,0.0,4,0,0,0,0,0,1,1,0,0,0
260761531,17.418753,17.517897,0.0,0.025469748,0.0,2.0400057,1.0,1.0,0.0,4,0,0,0,0,0,1,1,0,0,0
261266320,17.450861,17.515936,0.0879,0.029380161,0.0,2.0442996,1.0,1.0,0.0,4,0,0,0,0,0,1,1,0,0,0
261758410,17.466915,17.517685,0.0,0.021950597,0.0,2.0467427,1.0,1.0,0.0,4,0,0,0,0,0,1,1,0,0,0
262262371,17.595348,17.515652,0.0,0.027249891,0.0,2.0509424,1.0,1.0,0.0,4,0,0,0,0,0,1,1,0,0,0
262767171,17.595348,17.51975,0.0293,0.037999704,0.0,2.0573926,1.0,1.0,0.0,4,0,0,0,0,0,1,1,0,0,0
263271230,17.418753,17.528618,0.0,0.027781406,0.0,2.0600321,1.0,1.0,0.0,4,0,0,0,0,0,1,1,0,0,0
263763987,17.418753,17.520342,0.0586,0.026770744,0.0,2.0637426,1.0,1.0,0.0,4,0,0,0,0,0,1,1,0,0,0
264267949,17.48297,17.512674,0.1172,0.026463484,0.0,2.067453,1.0,1.0,0.0,4,0,0,0,0,0,1,1,0,0,0
264772817,17.531132,17.51852,0.0293,0.03368173,0.0,2.0725174,1.0,1.0,0.0,4,0,0,0,0,0,1,1,0,0,0
265276722,17.64351,17.520298,0.0,0.031639893,0.0,2.076523,1.0,1.0,0.0,4,0,0,0,0,0,1,1,0,0,0
265769581,17.67562,17.52737,0.0,0.024858909,0.0,2.0794506,1.0,1.0,0.0,4,0,0,0,0,0,1,1,0,0,0
266273584,17.466915,17.519377,0.0,0.030637018,0.0,2.0842326,1.0,1.0,0.0,4,0,0,0,0,0,1,1,0,0,0
266777547,17.466915,17.513504,0.0,0.029143896,0.0,2.0880432,1.0,1.0,0.0,4,0,0,0,0,0,1,1,0,0,0
267282385,17.595348,17.505724,0.0,0.03197376,0.0,2.0926332,1.0,1.0,0.0,4,0,0,0,0,0,1,1,0,0,0
267786400,17.56324,17.515469,0.0,0.031279728,0.0,2.0969298,1.0,1.0,0.0,4,0,0,0,0,0,1,1,0,0,0
268279170,17.64351,17.518764,0.0,0.025174463,0.0,2.0995657,1.0,1.0,0.0,4,0,0,0,0,0,1,1,0,0,0
268783233,17.434807,17.519693,0.0,0.03270394,0.0,2.1046476,1.0,1.0,0.0,4,0,0,0,0,0,1,1,0,0,0
269287970,17.56324,17.51699,0.0,0.028444214,0.0,2.10816,1.0,1.0,0.0,4,0,0,0,0,0,1,1,0,0,0
269791948,17.611403,17.52406,0.1172,0.02721013,0.0,2.111968,1.0,1.0,0.0,4,0,0,0,0,0,1,1,0,0,0
270284786,17.611403,17.512665,0.0,0.034946784,0.0,2.1171408,1.0,1.0,0.0,4,0,0,0,0,0,1,1,0,0,0
270788741,17.466915,17.506542,0.0586,0.026678836,0.0,2.119777,1.0,1.0,0.0,4,0,0,0,0,0,1,1,0,0,0
271292795,17.466915,17.521544,0.0,0.024092438,0.0,2.1230943,1.0,1.0,0.0,4,0,0,0,0,0,1,1,0,0,0
271797551,17.64351,17.520174,0.0,0.021372251,0.0,2.125919,1.0,1.0,0.0,4,0,0,0,0,0,1,1,0,0,0
272301567,17.434807,17.523485,0.0,0.026246924,0.0,2.129827,1.0,1.0,0.0,4,0,0,0,0,0,1,1,0,0,0
272794348,17.466915,17.519392,0.0,0.028218618,0.0,2.1340284,1.0,1.0,0.0,4,0,0,0,0,0,1,1,0,0,0
273298358,17.611403,17.515018,0.0,0.03154743,0.0,2.1387227,1.0,1.0,0.0,4,0,0,0,0,0,1,1,0,0,0
273802361,17.659565,17.51496,0.0,0.027828898,0.0,2.1421397,1.0,1.0,0.0,4,0,0,0,0,0,1,1,0,0,0
274307218,17.450861,17.508524,0.0,0.031903297,0.0,2.1472344,1.0,1.0,0.0,4,0,0,0,0,0,1,1,0,0,0
274799198,17.499023,17.51243,0.1172,0.038695235,0.0,2.1533866,1.0,1.0,0.0,4,0,0,0,0,0,1,1,0,0,0
275303949,17.56324,17.503729,0.0,0.032414366,0.0,2.157296,1.0,1.0,0.0,4,0,0,0,0,0,1,1,0,0,0
275807931,17.450861,17.513533,0.1465,0.03577645,0.0,2.162276,1.0,1.0,0.0,4,0,0,0,0,0,1,1,0,0,0
276312736,17.450861,17.510561,0.1172,0.034658853,0.0,2.166575,1.0,1.0,0.0,4,0,0,0,0,0,1,1,0,0,0
276804795,17.579294,17.517359,0.0,0.03318872,0.0,2.1709704,1.0,1.0,0.0,4,0,0,0,0,0,1,1,0,0,0
277308739,17.434807,17.517315,0.0879,0.03167984,0.0,2.175852,1.0,1.0,0.0,4,0,0,0,0,0,1,1,0,0,0
277813586,17.450861,17.518408,0.0879,0.025181245,0.0,2.1784887,1.0,1.0,0.0,4,0,0,0,0,0,1,1,0,0,0
278317553,17.531132,17.521833,0.0586,0.031803165,0.0,2.183566,1.0,1.0,0.0,4,0,0,0,0,0,1,1,0,0,0
278822397,17.434807,17.5138,0.0,0.033432167,0.0,2.1879728,1.0,1.0,0.0,4,0,0,0,0,0,1,1,0,0,0
279314439,17.627457,17.510647,0.0,0.027466342,0.0,2.1910975,1.0,1.0,0.0,4,0,0,0,0,0,1,1,0,0,0
279819213,17.466915,17.506336,0.0,0.033327624,0.0,2.1960049,1.0,1.0,0.0,4,0,0,0,0,0,1,1,0,0,0
280323155,17.48297,17.503996,0.0293,0.028746203,0.0,2.1997213,1.0,1.0,0.0,4,0,0,0,0,0,1,1,0,0,0
280827233,17.434807,17.504421,0.1172,0.037902895,0.0,2.205977,1.0,1.0,0.0,4,0,0,0,0,0,1,1,0,0,0
281319944,17.611403,17.509619,0.0,0.030140968,0.0,2.2094922,1.0,1.0,0.0,4,0,0,0,0,0,1,1,0,0,0
281823915,17.659565,17.515436,0.1172,0.03895758,0.0,2.215639,1.0,1.0,0.0,4,0,0,0,0,0,1,1,0,0,0
282328731,17.659565,17.516409,0.0586,0.026532948,0.0,2.2185938,1.0,1.0,0.0,4,0,0,0,0,0,1,1,0,0,0
282820771,17.595348,17.517248,0.1465,0.023914887,0.0,2.221627,1.0,1.0,0.0,4,0,0,0,0,0,1,1,0,0,0
283324845,17.466915,17.520542,0.1172,0.030521419,0.0,2.226521,1.0,1.0,0.0,4,0,0,0,0,0,1,1,0,0,0
283829535,17.499023,17.517662,0.0,0.024575299,0.0,2.2295735,1.0,1.0,0.0,4,0,0,0,0,0,1,1,0,0,0
284321517,17.450861,17.511301,0.0,0.024308687,0.0,2.2333803,1.0,1.0,0.0,4,0,0,0,0,0,1,1,0,0,0
284826309,17.48297,17.507463,0.0,0.022417706,0.0,2.2363083,1.0,1.0,0.0,4,0,0,0,0,0,1,1,0,0,0
285330343,17.418753,17.51026,0.0586,0.026963992,0.0,2.24041,1.0,1.0,0.0,4,0,0,0,0,0,1,1,0,0,0
285823221,17.627457,17.514826,0.0,0.023099305,0.0,2.2436361,1.0,1.0,0.0,4,0,0,0,0,0,1,1,0,0,0
286327163,17.402699,17.51899,0.0,0.029853031,0.0,2.2485092,1.0,1.0,0.0,4,0,0,0,0,0,1,1,0,0,0
286831234,17.499023,17.52015,0.0,0.033256873,0.0,2.2532911,1.0,1.0,0.0,4,0,0,0,0,0,1,1,0,0,0
287323968,17.466915,17.52326,0.0586,0.02987796,0.0,2.257219,1.0,1.0,0.0,4,0,0,0,0,0,1,1,0,0,0
287827944,17.627457,17.517813,0.0,0.02687325,0.0,2.2609336,1.0,1.0,0.0,4,0,0,0,0,0,1,1,0,0,0
288332742,17.434807,17.514126,0.1465,0.044107534,0.0,2.268871,1.0,1.0,0.0,4,0,0,0,0,0,1,1,0,0,0
288824867,17.434807,17.507994,0.0,0.04265633,0.0,2.2745311,1.0,1.0,0.0,4,0,0,0,0,0,1,1,0,0,0
289329563,17.515078,17.499954,0.0,0.030748265,0.0,2.278239,1.0,1.0,0.0,4,0,0,0,0,0,1,1,0,0,0
289833560,17.515078,17.504005,0.0,0.030516766,0.0,2.2824376,1.0,1.0,0.0,4,0,0,0,0,0,1,1,0,0,0
290325548,17.595348,17.51154,0.1172,0.031191777,0.0,2.286437,1.0,1.0,0.0,4,0,0,0,0,0,1,1,0,0,0
290830375,17.659565,17.50475,0.0293,0.025737228,0.0,2.289759,1.0,1.0,0.0,4,0,0,0,0,0,1,1,0,0,0
291334390,17.466915,17.510263,0.0879,0.024364466,0.0,2.2929792,1.0,1.0,0.0,4,0,0,0,0,0,1,1,0,0,0
291827193,17.434807,17.507479,0.0,0.03253484,0.0,2.2985487,1.0,1.0,0.0,4,0,0,0,0,0,1,1,0,0,0
292331249,17.434807,17.509583,0.0,0.030267451,0.0,2.3024561,1.0,1.0,0.0,4,0,0,0,0,0,1,1,0,0,0
292835167,17.64351,17.517893,0.0586,0.026281064,0.0,2.3062696,1.0,1.0,0.0,4,0,0,0,0,0,1,1,0,0,0
293339965,17.466915,17.511793,0.0,0.029866263,0.0,2.310783,1.0,1.0,0.0,4,0,0,0,0,0,1,1,0,0,0
293843920,17.64351,17.509851,0.0,0.0338023,0.0,2.315958,1.0,1.0,0.0,4,0,0,0,0,0,1,1,0,0,0
294336738,17.499023,17.509346,0.0,0.018459091,0.0,2.3169472,1.0,1.0,0.0,4,0,0,0,0,0,1,1,0,0,0
294840736,17.64351,17.518637,0.0,0.02583739,0.0,2.321833,1.0,1.0,0.0,4,0,0,0,0,0,1,1,0,0,0
295345561,17.450861,17.52282,0.0,0.028798794,0.0,2.3263266,1.0,1.0,0.0,4,0,0,0,0,0,1,1,0,0,0
295849518,17.659565,17.523674,0.0,0.032270007,0.0,2.3309207,1.0,1.0,0.0,4,0,0,0,0,0,1,1,0,0,0
296341516,17.466915,17.514656,0.0,0.03747779,0.0,2.3364904,1.0,1.0,0.0,4,0,0,0,0,0,1,1,0,0,0
296846314,17.595348,17.51298,0.0293,0.035960786,0.0,2.3415606,1.0,1.0,0.0,4,0,0,0,0,0,1,1,0,0,0
297350360,17.434807,17.505062,0.0879,0.030216621,0.0,2.3453681,1.0,1.0,0.0,4,0,0,0,0,0,1,1,0,0,0
297842344,17.466915,17.507713,0.0,0.024927173,0.0,2.3484898,1.0,1.0,0.0,4,0,0,0,0,0,1,1,0,0,0
298347181,17.466915,17.509531,0.0,0.022478862,0.0,2.351251,1.0,1.0,0.0,4,0,0,0,0,0,1,1,0,0,0
298851232,17.547186,17.507767,0.0,0.027624425,0.0,2.355449,1.0,1.0,0.0,4,0,0,0,0,0,1,1,0,0,0
299343920,17.627457,17.50899,0.0,0.022471692,0.0,2.3579123,1.0,1.0,0.0,4,0,0,0,0,0,1,1,0,0,0
299847938,17.434807,17.509745,0.1172,0.032410614,0.0,2.3632839,1.0,1.0,0.0,4,0,0,0,0,0,1,1,0,0,0
300352808,17.434807,17.504238,0.0,0.03355946,0.0,2.368288,1.0,1.0,0.0,4,0,0,0,0,0,1,1,0,0,0
300844797,17.434807,17.507568,0.0586,0.023433633,0.0,2.3707235,1.0,1.0,0.0,4,0,0,0,0,0,1,1,0,0,0
301348748,17.627457,17.513351,0.0,0.0272418,0.0,2.3751132,1.0,1.0,0.0,4,0,0,0,0,0,1,1,0,0,0
301853592,17.418753,17.51354,0.1172,0.02962577,0.0,2.3794153,1.0,1.0,0.0,4,0,0,0,0,0,1,1,0,0,0
302345572,17.434807,17.503336,0.1172,0.023487888,0.0,2.3821502,1.0,1.0,0.0,4,0,0,0,0,0,1,1,0,0,0
302850393,17.691673,17.501045,0.0,0.023528831,0.0,2.3853753,1.0,1.0,0.0,4,0,0,0,0,0,1,1,0,0,0
303354467,17.450861,17.504717,0.0879,0.031898636,0.0,2.3904562,1.0,1.0,0.0,4,0,0,0,0,0,1,1,0,0,0
303846333,17.434807,17.501247,0.0,0.027265707,0.0,2.393771,1.0,1.0,0.0,4,0,0,0,0,0,1,1,0,0,0
304351170,17.466915,17.499357,0.0586,0.029806985,0.0,2.3977745,1.0,1.0,0.0,4,0,0,0,0,0,1,1,0,0,0
304855179,17.354536,17.499378,0.0,0.029242458,0.0,2.4017737,1.0,1.0,0.0,4,0,0,0,0,0,1,1,0,0,0
305347954,17.627457,17.50372,0.0,0.026348218,0.0,2.4053905,1.0,1.0,0.0,4,0,0,0,0,0,1,1,0,0,0
305851938,17.450861,17.507229,0.1172,0.028470788,0.0,2.409984,1.0,1.0,0.0,4,0,0,0,0,0,1,1,0,0,0
306356804,17.466915,17.50252,0.0,0.020340085,0.0,2.4120355,1.0,1.0,0.0,4,0,0,0,0,0,1,1,0,0,0
306848738,17.434807,17.50319,0.1172,0.025374092,0.0,2.4160442,1.0,1.0,0.0,4,0,0,0,0,0,1,1,0,0,0
307352808,17.466915,17.50632,0.0,0.019331902,0.0,2.4181943,1.0,1.0,0.0,4,0,0,0,0,0,1,1,0,0,0
307856729,17.627457,17.508139,0.0,0.020468442,0.0,2.4212239,1.0,1.0,0.0,4,0,0,0,0,0,1,1,0,0,0
308361559,17.64351,17.50468,0.0,0.02729622,0.0,2.425719,1.0,1.0,0.0,4,0,0,0,0,0,1,1,0,0,0
308853574,17.64351,17.50789,0.0,0.035223674,0.0,2.4308918,1.0,1.0,0.0,4,0,0,0,0,0,1,1,0,0,0
309358341,17.547186,17.508715,0.0,0.03725968,0.0,2.4361603,1.0,1.0,0.0,4,0,0,0,0,0,1,1,0,0,0
309862341,17.64351,17.504742,0.0,0.030162863,0.0,2.4394822,1.0,1.0,0.0,4,0,0,0,0,0,1,1,0,0,0
310355167,17.450861,17.500929,0.0,0.03286606,0.0,2.444389,1.0,1.0,0.0,4,0,0,0,0,0,1,1,0,0,0
310859186,17.627457,17.503016,0.0,0.019404056,0.0,2.4460518,1.0,1.0,0.0,4,0,0,0,0,0,1,1,0,0,0
311363209,17.466915,17.502888,0.0,0.022934705,0.0,2.450347,1.0,1.0,0.0,4,0,0,0,0,0,1,1,0,0,0
311855940,17.67562,17.510092,0.0586,0.020012183,0.0,2.4527893,1.0,1.0,0.0,4,0,0,0,0,0,1,1,0,0,0
312359992,17.434807,17.50543,0.0,0.019084096,0.0,2.4556253,1.0,1.0,0.0,4,0,0,0,0,0,1,1,0,0,0
312864818,17.64351,17.504847,0.1172,0.021878129,0.0,2.45875,1.0,1.0,0.0,4,0,0,0,0,0,1,1,0,0,0
313356738,17.466915,17.504892,0.0586,0.027853858,0.0,2.4634426,1.0,1.0,0.0,4,0,0,0,0,0,1,1,0,0,0
313860742,17.434807,17.506096,0.0,0.029011235,0.0,2.4676445,1.0,1.0,0.0,4,0,0,0,0,0,1,1,0,0,0
314365594,17.48297,17.510757,0.0,0.024381852,0.0,2.4707713,1.0,1.0,0.0,4,0,0,0,0,0,1,1,0,0,0
314857530,17.418753,17.507467,0.0,0.029023016,0.0,2.4753623,1.0,1.0,0.0,4,0,0,0,0,0,1,1,0,0,0
315361544,17.595348,17.502098,0.1465,0.029171659,0.0,2.478975,1.0,1.0,0.0,4,0,0,0,0,0,1,1,0,0,0
315866361,17.434807,17.498466,0.0586,0.029928625,0.0,2.4834664,1.0,1.0,0.0,4,0,0,0,0,0,1,1,0,0,0
316358344,17.64351,17.495852,0.1172,0.028617935,0.0,2.4868834,1.0,1.0,0.0,4,0,0,0,0,0,1,1,0,0,0
316863231,17.418753,17.502386,0.1172,0.03473821,0.0,2.4924622,1.0,1.0,0.0,4,0,0,0,0,0,1,1,0,0,0
317367192,17.547186,17.507818,0.0,0.03162578,0.0,2.4964678,1.0,1.0,0.0,4,0,0,0,0,0,1,1,0,0,0
317871182,17.418753,17.504194,0.0,0.031202402,0.0,2.5007622,1.0,1.0,0.0,4,0,0,0,0,0,1,1,0,0,0
318363943,17.450861,17.502321,0.0,0.028509391,0.0,2.50448,1.0,1.0,0.0,4,0,0,0,0,0,1,1,0,0,0
318867933,17.531132,17.500399,0.0293,0.02282152,0.0,2.5071197,1.0,1.0,0.0,4,0,0,0,0,0,1,1,0,0,0
319372751,17.434807,17.49749,0.0,0.019857882,0.0,2.5096524,1.0,1.0,0.0,4,0,0,0,0,0,1,1,0,0,0
319876738,17.64351,17.506536,0.0586,0.016681606,0.0,2.5117023,1.0,1.0,0.0,4,0,0,0,0,0,1,1,0,0,0
