timestamp,vel_pos_innov[0],vel_pos_innov[1],vel_pos_innov[2],vel_pos_innov[3],vel_pos_innov[4],vel_pos_innov[5],mag_innov[0],mag_innov[1],mag_innov[2],heading_innov,airspeed_innov,beta_innov,flow_innov[0],flow_innov[1],hagl_innov,vel_pos_innov_var[0],vel_pos_innov_var[1],vel_pos_innov_var[2],vel_pos_innov_var[3],vel_pos_innov_var[4],vel_pos_innov_var[5],mag_innov_var[0],mag_innov_var[1],mag_innov_var[2],heading_innov_var,airspeed_innov_var,beta_innov_var,flow_innov_var[0],flow_innov_var[1],hagl_innov_var,output_tracking_error[0],output_tracking_error[1],output_tracking_error[2],drag_innov[0],drag_innov[1],drag_innov_var[0],drag_innov_var[1],aux_vel_innov[0],aux_vel_innov[1]
58269589,0.00024819263,-0.0140289925,-0.06074875,-0.0002451014,0.00013037262,0.19537354,0.0,0.0,0.0,0.008489117,0.0,0.0,0.0,0.0,0.0,0.0052036033,0.0052036466,0.0043437113,0.0009900196,0.0009900196,4.065549,0.0,0.0,0.0,0.09152481,0.0,0.0,0.0,0.0,0.0,0.005994709,0.040290456,0.075944744,0.0,0.0,0.0,0.0,0.0,0.0
58273561,0.00024819263,-0.0140289925,-0.06074875,-0.0002451014,0.00013037262,0.19537354,0.0,0.0,0.0,0.008489117,0.0,0.0,0.0,0.0,0.0,0.0052036033,0.0052036466,0.0043437113,0.0009900196,0.0009900196,4.065549,0.0,0.0,0.0,0.09152481,0.0,0.0,0.0,0.0,0.0,0.005994709,0.040290456,0.075944744,0.0,0.0,0.0,0.0,0.0,0.0
58478349,-0.0073041543,0.0029602784,-0.036422208,-0.0005574428,-1.2386037e-05,0.013061523,0.0,0.0,0.0,0.009261802,0.0,0.0,0.0,0.0,0.0,0.0037861788,0.0037862323,0.0047492334,0.0009918202,0.0009918204,4.054523,0.0,0.0,0.0,0.09146265,0.0,0.0,0.0,0.0,0.0,0.001726434,0.039351217,0.08135512,0.0,0.0,0.0,0.0,0.0,0.0
58682372,-0.019326268,-0.0027769597,0.22862533,-0.00063787174,-5.4843113e-05,-0.1237793,0.0,0.0,0.0,0.0054394454,0.0,0.0,0.0,0.0,0.0,0.0030897623,0.0030897935,0.0050329724,0.0009901035,0.0009901036,4.0471797,0.0,0.0,0.0,0.0914036,0.0,0.0,0.0,0.0,0.0,0.0060002645,0.019002553,0.06567804,0.0,0.0,0.0,0.0,0.0,0.0
58882397,-0.032459423,-0.03437321,0.020984102,-0.0006579165,0.00026587455,-0.21087646,0.0,0.0,0.0,0.029783145,0.0,0.0,0.0,0.0,0.0,0.0026864975,0.0026865066,0.0051081562,0.0009884269,0.0009884269,4.0412335,0.0,0.0,0.0,0.091355,0.0,0.0,0.0,0.0,0.0,0.006790614,0.024306972,0.009965659,0.0,0.0,0.0,0.0,0.0,0.0
59086393,-0.020242026,0.008202898,-0.038597785,-0.0007669559,8.3525374e-05,-0.083618164,0.0,0.0,0.0,0.020526156,0.0,0.0,0.0,0.0,0.0,0.0025883797,0.0025883575,0.005175068,0.0009858775,0.0009858774,4.036661,0.0,0.0,0.0,0.09130991,0.0,0.0,0.0,0.0,0.0,0.0054943496,0.032394715,0.050138764,0.0,0.0,0.0,0.0,0.0,0.0
59290390,-0.041493177,-0.0076235877,-0.0688694,-0.00035081274,0.0001001879,-0.076538086,0.0,0.0,0.0,0.010445371,0.0,0.0,0.0,0.0,0.0,0.002527843,0.0025278202,0.0051793465,0.0009836203,0.0009836202,4.0331054,0.0,0.0,0.0,0.09126781,0.0,0.0,0.0,0.0,0.0,0.0040900526,0.046525437,0.08296235,0.0,0.0,0.0,0.0,0.0,0.0
59494420,0.018857386,0.04440175,0.081954494,-0.0009385281,-0.00038000793,0.28173828,0.0,0.0,0.0,0.027564615,0.0,0.0,0.0,0.0,0.0,0.0024719278,0.0024719175,0.0050959927,0.0009863655,0.0009863654,4.030371,0.0,0.0,0.0,0.09122525,0.0,0.0,0.0,0.0,0.0,0.004656195,0.018557929,0.03456152,0.0,0.0,0.0,0.0,0.0,0.0
59695204,-0.033907034,-0.0056767687,-0.0048896093,-0.00078739796,-0.00040746812,-0.07006836,0.0,0.0,0.0,-0.0023296028,0.0,0.0,0.0,0.0,0.0,0.0024301107,0.0024301212,0.0050795954,0.0009853451,0.0009853451,4.0280976,0.0,0.0,0.0,0.09119561,0.0,0.0,0.0,0.0,0.0,0.0034738323,0.022267118,0.037057016,0.0,0.0,0.0,0.0,0.0,0.0
59899269,-0.025613235,-0.026844278,0.053651698,-0.00048975216,-0.00027196636,0.25811768,0.0,0.0,0.0,0.006341234,0.0,0.0,0.0,0.0,0.0,0.0024224836,0.0024225125,0.0050511546,0.0009840266,0.000984027,4.026209,0.0,0.0,0.0,0.09116037,0.0,0.0,0.0,0.0,0.0,0.002299133,0.016774958,0.022122994,0.0,0.0,0.0,0.0,0.0,0.0
60103286,-0.0075111985,-0.009912649,-0.024199538,-0.00043318956,-0.0002402128,-0.07513428,0.0,0.0,0.0,-0.0024861693,0.0,0.0,0.0,0.0,0.0,0.0023796654,0.0023797136,0.004988056,0.0009834473,0.0009834479,4.024557,0.0,0.0,0.0,0.09112473,0.0,0.0,0.0,0.0,0.0,0.0014905657,0.021707967,0.041212376,0.0,0.0,0.0,0.0,0.0,0.0
60303201,-0.01562938,-0.028493103,-2.9228087e-05,-0.0002820948,-2.1165644e-05,-0.20477295,0.0,0.0,0.0,-0.0028368086,0.0,0.0,0.0,0.0,0.0,0.0023686525,0.002368704,0.0049540387,0.0009832436,0.0009832445,4.0232134,0.0,0.0,0.0,0.09109379,0.0,0.0,0.0,0.0,0.0,0.001600869,0.022147767,0.040882103,0.0,0.0,0.0,0.0,0.0,0.0
60507230,-0.009385549,-0.018634368,-0.02343207,-0.0001439423,0.00023486576,0.023376465,0.0,0.0,0.0,-0.0024688095,0.0,0.0,0.0,0.0,0.0,0.00234093,0.0023409817,0.0049134633,0.0009832139,0.0009832149,4.022052,0.0,0.0,0.0,0.09106467,0.0,0.0,0.0,0.0,0.0,0.001358129,0.022954646,0.040420674,0.0,0.0,0.0,0.0,0.0,0.0
60711236,-0.034797184,0.008369395,0.010393691,0.00024529512,0.00018324656,0.06555176,0.0,0.0,0.0,-0.0018892586,0.0,0.0,0.0,0.0,0.0,0.002352125,0.0023521658,0.004915005,0.0009825769,0.0009825779,4.021026,0.0,0.0,0.0,0.09103708,0.0,0.0,0.0,0.0,0.0,0.00120617,0.01682867,0.032120157,0.0,0.0,0.0,0.0,0.0,0.0
60911989,0.01973117,0.0071552717,0.06506387,0.00015826686,0.00010009357,-0.17956543,0.0,0.0,0.0,0.0073414147,0.0,0.0,0.0,0.0,0.0,0.0023578794,0.0023579157,0.004914254,0.0009822204,0.0009822216,4.020115,0.0,0.0,0.0,0.091010936,0.0,0.0,0.0,0.0,0.0,0.0007679955,0.00458369,0.0126039395,0.0,0.0,0.0,0.0,0.0,0.0
61111979,-0.013664729,0.014108056,-0.0059808325,0.00043540343,4.142232e-06,0.1706543,0.0,0.0,0.0,-0.00070272386,0.0,0.0,0.0,0.0,0.0,0.002329121,0.0023291581,0.0048870333,0.0009820121,0.0009820131,4.0193105,0.0,0.0,0.0,0.09099403,0.0,0.0,0.0,0.0,0.0,0.00072016945,0.0106410235,0.018760627,0.0,0.0,0.0,0.0,0.0,0.0
61316002,0.005127182,-0.010187683,0.022688579,0.00048844947,0.00010264074,-0.105651855,0.0,0.0,0.0,-0.0017057955,0.0,0.0,0.0,0.0,0.0,0.0023394455,0.0023394988,0.004898688,0.0009813142,0.0009813152,4.01865,0.0,0.0,0.0,0.09097474,0.0,0.0,0.0,0.0,0.0,0.00025729457,0.008925603,0.016460903,0.0,0.0,0.0,0.0,0.0,0.0
61519961,-0.013262309,-0.016787438,-0.027905649,0.00066475105,0.00024907617,0.24505615,0.0,0.0,0.0,0.00789541,0.0,0.0,0.0,0.0,0.0,0.0022945357,0.002294585,0.004864504,0.0009817458,0.0009817469,4.0180926,0.0,0.0,0.0,0.09095346,0.0,0.0,0.0,0.0,0.0,0.0005169957,0.014259615,0.021439333,0.0,0.0,0.0,0.0,0.0,0.0
61720020,0.05532366,0.008449529,-0.11518839,0.00033249857,0.00020370737,-0.2520752,0.0,0.0,0.0,-0.00046642125,0.0,0.0,0.0,0.0,0.0,0.0023132437,0.002313312,0.004888188,0.0009814808,0.0009814823,4.0175214,0.0,0.0,0.0,0.09093495,0.0,0.0,0.0,0.0,0.0,0.001496949,0.033307858,0.043504614,0.0,0.0,0.0,0.0,0.0,0.0
61920782,0.029864877,0.006041078,-0.036151387,0.00014081923,5.7488185e-05,0.111083984,0.0,0.0,0.0,-0.00025334954,0.0,0.0,0.0,0.0,0.0,0.0023226268,0.0023226743,0.004904141,0.0009812736,0.0009812749,4.017003,0.0,0.0,0.0,0.09092156,0.0,0.0,0.0,0.0,0.0,0.0013816257,0.028444257,0.038038515,0.0,0.0,0.0,0.0,0.0,0.0
62124873,0.0023437238,-0.0050369995,-0.076918624,8.279277e-05,0.00023030798,0.04296875,0.0,0.0,0.0,8.778274e-05,0.0,0.0,0.0,0.0,0.0,0.002280912,0.0022809443,0.00487323,0.0009818434,0.0009818444,4.016528,0.0,0.0,0.0,0.090901785,0.0,0.0,0.0,0.0,0.0,0.00059821544,0.026476309,0.03506641,0.0,0.0,0.0,0.0,0.0,0.0
62328816,0.002350245,0.0069644917,0.13283846,7.127915e-05,0.00012996834,-0.34051514,0.0,0.0,0.0,4.8428774e-06,0.0,0.0,0.0,0.0,0.0,0.0023005002,0.002300523,0.0048980988,0.0009845163,0.0009845172,4.0161047,0.0,0.0,0.0,0.09088067,0.0,0.0,0.0,0.0,0.0,0.00069039746,0.009978363,0.0070352615,0.0,0.0,0.0,0.0,0.0,0.0
62528739,-0.00679803,0.0042479434,0.035757817,0.00027553842,4.652061e-05,-0.0010986328,0.0,0.0,0.0,0.00019875169,0.0,0.0,0.0,0.0,0.0,0.0022913525,0.0022913772,0.0048999265,0.0009843336,0.0009843344,4.015667,0.0,0.0,0.0,0.09086053,0.0,0.0,0.0,0.0,0.0,0.00066591793,0.007191297,0.0051499614,0.0,0.0,0.0,0.0,0.0,0.0
62732806,0.026888091,0.0016671587,-0.046150833,-5.4726494e-05,5.258771e-06,-0.16687012,0.0,0.0,0.0,0.00017820299,0.0,0.0,0.0,0.0,0.0,0.0022713488,0.0022713798,0.004887537,0.000984547,0.0009845478,4.01528,0.0,0.0,0.0,0.090851076,0.0,0.0,0.0,0.0,0.0,0.00060125365,0.009530583,0.009620867,0.0,0.0,0.0,0.0,0.0,0.0
62936777,-0.011914901,0.0009666621,0.10426019,8.192961e-05,2.4951587e-05,-0.046081543,0.0,0.0,0.0,0.00033324957,0.0,0.0,0.0,0.0,0.0,0.0022723062,0.0022723458,0.0048964494,0.0009846496,0.0009846508,4.0149455,0.0,0.0,0.0,0.09083196,0.0,0.0,0.0,0.0,0.0,0.00051033264,0.009471249,0.0051764296,0.0,0.0,0.0,0.0,0.0,0.0
63141571,-0.037045497,-0.020023674,-0.036790475,0.0004593482,3.9834005e-05,0.07183838,0.0,0.0,0.0,9.766221e-05,0.0,0.0,0.0,0.0,0.0,0.0022852288,0.002285281,0.004918107,0.0009842153,0.0009842168,4.0146604,0.0,0.0,0.0,0.09081372,0.0,0.0,0.0,0.0,0.0,0.0007849633,0.007518989,0.0055058408,0.0,0.0,0.0,0.0,0.0,0.0
63341569,0.0451697,0.025296845,-0.05950472,3.9127888e-05,-0.00012477196,-0.18579102,0.0,0.0,0.0,-0.008468956,0.0,0.0,0.0,0.0,0.0,0.0022615881,0.00226165,0.004902671,0.0009846629,0.0009846648,4.014345,0.0,0.0,0.0,0.09079818,0.0,0.0,0.0,0.0,0.0,0.0006477221,0.0148232,0.013961748,0.0,0.0,0.0,0.0,0.0,0.0
63545580,-0.007821282,-0.0042003966,-0.014169659,0.00011204777,-7.104702e-05,0.24829102,0.0,0.0,0.0,0.00091060996,0.0,0.0,0.0,0.0,0.0,0.0022637579,0.002263827,0.004910683,0.0009846049,0.0009846071,4.014084,0.0,0.0,0.0,0.09078153,0.0,0.0,0.0,0.0,0.0,0.00021349608,0.009749139,0.00989609,0.0,0.0,0.0,0.0,0.0,0.0
63749575,-0.014044506,0.037110366,0.12743783,0.00030542538,-0.00044813452,-0.1385498,0.0,0.0,0.0,0.0014080852,0.0,0.0,0.0,0.0,0.0,0.002274892,0.0022749675,0.00493035,0.000984118,0.0009841203,4.013804,0.0,0.0,0.0,0.090765595,0.0,0.0,0.0,0.0,0.0,0.00080064347,0.013915644,0.009408567,0.0,0.0,0.0,0.0,0.0,0.0
63953596,0.031298235,-0.014793448,-0.13047321,7.308542e-05,-0.0003057926,-0.11730957,0.0,0.0,0.0,0.0014057755,0.0,0.0,0.0,0.0,0.0,0.0022677998,0.0022678617,0.0048975614,0.0009843522,0.0009843544,4.01353,0.0,0.0,0.0,0.09075195,0.0,0.0,0.0,0.0,0.0,0.0004839501,0.014439766,0.012570177,0.0,0.0,0.0,0.0,0.0,0.0
64153657,-0.01727741,-0.010578407,-0.016697522,0.00030972727,-0.00036017573,-0.16149902,0.0,0.0,0.0,0.0014286488,0.0,0.0,0.0,0.0,0.0,0.00225665,0.002256689,0.0049239653,0.0009841089,0.0009841106,4.013285,0.0,0.0,0.0,0.09073719,0.0,0.0,0.0,0.0,0.0,0.00031940872,0.010141256,0.013186754,0.0,0.0,0.0,0.0,0.0,0.0
64358404,0.018331172,-0.008605959,-0.022575216,0.00012678734,-0.0002664814,-0.46520996,0.0,0.0,0.0,-0.008092463,0.0,0.0,0.0,0.0,0.0,0.0022656335,0.0022656436,0.004941387,0.0009839184,0.0009839194,4.013083,0.0,0.0,0.0,0.09072457,0.0,0.0,0.0,0.0,0.0,0.00042585353,0.00964132,0.013596427,0.0,0.0,0.0,0.0,0.0,0.0
64562396,0.033270944,0.0128027275,0.0033104531,-0.00013598951,-0.00034909748,0.012390137,0.0,0.0,0.0,0.0012132823,0.0,0.0,0.0,0.0,0.0,0.0022752637,0.0022752457,0.004954596,0.0009863807,0.0009863805,4.012851,0.0,0.0,0.0,0.09071095,0.0,0.0,0.0,0.0,0.0,0.0007776136,0.00731249,0.006405266,0.0,0.0,0.0,0.0,0.0,0.0
64762403,-0.0057905833,-0.011780459,0.011544814,-0.0001424422,-0.00015310681,-0.036132812,0.0,0.0,0.0,0.001240179,0.0,0.0,0.0,0.0,0.0,0.0022364422,0.0022364047,0.004914878,0.0009866431,0.000986642,4.012633,0.0,0.0,0.0,0.09069787,0.0,0.0,0.0,0.0,0.0,0.00043383584,0.00325754,0.003723653,0.0,0.0,0.0,0.0,0.0,0.0
64966375,0.026203755,-0.017260522,-0.032620616,-0.00025491684,-4.1127612e-05,-0.16308594,0.0,0.0,0.0,0.008780658,0.0,0.0,0.0,0.0,0.0,0.0022411984,0.0022411488,0.0049224077,0.0009868158,0.000986814,4.012465,0.0,0.0,0.0,0.09068528,0.0,0.0,0.0,0.0,0.0,0.00057983166,0.007192602,0.0068203066,0.0,0.0,0.0,0.0,0.0,0.0
65170603,-0.006796906,-0.0003220493,0.06477827,0.0005877189,0.0003653171,0.03387451,0.0,0.0,0.0,0.0005901605,0.0,0.0,0.0,0.0,0.0,0.0022503156,0.0022502516,0.004910473,0.0009683733,0.0009683726,4.012114,0.0,0.0,0.0,0.09067217,0.0,0.0,0.0,0.0,0.0,0.00051905104,0.020245655,0.012320005,0.0,0.0,0.0,0.0,0.0,0.0
65371218,-0.004180859,-0.009398891,-0.055061124,-0.0040298104,-0.004254205,-0.23400879,0.0,0.0,0.0,0.0007967204,0.0,0.0,0.0,0.0,0.0,0.0022400557,0.0022399905,0.00493762,0.0009816573,0.000981655,4.0121098,0.0,0.0,0.0,0.090660594,0.0,0.0,0.0,0.0,0.0,0.0004971406,0.0090199,0.0048853145,0.0,0.0,0.0,0.0,0.0,0.0
65575221,-0.004180859,-0.009398891,-0.055061124,-7.648417e-05,0.00013082425,-0.013244629,0.0,0.0,0.0,0.00066670775,0.0,0.0,0.0,0.0,0.0,0.0022400557,0.0022399905,0.00493762,0.0009872922,0.0009872892,4.011948,0.0,0.0,0.0,0.09064944,0.0,0.0,0.0,0.0,0.0,0.0003923619,0.0054416014,0.0030013307,0.0,0.0,0.0,0.0,0.0,0.0
65779273,-0.001635279,0.0033954117,-0.100923285,2.143113e-05,0.00014666293,-0.12060547,0.0,0.0,0.0,0.00057032704,0.0,0.0,0.0,0.0,0.0,0.0022540065,0.0022539352,0.004956701,0.0009865655,0.0009865626,4.011779,0.0,0.0,0.0,0.0906387,0.0,0.0,0.0,0.0,0.0,0.00040705208,0.01537873,0.016585326,0.0,0.0,0.0,0.0,0.0,0.0
65983210,-0.011981621,0.003485435,0.0116984295,-0.0006855423,-0.0015575085,-0.1161499,0.0,0.0,0.0,0.0007800013,0.0,0.0,0.0,0.0,0.0,0.002222914,0.0022228449,0.0049262443,0.0009808732,0.0009808706,4.0116377,0.0,0.0,0.0,0.09062832,0.0,0.0,0.0,0.0,0.0,0.0005713812,0.009422904,0.010887671,0.0,0.0,0.0,0.0,0.0,0.0
66183200,0.01402531,-0.007105806,0.00039923814,0.0025314202,-0.0011769151,0.14770508,0.0,0.0,0.0,0.00072823465,0.0,0.0,0.0,0.0,0.0,0.0022285793,0.0022285234,0.0049336622,0.00098118,0.0009811773,4.011499,0.0,0.0,0.0,0.09061829,0.0,0.0,0.0,0.0,0.0,0.00033779998,0.001078458,0.0052370997,0.0,0.0,0.0,0.0,0.0,0.0
66387243,0.011702394,0.0058459183,-0.058447737,0.0035047124,0.0004544016,-0.28985596,0.0,0.0,0.0,0.0005977899,0.0,0.0,0.0,0.0,0.0,0.0022428753,0.002242836,0.0049545695,0.0009839535,0.0009839509,4.0113673,0.0,0.0,0.0,0.09060861,0.0,0.0,0.0,0.0,0.0,0.00044709502,0.015243145,0.010778432,0.0,0.0,0.0,0.0,0.0,0.0
66592026,0.011702394,0.0058459183,-0.058447737,0.0002758681,0.00018866052,-0.09741211,0.0,0.0,0.0,0.009809375,0.0,0.0,0.0,0.0,0.0,0.0022428753,0.002242836,0.0049545695,0.0009861877,0.0009861856,4.0112286,0.0,0.0,0.0,0.09060033,0.0,0.0,0.0,0.0,0.0,0.00051045755,0.006101342,0.005629451,0.0,0.0,0.0,0.0,0.0,0.0
66791969,0.0063366285,0.015101686,-0.031696003,0.014609961,0.0012661256,0.046691895,0.0,0.0,0.0,0.0019737482,0.0,0.0,0.0,0.0,0.0,0.0022076806,0.0022076778,0.0049174903,0.0009798903,0.0009798892,4.0109487,0.0,0.0,0.0,0.09059405,0.0,0.0,0.0,0.0,0.0,0.00068510574,0.018311538,0.015471765,0.0,0.0,0.0,0.0,0.0,0.0
66995968,0.0063366285,0.015101686,-0.031696003,0.00018019322,-4.423113e-06,0.13000488,0.0,0.0,0.0,0.011363402,0.0,0.0,0.0,0.0,0.0,0.0022076806,0.0022076778,0.0049174903,0.0009854112,0.0009854106,4.0110016,0.0,0.0,0.0,0.09059079,0.0,0.0,0.0,0.0,0.0,0.00045217652,0.0076770056,0.010932126,0.0,0.0,0.0,0.0,0.0,0.0
67199968,0.0011195987,0.000113474205,-0.10972228,-0.00019774644,3.6990998e-05,-0.07287598,0.0,0.0,0.0,0.011083841,0.0,0.0,0.0,0.0,0.0,0.0022124723,0.0022125014,0.004922239,0.0009689998,0.00096899975,4.010907,0.0,0.0,0.0,0.09058162,0.0,0.0,0.0,0.0,0.0,0.0004441516,0.027244195,0.0147862835,0.0,0.0,0.0,0.0,0.0,0.0
67403970,0.0011195987,0.000113474205,-0.10972228,0.00027906033,0.00031445635,-0.28460693,0.0,0.0,0.0,0.010889843,0.0,0.0,0.0,0.0,0.0,0.0022124723,0.0022125014,0.004922239,0.000986984,0.000986985,4.010818,0.0,0.0,0.0,0.090573736,0.0,0.0,0.0,0.0,0.0,0.0005094279,0.012398739,0.011299358,0.0,0.0,0.0,0.0,0.0,0.0
67604855,0.02201308,-0.012886607,0.047577478,0.00031541765,0.00024583435,-0.064453125,0.0,0.0,0.0,0.008931369,0.0,0.0,0.0,0.0,0.0,0.002202672,0.0022027,0.004878274,0.00096883543,0.0009688359,4.010584,0.0,0.0,0.0,0.09056604,0.0,0.0,0.0,0.0,0.0,0.0007256749,0.01468838,0.006901804,0.0,0.0,0.0,0.0,0.0,0.0
67808757,-0.013783179,0.020668322,0.054978527,0.0007384119,-0.0018412778,-0.047058105,0.0,0.0,0.0,0.010779738,0.0,0.0,0.0,0.0,0.0,0.0022185752,0.002218596,0.0049243164,0.00096973433,0.000969735,4.0104947,0.0,0.0,0.0,0.090557665,0.0,0.0,0.0,0.0,0.0,0.00056601135,0.020334292,0.014653391,0.0,0.0,0.0,0.0,0.0,0.0
68012837,-0.0010089511,0.014382614,0.0091060735,-0.0002526039,-0.0014713282,-0.009399414,0.0,0.0,0.0,0.0018234849,0.0,0.0,0.0,0.0,0.0,0.0022326177,0.0022326345,0.0049522687,0.0009717025,0.0009717031,4.0104218,0.0,0.0,0.0,0.09055041,0.0,0.0,0.0,0.0,0.0,0.00056270586,0.012670639,0.010632197,0.0,0.0,0.0,0.0,0.0,0.0
68212878,0.009239319,-0.010367897,-0.014467172,-0.0011789205,0.00039336918,-0.05609131,0.0,0.0,0.0,0.0016192049,0.0,0.0,0.0,0.0,0.0,0.0022143298,0.0022143456,0.004937858,0.0009718214,0.0009718219,4.010329,0.0,0.0,0.0,0.090544015,0.0,0.0,0.0,0.0,0.0,0.00036588384,0.002922945,0.0047014025,0.0,0.0,0.0,0.0,0.0,0.0
68416796,0.0059895255,-0.028312774,-0.03190197,-0.0010820999,0.0018180299,0.118652344,0.0,0.0,0.0,0.0012570322,0.0,0.0,0.0,0.0,0.0,0.0022420217,0.0022420425,0.004977134,0.00097155885,0.00097155926,4.010254,0.0,0.0,0.0,0.09053626,0.0,0.0,0.0,0.0,0.0,0.0005928479,0.011311555,0.00397537,0.0,0.0,0.0,0.0,0.0,0.0
68620865,0.0038151722,0.009727763,-0.13388571,-0.0008634697,-0.0011082651,-0.034851074,0.0,0.0,0.0,0.0012627095,0.0,0.0,0.0,0.0,0.0,0.0022089307,0.0022089456,0.0049373438,0.0009698531,0.0009698535,4.010173,0.0,0.0,0.0,0.09052814,0.0,0.0,0.0,0.0,0.0,0.00040650857,0.03529926,0.024053488,0.0,0.0,0.0,0.0,0.0,0.0
68821574,0.02287637,0.03684627,0.033804417,-0.002362539,-0.003203132,-0.3463745,0.0,0.0,0.0,0.010937527,0.0,0.0,0.0,0.0,0.0,0.002240719,0.002240723,0.00497721,0.0009698189,0.00096981926,4.0100856,0.0,0.0,0.0,0.09052231,0.0,0.0,0.0,0.0,0.0,0.0007247782,0.014234357,0.0110909995,0.0,0.0,0.0,0.0,0.0,0.0
69021567,-0.0046948288,0.004772801,0.07617968,-0.0002150021,-0.0009004009,-0.089782715,0.0,0.0,0.0,0.010848403,0.0,0.0,0.0,0.0,0.0,0.0022202684,0.002220256,0.0049552894,0.0009697815,0.0009697817,4.010007,0.0,0.0,0.0,0.09051679,0.0,0.0,0.0,0.0,0.0,0.0007360982,0.01684682,0.0056271926,0.0,0.0,0.0,0.0,0.0,0.0
69225585,-0.014437224,-0.017176092,0.04539033,0.00055707945,0.0008642181,-0.2738037,0.0,0.0,0.0,0.01049009,0.0,0.0,0.0,0.0,0.0,0.0022075768,0.0022075507,0.0049405126,0.00096982927,0.0009698293,4.009947,0.0,0.0,0.0,0.090512685,0.0,0.0,0.0,0.0,0.0,0.00044566477,0.018554818,0.010602984,0.0,0.0,0.0,0.0,0.0,0.0
69429572,-0.020914478,-0.013428366,-0.1283991,6.0908496e-07,-8.767238e-06,-0.20843506,0.0,0.0,0.0,-0.00021405518,0.0,0.0,0.0,0.0,0.0,0.002226035,0.0022259904,0.0049640182,0.0009722014,0.000972201,4.009893,0.0,0.0,0.0,0.09050857,0.0,0.0,0.0,0.0,0.0,0.00053210516,0.023134617,0.012661812,0.0,0.0,0.0,0.0,0.0,0.0
69633562,-0.0056288126,-0.00021302089,0.08889073,0.00014565384,1.153184e-05,0.1595459,0.0,0.0,0.0,0.010516569,0.0,0.0,0.0,0.0,0.0,0.0022085425,0.0022085044,0.0049463096,0.0009722561,0.0009722554,4.0098286,0.0,0.0,0.0,0.09050164,0.0,0.0,0.0,0.0,0.0,0.00041472045,0.011055279,0.0047750887,0.0,0.0,0.0,0.0,0.0,0.0
69833602,-0.03439276,-0.00069849973,-0.07650035,0.0002778701,7.26257e-06,0.054382324,0.0,0.0,0.0,0.0013897121,0.0,0.0,0.0,0.0,0.0,0.0022362869,0.0022362745,0.0049841474,0.0009719282,0.0009719274,4.0097694,0.0,0.0,0.0,0.09049495,0.0,0.0,0.0,0.0,0.0,0.0004979282,0.01699037,0.009120778,0.0,0.0,0.0,0.0,0.0,0.0
70038378,-0.0053249253,-0.031446088,-0.0437276,0.00029951602,1.5682774e-05,-0.5470581,0.0,0.0,0.0,0.0011525154,0.0,0.0,0.0,0.0,0.0,0.0022039611,0.0022039828,0.0049427613,0.000971979,0.0009719785,4.0097203,0.0,0.0,0.0,0.090491116,0.0,0.0,0.0,0.0,0.0,0.00046235864,0.017654825,0.013663959,0.0,0.0,0.0,0.0,0.0,0.0
70242446,0.0066390876,-0.012948625,-0.06912455,0.000580585,0.0003303617,-0.17578125,0.0,0.0,0.0,0.00085675716,0.0,0.0,0.0,0.0,0.0,0.0022366075,0.0022366638,0.004983932,0.0009721677,0.0009721678,4.009656,0.0,0.0,0.0,0.09048724,0.0,0.0,0.0,0.0,0.0,0.00042101726,0.022958158,0.018961867,0.0,0.0,0.0,0.0,0.0,0.0
70442397,-0.005829431,-0.0092432955,0.003250584,0.0006172311,0.00043965192,0.09429932,0.0,0.0,0.0,0.0023600757,0.0,0.0,0.0,0.0,0.0,0.002202287,0.0022023518,0.0049428176,0.00097225193,0.0009722527,4.009591,0.0,0.0,0.0,0.09048084,0.0,0.0,0.0,0.0,0.0,0.00044785222,0.008538741,0.008876669,0.0,0.0,0.0,0.0,0.0,0.0
70646370,-0.0047903694,0.0029056482,-0.034002773,0.0007594478,0.00049417594,0.11175537,0.0,0.0,0.0,0.009861022,0.0,0.0,0.0,0.0,0.0,0.002221216,0.0022212875,0.0049664867,0.00097233156,0.0009723328,4.0095377,0.0,0.0,0.0,0.09047464,0.0,0.0,0.0,0.0,0.0,0.00048596313,0.008327422,0.007377659,0.0,0.0,0.0,0.0,0.0,0.0
70850433,0.0061602555,0.0010718629,-0.010339808,0.00060929905,0.0004477547,0.123535156,0.0,0.0,0.0,0.0005287975,0.0,0.0,0.0,0.0,0.0,0.0022060806,0.0022061442,0.004948925,0.000972531,0.00097253255,4.00949,0.0,0.0,0.0,0.09047047,0.0,0.0,0.0,0.0,0.0,0.00050399837,0.0051943287,0.0026203825,0.0,0.0,0.0,0.0,0.0,0.0
71054419,-0.0062315203,0.010328485,0.006899167,0.00044585054,0.00038539115,0.13452148,0.0,0.0,0.0,0.000763759,0.0,0.0,0.0,0.0,0.0,0.002221529,0.0022215866,0.0049709575,0.00097234093,0.0009723425,4.0094543,0.0,0.0,0.0,0.0904669,0.0,0.0,0.0,0.0,0.0,0.000353738,0.0058994605,0.0051342836,0.0,0.0,0.0,0.0,0.0,0.0
71255241,0.014109018,0.026833963,0.05944649,0.00046471832,8.855821e-05,0.13806152,0.0,0.0,0.0,0.010210544,0.0,0.0,0.0,0.0,0.0,0.0022040913,0.002204134,0.0049521257,0.0009724006,0.00097240217,4.009409,0.0,0.0,0.0,0.09046099,0.0,0.0,0.0,0.0,0.0,0.0006303324,0.019373091,0.014940011,0.0,0.0,0.0,0.0,0.0,0.0
71459267,0.007408587,-0.0012492384,0.056485634,0.00024594145,-6.113645e-05,0.18530273,0.0,0.0,0.0,-0.00080776215,0.0,0.0,0.0,0.0,0.0,0.0022221634,0.0022221901,0.004974896,0.0009725325,0.0009725338,4.009356,0.0,0.0,0.0,0.09045525,0.0,0.0,0.0,0.0,0.0,0.0006435852,0.022711754,0.019633703,0.0,0.0,0.0,0.0,0.0,0.0
71663212,-0.008414103,0.017611744,0.22344148,6.696326e-05,-0.0002560239,-0.2467041,0.0,0.0,0.0,0.0006105304,0.0,0.0,0.0,0.0,0.0,0.002192739,0.0021927482,0.0049384497,0.000975276,0.00097527704,4.009304,0.0,0.0,0.0,0.09044968,0.0,0.0,0.0,0.0,0.0,0.00062862167,0.053323496,0.043997485,0.0,0.0,0.0,0.0,0.0,0.0
71863201,-0.037013873,-0.039188087,-0.10991438,0.00019661908,4.0660758e-05,0.16552734,0.0,0.0,0.0,-0.0015685111,0.0,0.0,0.0,0.0,0.0,0.0022244402,0.0022244328,0.0049811937,0.0009747773,0.0009747778,4.0092545,0.0,0.0,0.0,0.09044429,0.0,0.0,0.0,0.0,0.0,0.0006265716,0.007680447,0.013686096,0.0,0.0,0.0,0.0,0.0,0.0
72067226,0.010665003,0.0021133295,0.010584853,0.00010546774,-2.5601446e-05,-0.31640625,0.0,0.0,0.0,-0.0014872402,0.0,0.0,0.0,0.0,0.0,0.0021920162,0.0021920088,0.004942798,0.00097504247,0.00097504264,4.009207,0.0,0.0,0.0,0.090439044,0.0,0.0,0.0,0.0,0.0,0.00038448305,0.0026802465,0.006331393,0.0,0.0,0.0,0.0,0.0,0.0
72271327,0.004652621,-0.008520887,-0.08404728,9.940844e-05,2.4137029e-05,-0.29675293,0.0,0.0,0.0,0.008740172,0.0,0.0,0.0,0.0,0.0,0.002223272,0.0022232754,0.004984474,0.00097479566,0.00097479566,4.0091734,0.0,0.0,0.0,0.090433516,0.0,0.0,0.0,0.0,0.0,0.0004626534,0.018759377,0.011573441,0.0,0.0,0.0,0.0,0.0,0.0
72475986,0.01025357,0.0032267745,0.0010197274,-0.00015376101,9.648444e-06,0.10699463,0.0,0.0,0.0,0.0073149204,0.0,0.0,0.0,0.0,0.0,0.0021916593,0.0021916719,0.0049449503,0.00097540446,0.00097540463,4.009131,0.0,0.0,0.0,0.09042804,0.0,0.0,0.0,0.0,0.0,0.0005906097,0.010096469,0.009864298,0.0,0.0,0.0,0.0,0.0,0.0
72675972,-0.0058212588,0.02197568,0.19294496,-0.00015932205,-0.00021278622,-0.012207031,0.0,0.0,0.0,-0.0019470751,0.0,0.0,0.0,0.0,0.0,0.0022242395,0.0022242605,0.0049877097,0.0009751382,0.0009751385,4.009087,0.0,0.0,0.0,0.090426676,0.0,0.0,0.0,0.0,0.0,0.000651864,0.034834348,0.021944273,0.0,0.0,0.0,0.0,0.0,0.0
72879963,-0.016096326,-0.005408942,-0.01338963,-0.00014709623,-0.00017088218,-0.40911865,0.0,0.0,0.0,-0.0021862388,0.0,0.0,0.0,0.0,0.0,0.0022042736,0.0022042939,0.004963227,0.00097510614,0.00097510667,4.0090685,0.0,0.0,0.0,0.09042286,0.0,0.0,0.0,0.0,0.0,0.00042870824,0.011431633,0.011250576,0.0,0.0,0.0,0.0,0.0,0.0
73083967,-0.014344158,-0.014566711,-0.07205728,-6.622553e-05,-1.2380333e-05,0.171875,0.0,0.0,0.0,-0.0006273687,0.0,0.0,0.0,0.0,0.0,0.0022181189,0.00221814,0.004981004,0.00097456615,0.0009745667,4.009049,0.0,0.0,0.0,0.0904181,0.0,0.0,0.0,0.0,0.0,0.00030074958,0.012065715,0.0037969023,0.0,0.0,0.0,0.0,0.0,0.0
73284826,0.0074045747,0.009679067,0.047347378,-0.0001858105,-0.000125363,0.030822754,0.0,0.0,0.0,-0.0021554977,0.0,0.0,0.0,0.0,0.0,0.0022007842,0.0022007998,0.0049594077,0.00097475754,0.0009747581,4.009019,0.0,0.0,0.0,0.09041485,0.0,0.0,0.0,0.0,0.0,0.00012882239,0.0020772696,0.0020166964,0.0,0.0,0.0,0.0,0.0,0.0
73488745,-0.024732063,-0.06424137,-0.006959729,-7.82205e-05,0.0003851915,-0.05834961,0.0,0.0,0.0,-0.0027466267,0.0,0.0,0.0,0.0,0.0,0.0022188323,0.0022188318,0.0049807774,0.00097483647,0.0009748369,4.009002,0.0,0.0,0.0,0.090409875,0.0,0.0,0.0,0.0,0.0,0.0009232709,0.013416425,0.0057861255,0.0,0.0,0.0,0.0,0.0,0.0
73692756,-0.01783891,0.034304254,-0.10664865,0.0003074956,0.00010973733,-0.04046631,0.0,0.0,0.0,-0.0021448284,0.0,0.0,0.0,0.0,0.0,0.0022018827,0.0022018673,0.004959421,0.0009749241,0.00097492425,4.0089965,0.0,0.0,0.0,0.090406284,0.0,0.0,0.0,0.0,0.0,0.00039534213,0.02299402,0.016848547,0.0,0.0,0.0,0.0,0.0,0.0
73896798,0.0064939684,-0.02562052,-0.036612354,0.00017695909,0.0003269924,-0.2518921,0.0,0.0,0.0,-0.0020903945,0.0,0.0,0.0,0.0,0.0,0.0022165568,0.0022165256,0.00497929,0.0009772894,0.0009772889,4.008974,0.0,0.0,0.0,0.09040153,0.0,0.0,0.0,0.0,0.0,0.00015199832,0.017410176,0.015752364,0.0,0.0,0.0,0.0,0.0,0.0
74096821,0.014138573,0.010969017,-0.07548389,-5.744153e-05,0.00021475526,0.12005615,0.0,0.0,0.0,-0.002046585,0.0,0.0,0.0,0.0,0.0,0.0022004312,0.0022003907,0.0049587786,0.000977406,0.0009774052,4.0089355,0.0,0.0,0.0,0.09039811,0.0,0.0,0.0,0.0,0.0,0.00033256563,0.020854084,0.019326355,0.0,0.0,0.0,0.0,0.0,0.0
74300807,-0.0009503424,0.017554948,0.049044948,-5.1229144e-05,2.2090127e-05,-0.36108398,0.0,0.0,0.0,-0.0016478896,0.0,0.0,0.0,0.0,0.0,0.002190819,0.0021907778,0.0049467757,0.0009778037,0.0009778024,4.008913,0.0,0.0,0.0,0.090394385,0.0,0.0,0.0,0.0,0.0,0.00035456166,0.0046262117,0.0063318876,0.0,0.0,0.0,0.0,0.0,0.0
74504852,-0.0010513735,-0.00812805,0.04752163,-0.00015839573,3.6609898e-05,0.2947998,0.0,0.0,0.0,-0.0016383529,0.0,0.0,0.0,0.0,0.0,0.0022079572,0.0022079241,0.004972207,0.0009778161,0.0009778148,4.0088997,0.0,0.0,0.0,0.09039116,0.0,0.0,0.0,0.0,0.0,9.7454846e-05,0.00969855,0.0063163447,0.0,0.0,0.0,0.0,0.0,0.0
74705624,-0.0020270585,-0.0063776495,-0.0054688957,-9.719911e-05,0.000114545255,0.19781494,0.0,0.0,0.0,-0.0016890168,0.0,0.0,0.0,0.0,0.0,0.0021931457,0.0021931382,0.0049553355,0.0009780381,0.0009780371,4.008879,0.0,0.0,0.0,0.09038711,0.0,0.0,0.0,0.0,0.0,0.00012737846,0.004108578,0.005145556,0.0,0.0,0.0,0.0,0.0,0.0
74905609,-0.04281763,-0.02528512,-0.0030981917,0.00035659707,0.00036172025,-0.0881958,0.0,0.0,0.0,-0.003468737,0.0,0.0,0.0,0.0,0.0,0.002210034,0.0022100639,0.004979342,0.0009782148,0.0009782147,4.0088687,0.0,0.0,0.0,0.09038318,0.0,0.0,0.0,0.0,0.0,0.0006312856,0.008567762,0.00520726,0.0,0.0,0.0,0.0,0.0,0.0
75109555,0.008737808,-0.02967389,-0.021421066,0.00026027387,0.0006990681,-0.38580322,0.0,0.0,0.0,-0.0021455437,0.0,0.0,0.0,0.0,0.0,0.002193896,0.0021939524,0.0049597425,0.0009785569,0.0009785579,4.0088496,0.0,0.0,0.0,0.090379335,0.0,0.0,0.0,0.0,0.0,0.0005274964,0.00685936,0.0035704486,0.0,0.0,0.0,0.0,0.0,0.0
75313645,-0.03454682,-0.00992609,-0.09383075,0.00041944633,0.0006211654,0.03503418,0.0,0.0,0.0,-0.0020982027,0.0,0.0,0.0,0.0,0.0,0.0022214015,0.0022214903,0.004996716,0.000978013,0.0009780148,4.008831,0.0,0.0,0.0,0.09037558,0.0,0.0,0.0,0.0,0.0,0.0003796779,0.017969592,0.01096558,0.0,0.0,0.0,0.0,0.0,0.0
75513669,-0.03579053,0.021200879,0.046748105,0.0006623501,0.0004039365,-0.3139038,0.0,0.0,0.0,-0.0015178025,0.0,0.0,0.0,0.0,0.0,0.0022005585,0.0022006524,0.0049701063,0.0009777052,0.0009777078,4.0088024,0.0,0.0,0.0,0.09037233,0.0,0.0,0.0,0.0,0.0,0.00056864315,0.008711391,0.00439211,0.0,0.0,0.0,0.0,0.0,0.0
75713605,0.023674509,0.014472055,0.056276895,0.0005662246,0.0003770796,0.034362793,0.0,0.0,0.0,0.00033688545,0.0,0.0,0.0,0.0,0.0,0.0022136578,0.0022137505,0.0049866308,0.0009774794,0.0009774823,4.008774,0.0,0.0,0.0,0.09036874,0.0,0.0,0.0,0.0,0.0,0.00042102765,0.013751939,0.01125358,0.0,0.0,0.0,0.0,0.0,0.0
75918355,-0.004161665,-0.010059466,0.022236459,0.00040739804,0.00036130784,0.12561035,0.0,0.0,0.0,-0.0010911971,0.0,0.0,0.0,0.0,0.0,0.0021985732,0.0021986496,0.0049642203,0.0009757905,0.00097579334,4.0087485,0.0,0.0,0.0,0.09036524,0.0,0.0,0.0,0.0,0.0,0.00022185307,0.01029798,0.010820532,0.0,0.0,0.0,0.0,0.0,0.0
76122406,0.026070178,0.00096153654,0.057405964,0.00014508364,0.0002554533,0.1204834,0.0,0.0,0.0,-0.0010737777,0.0,0.0,0.0,0.0,0.0,0.0021927604,0.0021928218,0.0049524833,0.0009783207,0.0009783236,4.008723,0.0,0.0,0.0,0.09036181,0.0,0.0,0.0,0.0,0.0,0.00048424798,0.01526062,0.01461589,0.0,0.0,0.0,0.0,0.0,0.0
76322381,0.007889903,0.009056012,-0.0093977265,0.00015682343,0.00010281577,0.038208008,0.0,0.0,0.0,0.0036714524,0.0,0.0,0.0,0.0,0.0,0.0022197189,0.0022197731,0.0049927398,0.0009778818,0.0009778842,4.008698,0.0,0.0,0.0,0.09035885,0.0,0.0,0.0,0.0,0.0,0.00044305902,0.008228132,0.00903115,0.0,0.0,0.0,0.0,0.0,0.0
76522445,-0.005577831,0.0035570285,-0.07744725,8.5627136e-05,2.0763313e-05,-0.029785156,0.0,0.0,0.0,-0.0015574396,0.0,0.0,0.0,0.0,0.0,0.0022000694,0.002200113,0.0049683093,0.0009757757,0.0009757776,4.008674,0.0,0.0,0.0,0.09035695,0.0,0.0,0.0,0.0,0.0,0.00025918498,0.01242397,0.0070945458,0.0,0.0,0.0,0.0,0.0,0.0
76727213,0.0032392447,-0.02028603,-0.1154871,-1.2873672e-05,0.00012657468,0.17437744,0.0,0.0,0.0,-0.0007227361,0.0,0.0,0.0,0.0,0.0,0.002215338,0.0022153761,0.0049861306,0.0009783478,0.0009783496,4.0086575,0.0,0.0,0.0,0.090354666,0.0,0.0,0.0,0.0,0.0,0.00018930236,0.024695186,0.017914915,0.0,0.0,0.0,0.0,0.0,0.0
76931336,-0.00025278993,0.014842631,0.04964058,-7.267669e-05,-8.767823e-05,0.09088135,0.0,0.0,0.0,-0.00040142238,0.0,0.0,0.0,0.0,0.0,0.002200751,0.002200783,0.004964613,0.0009788402,0.0009788417,4.008648,0.0,0.0,0.0,0.09035142,0.0,0.0,0.0,0.0,0.0,0.00018205693,0.0029517761,0.004327438,0.0,0.0,0.0,0.0,0.0,0.0
77131267,-0.022370629,-0.022767927,0.14805609,5.623541e-05,2.918538e-05,0.15911865,0.0,0.0,0.0,-0.00077715516,0.0,0.0,0.0,0.0,0.0,0.0021933722,0.0021933995,0.0049532983,0.0009792292,0.0009792306,4.008657,0.0,0.0,0.0,0.090348236,0.0,0.0,0.0,0.0,0.0,0.00027523062,0.023407754,0.017433485,0.0,0.0,0.0,0.0,0.0,0.0
77335214,-0.047341563,-0.0075848764,0.13694605,0.00028797606,5.6893477e-05,0.39379883,0.0,0.0,0.0,0.009757057,0.0,0.0,0.0,0.0,0.0,0.002221739,0.002221767,0.004994066,0.0009785314,0.0009785326,4.0086346,0.0,0.0,0.0,0.09034512,0.0,0.0,0.0,0.0,0.0,0.0006539952,0.03381495,0.031323947,0.0,0.0,0.0,0.0,0.0,0.0
77539255,0.014398452,0.0021702019,-0.0050901035,0.00030175206,-2.5938614e-05,-0.04699707,0.0,0.0,0.0,-0.0006918758,0.0,0.0,0.0,0.0,0.0,0.0022008694,0.0022008931,0.00496942,0.0009783382,0.0009783392,4.0086193,0.0,0.0,0.0,0.09034183,0.0,0.0,0.0,0.0,0.0,0.00010674527,0.011239196,0.017018275,0.0,0.0,0.0,0.0,0.0,0.0
77743169,-0.001124003,-0.00029568418,-0.05663365,0.00016613479,-2.6588736e-05,0.13598633,0.0,0.0,0.0,-0.00048083067,0.0,0.0,0.0,0.0,0.0,0.002190107,0.0021901303,0.0049548177,0.0009787562,0.0009787573,4.008611,0.0,0.0,0.0,0.090339445,0.0,0.0,0.0,0.0,0.0,0.00021499222,0.006002254,0.0009322526,0.0,0.0,0.0,0.0,0.0,0.0
77944000,0.0071534477,-0.0021348158,0.007460882,6.856839e-05,-0.000108659995,0.045776367,0.0,0.0,0.0,-0.0022600442,0.0,0.0,0.0,0.0,0.0,0.0022076676,0.0022076906,0.0049788244,0.0009785976,0.0009785985,4.0085907,0.0,0.0,0.0,0.09033652,0.0,0.0,0.0,0.0,0.0,0.00027929383,0.004496407,0.0022229077,0.0,0.0,0.0,0.0,0.0,0.0
78147969,-0.036715865,-0.01334144,-0.07772804,0.0003490867,-7.482825e-05,-0.07537842,0.0,0.0,0.0,-0.00055556,0.0,0.0,0.0,0.0,0.0,0.0021924356,0.002192447,0.0049606957,0.0009813108,0.0009813115,4.008592,0.0,0.0,0.0,0.09033342,0.0,0.0,0.0,0.0,0.0,0.00030472255,0.014990472,0.010815818,0.0,0.0,0.0,0.0,0.0,0.0
78352029,0.021788534,-0.021711193,0.05298564,7.439632e-05,5.18382e-05,-0.13220215,0.0,0.0,0.0,-0.0007185936,0.0,0.0,0.0,0.0,0.0,0.0022198106,0.0022198115,0.0050007766,0.0009784336,0.0009784341,4.0085654,0.0,0.0,0.0,0.090331174,0.0,0.0,0.0,0.0,0.0,0.0004000601,0.0047751567,0.0025230786,0.0,0.0,0.0,0.0,0.0,0.0
78551988,-0.026048116,-0.017572468,-0.024335625,4.344131e-05,8.0138794e-05,0.30841064,0.0,0.0,0.0,-0.0007689744,0.0,0.0,0.0,0.0,0.0,0.0022007553,0.0022007485,0.004973844,0.00097831,0.00097831,4.0085597,0.0,0.0,0.0,0.09032873,0.0,0.0,0.0,0.0,0.0,0.00030137022,0.005800347,0.0039430205,0.0,0.0,0.0,0.0,0.0,0.0
78756034,0.00929995,0.0057373843,-0.06891158,0.00013623759,8.417532e-05,0.26135254,0.0,0.0,0.0,-0.00035250187,0.0,0.0,0.0,0.0,0.0,0.0022138925,0.0022138741,0.00499048,0.0009783232,0.0009783228,4.008554,0.0,0.0,0.0,0.09032718,0.0,0.0,0.0,0.0,0.0,0.000176035,0.013011746,0.0093607865,0.0,0.0,0.0,0.0,0.0,0.0
78960834,0.0050421557,0.0016594902,0.011386041,7.3080882e-06,-1.7625978e-05,0.05859375,0.0,0.0,0.0,-0.001962915,0.0,0.0,0.0,0.0,0.0,0.0021993832,0.002199357,0.004967832,0.0009784271,0.0009784264,4.0085473,0.0,0.0,0.0,0.09032446,0.0,0.0,0.0,0.0,0.0,0.00026404098,0.004989784,0.006334407,0.0,0.0,0.0,0.0,0.0,0.0
79160776,-0.048539866,-0.019941255,-0.061726443,0.000333986,0.00010393112,-0.015991211,0.0,0.0,0.0,-0.0003759265,0.0,0.0,0.0,0.0,0.0,0.0021898753,0.0021898488,0.0049543492,0.000979215,0.0009792141,4.008574,0.0,0.0,0.0,0.09032211,0.0,0.0,0.0,0.0,0.0,0.00040169293,0.011433192,0.009737904,0.0,0.0,0.0,0.0,0.0,0.0
79364838,0.002642801,0.0047451966,0.04684919,0.0003606645,4.7327572e-05,0.06854248,0.0,0.0,0.0,-0.00031870604,0.0,0.0,0.0,0.0,0.0,0.0022213978,0.0022213757,0.0049973708,0.0009840347,0.0009840337,4.0085683,0.0,0.0,0.0,0.09031979,0.0,0.0,0.0,0.0,0.0,7.265226e-05,0.0033619136,0.00089446036,0.0,0.0,0.0,0.0,0.0,0.0
79568770,0.010201568,0.00129747,-0.01639988,0.00015229837,-4.9571536e-05,0.33642578,0.0,0.0,0.0,-0.0002001226,0.0,0.0,0.0,0.0,0.0,0.0022012,0.0022011893,0.0049721613,0.0009815596,0.0009815589,4.0085635,0.0,0.0,0.0,0.09031752,0.0,0.0,0.0,0.0,0.0,0.0003131237,0.003167322,0.0013120106,0.0,0.0,0.0,0.0,0.0,0.0
79772795,0.06544002,0.00884601,0.16891503,-0.0005719119,-0.00016633427,0.040161133,0.0,0.0,0.0,-0.00018192828,0.0,0.0,0.0,0.0,0.0,0.002191897,0.0021918935,0.004957008,0.0009845372,0.0009845367,4.0085645,0.0,0.0,0.0,0.09031498,0.0,0.0,0.0,0.0,0.0,0.00092642714,0.02454798,0.020400187,0.0,0.0,0.0,0.0,0.0,0.0
79972773,-0.049657628,-0.025059668,0.004798528,0.01118505,0.0102456305,0.2454834,0.0,0.0,0.0,-0.00022156537,0.0,0.0,0.0,0.0,0.0,0.002193118,0.002193103,0.0049629686,0.0009795085,0.0009795079,4.008578,0.0,0.0,0.0,0.09031277,0.0,0.0,0.0,0.0,0.0,0.00064211385,0.019704692,0.015847463,0.0,0.0,0.0,0.0,0.0,0.0
80172815,-0.049657628,-0.025059668,0.004798528,0.00010824419,-2.5999092e-05,-0.025512695,0.0,0.0,0.0,-0.0018744469,0.0,0.0,0.0,0.0,0.0,0.002193118,0.002193103,0.0049629686,0.0009846138,0.0009846132,4.0085526,0.0,0.0,0.0,0.09031081,0.0,0.0,0.0,0.0,0.0,0.0006864273,0.008696164,0.0073494003,0.0,0.0,0.0,0.0,0.0,0.0
80377616,-0.027093269,-0.019965956,-0.12035416,0.000321507,0.00014603848,0.122924805,0.0,0.0,0.0,-0.00025562942,0.0,0.0,0.0,0.0,0.0,0.002220315,0.002220299,0.0050011924,0.0009840504,0.0009840498,4.0085607,0.0,0.0,0.0,0.09030867,0.0,0.0,0.0,0.0,0.0,0.0005646428,0.018765083,0.012847684,0.0,0.0,0.0,0.0,0.0,0.0
80581596,0.01851964,-0.008232821,0.037010334,0.022794008,0.01179801,-0.006958008,0.0,0.0,0.0,0.008750036,0.0,0.0,0.0,0.0,0.0,0.0021930297,0.0021930346,0.004960728,0.000979549,0.0009795487,4.0085497,0.0,0.0,0.0,0.09030581,0.0,0.0,0.0,0.0,0.0,0.0006842551,0.008976583,0.0067580496,0.0,0.0,0.0,0.0,0.0,0.0
80781601,-0.008128842,0.002660518,-0.0045702374,0.018455826,0.012067625,0.11608887,0.0,0.0,0.0,-0.00043322146,0.0,0.0,0.0,0.0,0.0,0.0022076871,0.0022076988,0.0049833218,0.0009821496,0.0009821496,4.0085335,0.0,0.0,0.0,0.09030396,0.0,0.0,0.0,0.0,0.0,0.00049842795,0.0043594893,0.005886657,0.0,0.0,0.0,0.0,0.0,0.0
80981566,-0.027965868,0.0017572994,-0.015177173,0.016296081,0.011277299,0.025939941,0.0,0.0,0.0,-0.00024619699,0.0,0.0,0.0,0.0,0.0,0.0021938258,0.0021938242,0.004964412,0.0009797073,0.0009797076,4.00853,0.0,0.0,0.0,0.09030193,0.0,0.0,0.0,0.0,0.0,0.00023028626,0.007807238,0.007277336,0.0,0.0,0.0,0.0,0.0,0.0
81185610,-0.027965868,0.0017572994,-0.015177173,-6.883219e-05,3.607216e-06,0.2859497,0.0,0.0,0.0,-0.00024192035,0.0,0.0,0.0,0.0,0.0,0.0021938258,0.0021938242,0.004964412,0.0009847041,0.0009847041,4.008515,0.0,0.0,0.0,0.09029967,0.0,0.0,0.0,0.0,0.0,0.0002782265,0.004523701,0.0032459076,0.0,0.0,0.0,0.0,0.0,0.0
81389625,-0.033393133,-0.021324659,0.03602642,0.014988637,0.009525136,-0.017150879,0.0,0.0,0.0,-0.00016188622,0.0,0.0,0.0,0.0,0.0,0.00220004,0.00219998,0.004975795,0.0009816356,0.0009816347,4.008379,0.0,0.0,0.0,0.09029772,0.0,0.0,0.0,0.0,0.0,0.0004209221,0.012322467,0.0052789096,0.0,0.0,0.0,0.0,0.0,0.0
81590388,0.0048471717,0.004099018,-0.05565287,0.0058055595,0.010850912,0.27764893,0.0,0.0,0.0,-0.00019812584,0.0,0.0,0.0,0.0,0.0,0.0021791845,0.0021791072,0.0049435752,0.0009770264,0.0009770248,4.0083714,0.0,0.0,0.0,0.09029553,0.0,0.0,0.0,0.0,0.0,0.00022715531,0.010745649,0.0058546546,0.0,0.0,0.0,0.0,0.0,0.0
81794448,-0.01471865,0.0023146342,-0.061314195,0.0059432536,0.01033336,0.14501953,0.0,0.0,0.0,-0.001783058,0.0,0.0,0.0,0.0,0.0,0.0022138935,0.002213795,0.0049916757,0.0009827721,0.0009827688,4.00852,0.0,0.0,0.0,0.090293385,0.0,0.0,0.0,0.0,0.0,0.00020749385,0.02274933,0.016142257,0.0,0.0,0.0,0.0,0.0,0.0
81998389,0.00015317556,0.00059167354,0.10628545,-0.0011224481,-0.0007346682,0.003967285,0.0,0.0,0.0,-9.9897385e-05,0.0,0.0,0.0,0.0,0.0,0.002193812,0.0021937215,0.004969521,0.00096973486,0.0009697331,4.0083694,0.0,0.0,0.0,0.09029154,0.0,0.0,0.0,0.0,0.0,0.00012768731,0.01738163,0.008293379,0.0,0.0,0.0,0.0,0.0,0.0
82202384,0.0090476405,-0.010356841,0.014524968,-0.0019525844,0.00010148171,0.08062744,0.0,0.0,0.0,0.009152636,0.0,0.0,0.0,0.0,0.0,0.0022088196,0.002208739,0.00498922,0.0009679161,0.00096791424,4.0083556,0.0,0.0,0.0,0.09028946,0.0,0.0,0.0,0.0,0.0,0.00027803026,0.013456232,0.009817534,0.0,0.0,0.0,0.0,0.0,0.0
82402393,-0.004738977,-0.009230065,-0.06089001,-0.0009201213,-2.1453889e-06,0.23071289,0.0,0.0,0.0,0.001249522,0.0,0.0,0.0,0.0,0.0,0.0021925217,0.0021924614,0.0049682828,0.00096792413,0.0009679223,4.008349,0.0,0.0,0.0,0.09028742,0.0,0.0,0.0,0.0,0.0,0.00030120328,0.010430198,0.0039822324,0.0,0.0,0.0,0.0,0.0,0.0
82607312,0.024971101,0.0027334315,-0.024983298,-0.0030772383,-0.0008174004,0.1270752,0.0,0.0,0.0,-1.8015504e-05,0.0,0.0,0.0,0.0,0.0,0.002184657,0.0021846122,0.0049557863,0.00097006105,0.0009700593,4.0083447,0.0,0.0,0.0,0.090285406,0.0,0.0,0.0,0.0,0.0,0.00044665675,0.013616273,0.007127658,0.0,0.0,0.0,0.0,0.0,0.0
82811226,0.01654996,0.021020073,0.08149462,-0.002582851,-0.0022809806,0.3297119,0.0,0.0,0.0,-3.375113e-05,0.0,0.0,0.0,0.0,0.0,0.0022146848,0.0022146532,0.0049993857,0.000970094,0.0009700926,4.0083423,0.0,0.0,0.0,0.090283446,0.0,0.0,0.0,0.0,0.0,0.00063527457,0.019360943,0.009058724,0.0,0.0,0.0,0.0,0.0,0.0
83011196,0.00968226,-0.0056975945,-0.0831283,-0.0018302412,-0.00019978124,-0.014770508,0.0,0.0,0.0,-0.00012363493,0.0,0.0,0.0,0.0,0.0,0.002194583,0.002194578,0.0049744137,0.0009681643,0.00096816325,4.008329,0.0,0.0,0.0,0.09028175,0.0,0.0,0.0,0.0,0.0,0.0004910436,0.014532256,0.0083852885,0.0,0.0,0.0,0.0,0.0,0.0
83215190,-0.014971505,-0.00467945,0.039908297,0.00019208726,-0.00018873654,0.14959717,0.0,0.0,0.0,-0.00016343594,0.0,0.0,0.0,0.0,0.0,0.0022089686,0.0022090003,0.0049921665,0.0009680881,0.00096808746,4.008316,0.0,0.0,0.0,0.09027984,0.0,0.0,0.0,0.0,0.0,6.921813e-05,0.0042106053,0.0028406798,0.0,0.0,0.0,0.0,0.0,0.0
83419234,-0.01277079,-0.0032304276,0.007429762,0.00020017358,-0.00026220264,-0.031555176,0.0,0.0,0.0,-0.0015593618,0.0,0.0,0.0,0.0,0.0,0.0021929848,0.0021930495,0.004970149,0.00096809084,0.0009680907,4.0083036,0.0,0.0,0.0,0.09027796,0.0,0.0,0.0,0.0,0.0,0.00027048463,0.0059380783,0.001909512,0.0,0.0,0.0,0.0,0.0,0.0
83623230,-0.010080868,-0.003272507,-0.025917547,-0.00025904016,-6.4617314e-05,-0.12005615,0.0,0.0,0.0,0.009225935,0.0,0.0,0.0,0.0,0.0,0.0021844676,0.0021845512,0.004956957,0.00097059045,0.00097059144,4.0083055,0.0,0.0,0.0,0.090275966,0.0,0.0,0.0,0.0,0.0,0.00028364535,0.006617004,0.0036257654,0.0,0.0,0.0,0.0,0.0,0.0
83823987,-0.0073677804,-0.0011402604,0.02064721,-0.0001399648,-5.3965166e-05,-0.040039062,0.0,0.0,0.0,-1.1339784e-05,0.0,0.0,0.0,0.0,0.0,0.0022129829,0.0022130809,0.0049985186,0.0009704488,0.00097045035,4.008294,0.0,0.0,0.0,0.09027416,0.0,0.0,0.0,0.0,0.0,0.0002066264,0.0058215545,0.0034365722,0.0,0.0,0.0,0.0,0.0,0.0
84028000,-0.034784526,-0.021273261,-0.025076525,0.0030689165,0.0013010307,-0.47772217,0.0,0.0,0.0,0.0011878461,0.0,0.0,0.0,0.0,0.0,0.0021967688,0.0021968633,0.0049759923,0.000968449,0.0009684507,4.0083013,0.0,0.0,0.0,0.09027239,0.0,0.0,0.0,0.0,0.0,0.0006155792,0.013304725,0.008486992,0.0,0.0,0.0,0.0,0.0,0.0
84232107,-0.003786163,0.0038252193,-0.01787243,0.0002873566,0.00018192342,-0.12762451,0.0,0.0,0.0,0.0014414191,0.0,0.0,0.0,0.0,0.0,0.0022091619,0.0022092655,0.0049934634,0.00097229984,0.0009723022,4.0083003,0.0,0.0,0.0,0.09027086,0.0,0.0,0.0,0.0,0.0,0.00044085292,0.009252817,0.007938991,0.0,0.0,0.0,0.0,0.0,0.0
84431967,-0.00015973859,-0.017329182,-0.07299205,0.0002919929,0.00017613417,-0.38024902,0.0,0.0,0.0,0.008910984,0.0,0.0,0.0,0.0,0.0,0.0021932723,0.0021933855,0.004971071,0.0009721386,0.0009721412,4.0083127,0.0,0.0,0.0,0.09026994,0.0,0.0,0.0,0.0,0.0,0.00022099703,0.019446423,0.01615353,0.0,0.0,0.0,0.0,0.0,0.0
84636762,-0.01072726,-0.002441042,-0.021251097,0.00026215403,0.0002726772,0.23852539,0.0,0.0,0.0,-0.00014293194,0.0,0.0,0.0,0.0,0.0,0.0022198241,0.0022199522,0.0050073056,0.00096999074,0.0009699933,4.008329,0.0,0.0,0.0,0.09026821,0.0,0.0,0.0,0.0,0.0,0.00014877337,0.01342373,0.012702099,0.0,0.0,0.0,0.0,0.0,0.0
84840774,-0.0069662267,0.0074874004,0.046573058,0.00049515895,0.00035332923,0.059570312,0.0,0.0,0.0,-0.0002400577,0.0,0.0,0.0,0.0,0.0,0.0021899864,0.0021900993,0.0049629617,0.00097235007,0.00097235315,4.0083456,0.0,0.0,0.0,0.09026673,0.0,0.0,0.0,0.0,0.0,0.00014109556,0.00639249,0.0021499293,0.0,0.0,0.0,0.0,0.0,0.0
85040751,0.016545013,0.025188494,-0.035976484,0.00040485465,-7.225087e-05,0.15374756,0.0,0.0,0.0,0.00030110776,0.0,0.0,0.0,0.0,0.0,0.0022094431,0.0022095535,0.004954514,0.00097254943,0.0009725527,4.008333,0.0,0.0,0.0,0.09026504,0.0,0.0,0.0,0.0,0.0,0.00045450972,0.008905125,0.004238838,0.0,0.0,0.0,0.0,0.0,0.0
85244843,0.011149285,-0.013092806,0.13616946,0.00041588687,-6.230234e-05,-0.014953613,0.0,0.0,0.0,0.00017905235,0.0,0.0,0.0,0.0,0.0,0.0022129316,0.0022130278,0.0049973233,0.00097047584,0.0009704787,4.0083275,0.0,0.0,0.0,0.09026339,0.0,0.0,0.0,0.0,0.0,0.00039595662,0.031545576,0.02024121,0.0,0.0,0.0,0.0,0.0,0.0
85448759,-0.003579055,-0.0010879958,0.036839563,0.00018969818,3.3294782e-06,0.20605469,0.0,0.0,0.0,0.00014176965,0.0,0.0,0.0,0.0,0.0,0.0021957853,0.0021958598,0.004973734,0.0009706428,0.0009706454,4.008326,0.0,0.0,0.0,0.09026252,0.0,0.0,0.0,0.0,0.0,0.00020518602,0.022543482,0.019424854,0.0,0.0,0.0,0.0,0.0,0.0
85652762,-0.0033671013,-0.0006484264,-0.025431575,0.00019492069,-2.2568565e-06,0.11816406,0.0,0.0,0.0,0.00010983646,0.0,0.0,0.0,0.0,0.0,0.0021852409,0.0021853005,0.0049595106,0.0009708529,0.00097085524,4.008325,0.0,0.0,0.0,0.0902611,0.0,0.0,0.0,0.0,0.0,9.8563745e-05,0.0043638027,0.0069778613,0.0,0.0,0.0,0.0,0.0,0.0
85852794,0.027571982,0.008622254,-0.08034577,0.00014558481,-0.0001033789,-0.22631836,0.0,0.0,0.0,0.009686589,0.0,0.0,0.0,0.0,0.0,0.0022139573,0.002214008,0.0050005293,0.00097260147,0.0009726035,4.0083137,0.0,0.0,0.0,0.09026003,0.0,0.0,0.0,0.0,0.0,0.00036361936,0.01821965,0.008714053,0.0,0.0,0.0,0.0,0.0,0.0
86057601,-0.05053912,-0.014394235,0.072718136,0.00040966814,-2.0354608e-05,-0.1508789,0.0,0.0,0.0,0.00027441978,0.0,0.0,0.0,0.0,0.0,0.0021945117,0.0021945518,0.0049758013,0.0009729236,0.00097292534,4.008313,0.0,0.0,0.0,0.090258636,0.0,0.0,0.0,0.0,0.0,0.0003376504,0.009819929,0.0022699258,0.0,0.0,0.0,0.0,0.0,0.0
86261593,0.013444069,-0.011189595,-0.1081388,0.0004408667,6.7340035e-05,-0.22357178,0.0,0.0,0.0,0.007864475,0.0,0.0,0.0,0.0,0.0,0.0022116925,0.0022117302,0.00499551,0.00097258313,0.0009725845,4.0083094,0.0,0.0,0.0,0.09025686,0.0,0.0,0.0,0.0,0.0,0.0002708294,0.020620437,0.015193458,0.0,0.0,0.0,0.0,0.0,0.0
86465569,0.009450326,0.00068941637,-0.01626063,0.0001699634,1.0122079e-05,-0.0390625,0.0,0.0,0.0,0.00022739172,0.0,0.0,0.0,0.0,0.0,0.0021936526,0.002193687,0.0049725436,0.0009728708,0.000972872,4.0083203,0.0,0.0,0.0,0.09025591,0.0,0.0,0.0,0.0,0.0,0.00025268758,0.012703272,0.014337289,0.0,0.0,0.0,0.0,0.0,0.0
86665618,0.0060434877,8.815579e-05,0.05038788,0.00019069423,1.7977407e-05,-0.0016479492,0.0,0.0,0.0,-0.0015447885,0.0,0.0,0.0,0.0,0.0,0.002209178,0.0022092129,0.0049917605,0.00097282336,0.0009728244,4.0083094,0.0,0.0,0.0,0.09025508,0.0,0.0,0.0,0.0,0.0,0.0002750904,0.006615576,0.0023696297,0.0,0.0,0.0,0.0,0.0,0.0
86869586,-0.0066706464,-8.776662e-06,-0.003428652,5.326298e-05,-2.6778696e-05,0.39215088,0.0,0.0,0.0,0.0018320978,0.0,0.0,0.0,0.0,0.0,0.002194136,0.002194166,0.004970507,0.00097296166,0.0009729627,4.0082984,0.0,0.0,0.0,0.090253554,0.0,0.0,0.0,0.0,0.0,0.000121949444,0.0030561702,0.0021129863,0.0,0.0,0.0,0.0,0.0,0.0
87074439,0.014856313,-0.0018932177,0.028171128,-2.8753886e-05,-3.73254e-05,0.20776367,0.0,0.0,0.0,0.00022001565,0.0,0.0,0.0,0.0,0.0,0.002185178,0.0021851978,0.004957746,0.0009733239,0.0009733248,4.0083,0.0,0.0,0.0,0.090252034,0.0,0.0,0.0,0.0,0.0,0.00019805522,0.007866964,0.0065543773,0.0,0.0,0.0,0.0,0.0,0.0
87274365,0.009517217,-0.011430338,0.069863744,-0.0001561091,8.185042e-05,0.018127441,0.0,0.0,0.0,0.00019201636,0.0,0.0,0.0,0.0,0.0,0.002215291,0.0022153035,0.0049998816,0.00097344955,0.0009734503,4.008291,0.0,0.0,0.0,0.09025075,0.0,0.0,0.0,0.0,0.0,0.00033051512,0.018086754,0.013778208,0.0,0.0,0.0,0.0,0.0,0.0
87478385,0.014565535,0.012346784,0.0182679,-0.0002874764,-7.7614735e-05,-0.47418213,0.0,0.0,0.0,-0.0010859072,0.0,0.0,0.0,0.0,0.0,0.0021982882,0.0021982943,0.00497718,0.0009734151,0.0009734157,4.0082808,0.0,0.0,0.0,0.09024928,0.0,0.0,0.0,0.0,0.0,0.000353319,0.011928681,0.010595549,0.0,0.0,0.0,0.0,0.0,0.0
87682360,0.009054521,-0.0016142268,-0.099272475,-0.0004174249,-5.0160597e-05,-0.32739258,0.0,0.0,0.0,0.000324592,0.0,0.0,0.0,0.0,0.0,0.0021871936,0.0021871906,0.0049617207,0.00097364804,0.00097364833,4.0082717,0.0,0.0,0.0,0.090247825,0.0,0.0,0.0,0.0,0.0,0.00025984118,0.014829037,0.010344383,0.0,0.0,0.0,0.0,0.0,0.0
87886366,-0.023850648,-0.032361936,0.018083837,-0.00017236924,0.000249353,-0.11328125,0.0,0.0,0.0,0.0015049875,0.0,0.0,0.0,0.0,0.0,0.0022035246,0.0022035139,0.0049856417,0.0009736255,0.0009736256,4.008262,0.0,0.0,0.0,0.0902466,0.0,0.0,0.0,0.0,0.0,0.0004907968,0.008298852,0.0055167675,0.0,0.0,0.0,0.0,0.0,0.0
88086457,-0.0076616136,-0.0023225695,-0.15739588,-0.00013642677,0.00022041565,-0.038330078,0.0,0.0,0.0,-4.681945e-05,0.0,0.0,0.0,0.0,0.0,0.0021888749,0.0021888642,0.00496729,0.000973791,0.0009737908,4.008265,0.0,0.0,0.0,0.090245195,0.0,0.0,0.0,0.0,0.0,0.00041519667,0.030931879,0.025083521,0.0,0.0,0.0,0.0,0.0,0.0
88291284,0.0045332015,0.007308634,0.10023957,-0.00018274161,0.00014906842,0.21032715,0.0,0.0,0.0,1.7002225e-05,0.0,0.0,0.0,0.0,0.0,0.0022157612,0.0022157556,0.0050057424,0.0009757832,0.000975783,4.0082564,0.0,0.0,0.0,0.09024382,0.0,0.0,0.0,0.0,0.0,8.381149e-05,0.007706978,0.0024788468,0.0,0.0,0.0,0.0,0.0,0.0
88495239,-0.01697177,0.005609329,-0.027091222,-7.6863216e-05,0.00021336088,0.12841797,0.0,0.0,0.0,-0.0015123188,0.0,0.0,0.0,0.0,0.0,0.0021968738,0.002196875,0.0049790232,0.00097581587,0.0009758157,4.0082493,0.0,0.0,0.0,0.09024246,0.0,0.0,0.0,0.0,0.0,0.00022299506,0.00527322,0.0038164407,0.0,0.0,0.0,0.0,0.0,0.0
88695197,0.027131468,0.0052716834,-0.03720471,-0.00028080546,0.00010670573,0.13922119,0.0,0.0,0.0,0.010811329,0.0,0.0,0.0,0.0,0.0,0.0021881273,0.0021881317,0.004964915,0.0009762311,0.0009762311,4.0082417,0.0,0.0,0.0,0.09024112,0.0,0.0,0.0,0.0,0.0,0.00028811343,0.0065963836,0.004998345,0.0,0.0,0.0,0.0,0.0,0.0
88899266,-0.03917243,0.0043998407,0.05525428,0.00013559574,8.639321e-05,0.045410156,0.0,0.0,0.0,0.00016959012,0.0,0.0,0.0,0.0,0.0,0.0022036247,0.0022036263,0.0049875826,0.0009759959,0.00097599596,4.0082335,0.0,0.0,0.0,0.09023979,0.0,0.0,0.0,0.0,0.0,0.00037541968,0.011374947,0.0069067474,0.0,0.0,0.0,0.0,0.0,0.0
89103200,0.0014502268,0.002791764,0.0005811099,3.410701e-05,3.844517e-05,-0.1574707,0.0,0.0,0.0,0.0016915649,0.0,0.0,0.0,0.0,0.0,0.002189165,0.0021891603,0.0049683484,0.0009761849,0.00097618485,4.0082316,0.0,0.0,0.0,0.0902385,0.0,0.0,0.0,0.0,0.0,0.00026989178,0.006503433,0.006451092,0.0,0.0,0.0,0.0,0.0,0.0
89307206,-0.008401239,-0.008235119,0.031929187,0.00014248141,9.972451e-05,0.26055908,0.0,0.0,0.0,0.00015433133,0.0,0.0,0.0,0.0,0.0,0.0022163028,0.0022162865,0.005006548,0.00097598945,0.0009759892,4.0082536,0.0,0.0,0.0,0.09023712,0.0,0.0,0.0,0.0,0.0,0.00015465896,0.009389605,0.01078512,0.0,0.0,0.0,0.0,0.0,0.0
89507964,-0.0057563516,0.02276571,0.013561208,9.319474e-05,-0.00012149374,0.21221924,0.0,0.0,0.0,0.0005027503,0.0,0.0,0.0,0.0,0.0,0.0021977671,0.0021977348,0.0049797357,0.0009778615,0.0009778608,4.0082393,0.0,0.0,0.0,0.09023585,0.0,0.0,0.0,0.0,0.0,0.00023018276,0.007988321,0.009646049,0.0,0.0,0.0,0.0,0.0,0.0
89711965,-0.015008712,-0.014150133,0.13065884,0.00027625012,3.9448467e-05,0.18536377,0.0,0.0,0.0,0.00023752451,0.0,0.0,0.0,0.0,0.0,0.0022094515,0.0022094017,0.004996513,0.00097570184,0.0009757008,4.0082445,0.0,0.0,0.0,0.09023488,0.0,0.0,0.0,0.0,0.0,0.00015745765,0.026365856,0.022735294,0.0,0.0,0.0,0.0,0.0,0.0
89916014,0.007910209,-0.010185404,0.07167595,0.0001369224,6.428035e-05,-0.055419922,0.0,0.0,0.0,0.0001810193,0.0,0.0,0.0,0.0,0.0,0.002196339,0.0021962817,0.004975394,0.0009757554,0.00097575394,4.0082536,0.0,0.0,0.0,0.09023383,0.0,0.0,0.0,0.0,0.0,0.0002070571,0.022160945,0.021656098,0.0,0.0,0.0,0.0,0.0,0.0
90116047,0.004658114,0.001550206,-0.11213331,4.5665685e-05,1.7033453e-05,0.17456055,0.0,0.0,0.0,0.00038981438,0.0,0.0,0.0,0.0,0.0,0.0021879473,0.0021878853,0.0049609905,0.0009784448,0.0009784427,4.0082746,0.0,0.0,0.0,0.09023278,0.0,0.0,0.0,0.0,0.0,0.00021294838,0.011158206,0.0026766844,0.0,0.0,0.0,0.0,0.0,0.0
90316790,0.0020315258,0.00072572834,-0.053881094,-8.272706e-06,3.2409705e-05,0.1340332,0.0,0.0,0.0,0.0003579855,0.0,0.0,0.0,0.0,0.0,0.0022149112,0.0022148346,0.00500208,0.00097579975,0.0009757976,4.0082827,0.0,0.0,0.0,0.09023218,0.0,0.0,0.0,0.0,0.0,0.0001730494,0.016295604,0.010859693,0.0,0.0,0.0,0.0,0.0,0.0
90520832,-0.039280705,-0.039921176,-0.078612775,0.00038675952,0.000313627,0.101623535,0.0,0.0,0.0,-0.00011318922,0.0,0.0,0.0,0.0,0.0,0.00219763,0.0021975532,0.004977347,0.0009761523,0.00097614987,4.0082803,0.0,0.0,0.0,0.09023114,0.0,0.0,0.0,0.0,0.0,0.0006227583,0.022880135,0.017940914,0.0,0.0,0.0,0.0,0.0,0.0
90724839,0.012229432,0.03971742,0.0048938645,0.00014820014,-3.319775e-05,0.05718994,0.0,0.0,0.0,0.0019280463,0.0,0.0,0.0,0.0,0.0,0.0021881717,0.0021880972,0.004964075,0.0009787797,0.0009787768,4.0083127,0.0,0.0,0.0,0.09022996,0.0,0.0,0.0,0.0,0.0,0.0003305174,0.009139681,0.010723985,0.0,0.0,0.0,0.0,0.0,0.0
90924894,0.0078166025,0.007874959,-0.015588675,0.00018120516,-0.000107307744,0.103637695,0.0,0.0,0.0,0.00055871904,0.0,0.0,0.0,0.0,0.0,0.0022051998,0.0022051167,0.004987455,0.0009789675,0.0009789644,4.0083323,0.0,0.0,0.0,0.09022879,0.0,0.0,0.0,0.0,0.0,0.00040760968,0.0071699987,0.0073900004,0.0,0.0,0.0,0.0,0.0,0.0
91128741,0.004812342,-0.024471732,-0.019588139,-1.4732068e-05,6.614422e-05,0.109191895,0.0,0.0,0.0,0.00016576052,0.0,0.0,0.0,0.0,0.0,0.0021915245,0.0021914416,0.0049685705,0.0009793186,0.0009793153,4.008315,0.0,0.0,0.0,0.09022804,0.0,0.0,0.0,0.0,0.0,0.00030120948,0.0060416753,0.0060667484,0.0,0.0,0.0,0.0,0.0,0.0
91332761,-0.028281204,0.0017569065,0.01799902,0.00038905005,3.628878e-05,0.10870361,0.0,0.0,0.0,0.0001937747,0.0,0.0,0.0,0.0,0.0,0.002218757,0.00221867,0.0050069387,0.0009812549,0.0009812514,4.0083294,0.0,0.0,0.0,0.09022779,0.0,0.0,0.0,0.0,0.0,0.00025899644,0.0035432533,0.00052494585,0.0,0.0,0.0,0.0,0.0,0.0
91532873,-0.01081871,0.02063759,-0.10522854,0.0003276294,-0.00020750446,-0.04168701,0.0,0.0,0.0,0.00045374036,0.0,0.0,0.0,0.0,0.0,0.0021967313,0.0021966554,0.004980175,0.0009807853,0.000980782,4.0083194,0.0,0.0,0.0,0.09022735,0.0,0.0,0.0,0.0,0.0,0.00026129367,0.0151665425,0.012204298,0.0,0.0,0.0,0.0,0.0,0.0
91733640,0.0020497069,-0.006694115,0.098609015,0.00029979827,-0.00017924621,-0.13745117,0.0,0.0,0.0,0.0003091991,0.0,0.0,0.0,0.0,0.0,0.0021849484,0.002184877,0.004964187,0.0009787643,0.0009787611,4.0083227,0.0,0.0,0.0,0.090226196,0.0,0.0,0.0,0.0,0.0,7.297149e-05,0.010330935,0.004534869,0.0,0.0,0.0,0.0,0.0,0.0
91937579,0.010434942,-0.005680642,0.053875,0.00018314144,-5.4237782e-05,-0.10046387,0.0,0.0,0.0,-0.0012664348,0.0,0.0,0.0,0.0,0.0,0.0022172462,0.0022171703,0.005004206,0.000978703,0.0009787001,4.008314,0.0,0.0,0.0,0.09022505,0.0,0.0,0.0,0.0,0.0,0.00025410036,0.0149089005,0.011820958,0.0,0.0,0.0,0.0,0.0,0.0
92141563,-0.014114143,-0.014054597,0.04905448,0.00021254981,-3.153144e-05,0.022277832,0.0,0.0,0.0,0.00020965934,0.0,0.0,0.0,0.0,0.0,0.002200257,0.0022001888,0.0049801683,0.0009788163,0.0009788135,4.008322,0.0,0.0,0.0,0.09022393,0.0,0.0,0.0,0.0,0.0,0.00023429065,0.014424033,0.0136022875,0.0,0.0,0.0,0.0,0.0,0.0
92341567,0.019454423,0.01879791,-0.07530637,0.00014808727,-0.00023310774,0.064453125,0.0,0.0,0.0,0.000431329,0.0,0.0,0.0,0.0,0.0,0.0021883675,0.002188298,0.0049642385,0.000981265,0.0009812618,4.0083175,0.0,0.0,0.0,0.09022283,0.0,0.0,0.0,0.0,0.0,0.0003343446,0.006794304,0.00262082,0.0,0.0,0.0,0.0,0.0,0.0
92541589,-0.007070492,0.0029677497,0.21639891,0.00012434705,-0.00023910226,-0.61968994,0.0,0.0,0.0,0.00038161874,0.0,0.0,0.0,0.0,0.0,0.0022041618,0.002204081,0.0049878405,0.0009789153,0.0009789121,4.0083375,0.0,0.0,0.0,0.09022228,0.0,0.0,0.0,0.0,0.0,0.00019814362,0.030961612,0.023420276,0.0,0.0,0.0,0.0,0.0,0.0
92746402,-0.015753696,-0.008215044,-0.017857583,0.00017030595,-0.00015667707,-0.18530273,0.0,0.0,0.0,0.00020979345,0.0,0.0,0.0,0.0,0.0,0.0021900772,0.002190001,0.0049690604,0.0009789772,0.000978974,4.0083327,0.0,0.0,0.0,0.09022119,0.0,0.0,0.0,0.0,0.0,0.00023366617,0.009141362,0.011524671,0.0,0.0,0.0,0.0,0.0,0.0
92950416,0.009111574,-0.01693291,-0.06625646,0.000210742,-6.578822e-05,0.34698486,0.0,0.0,0.0,5.1304698e-05,0.0,0.0,0.0,0.0,0.0,0.0022178623,0.0022177836,0.0050074826,0.0009789744,0.0009789712,4.0083356,0.0,0.0,0.0,0.090220645,0.0,0.0,0.0,0.0,0.0,0.00032658715,0.009931262,0.0043811244,0.0,0.0,0.0,0.0,0.0,0.0
93150426,0.0054060356,-0.0021064538,-0.039277308,0.00014902034,-5.156806e-05,0.041015625,0.0,0.0,0.0,-0.0015545636,0.0,0.0,0.0,0.0,0.0,0.0022012573,0.0022011786,0.00498234,0.0009789465,0.0009789433,4.0083256,0.0,0.0,0.0,0.09021958,0.0,0.0,0.0,0.0,0.0,0.0002467052,0.012054162,0.009958151,0.0,0.0,0.0,0.0,0.0,0.0
93350400,-0.036719702,-0.0014659364,-0.009595947,0.00050898583,-0.00015015804,-0.1776123,0.0,0.0,0.0,-5.4702163e-05,0.0,0.0,0.0,0.0,0.0,0.0021885412,0.0021884497,0.004965349,0.0009814827,0.0009814788,4.0083165,0.0,0.0,0.0,0.090218514,0.0,0.0,0.0,0.0,0.0,0.0003631134,0.008822224,0.009951282,0.0,0.0,0.0,0.0,0.0,0.0
93554424,0.03303597,-0.0014510868,-0.0965346,3.2473064e-05,-3.502998e-05,-0.1583252,0.0,0.0,0.0,-1.3113022e-05,0.0,0.0,0.0,0.0,0.0,0.0022361663,0.002236032,0.0050724675,0.0009796831,0.0009796793,4.0083303,0.0,0.0,0.0,0.09021748,0.0,0.0,0.0,0.0,0.0,0.0003722568,0.022405053,0.020538962,0.0,0.0,0.0,0.0,0.0,0.0
93758358,-0.0095168,-0.0009657686,0.12185287,4.47802e-05,-4.7250214e-05,0.07977295,0.0,0.0,0.0,-0.0015993267,0.0,0.0,0.0,0.0,0.0,0.0021668023,0.0021666863,0.004935926,0.0009803659,0.0009803611,4.0083346,0.0,0.0,0.0,0.090216376,0.0,0.0,0.0,0.0,0.0,0.00024476906,0.007687359,0.0019345222,0.0,0.0,0.0,0.0,0.0,0.0
93958392,-0.018379444,0.0192011,-0.08313105,0.00017800421,-0.00025644182,0.1796875,0.0,0.0,0.0,0.00020113587,0.0,0.0,0.0,0.0,0.0,0.0022422718,0.0022421503,0.0050703906,0.000979163,0.0009791586,4.008315,0.0,0.0,0.0,0.090215586,0.0,0.0,0.0,0.0,0.0,0.00021906935,0.012611118,0.008696356,0.0,0.0,0.0,0.0,0.0,0.0
94159291,0.0047791954,0.002350008,-0.1082852,6.270857e-05,-0.00026581142,0.026611328,0.0,0.0,0.0,0.00032387674,0.0,0.0,0.0,0.0,0.0,0.0021747926,0.002174725,0.004934541,0.000980357,0.0009803532,4.0083065,0.0,0.0,0.0,0.090214595,0.0,0.0,0.0,0.0,0.0,0.00013717124,0.020402543,0.016823983,0.0,0.0,0.0,0.0,0.0,0.0
94363242,0.031914826,0.03061726,-0.035977833,-0.00022939913,-0.00048760793,0.2156372,0.0,0.0,0.0,0.00059603155,0.0,0.0,0.0,0.0,0.0,0.0022052156,0.0022052024,0.0050038015,0.0009799956,0.0009799933,4.0082984,0.0,0.0,0.0,0.09021361,0.0,0.0,0.0,0.0,0.0,0.0005910534,0.0150783025,0.013215007,0.0,0.0,0.0,0.0,0.0,0.0
94567172,-0.008251987,-0.01806105,0.046563577,-0.0002942098,-0.00048073675,0.08270264,0.0,0.0,0.0,0.00030265749,0.0,0.0,0.0,0.0,0.0,0.0021868818,0.0021869156,0.0049453294,0.0009831173,0.0009831171,4.008311,0.0,0.0,0.0,0.09021257,0.0,0.0,0.0,0.0,0.0,0.00024362699,0.0036927487,0.0013927297,0.0,0.0,0.0,0.0,0.0,0.0
94767214,0.002104506,-0.022636475,0.036998022,-0.0002496594,-0.0001631832,-0.13549805,0.0,0.0,0.0,0.00022163987,0.0,0.0,0.0,0.0,0.0,0.0022169882,0.002217083,0.005026228,0.0009799302,0.0009799319,4.0083013,0.0,0.0,0.0,0.090211615,0.0,0.0,0.0,0.0,0.0,0.00043086318,0.010727994,0.006814641,0.0,0.0,0.0,0.0,0.0,0.0
94971247,-0.018749526,0.03974963,0.021369668,0.0006873384,-0.007195724,-0.04888916,0.0,0.0,0.0,-2.4184585e-05,0.0,0.0,0.0,0.0,0.0,0.0021724491,0.0021725658,0.004925387,0.00097631715,0.0009763204,4.008294,0.0,0.0,0.0,0.090210676,0.0,0.0,0.0,0.0,0.0,0.00043331148,0.015980871,0.013311967,0.0,0.0,0.0,0.0,0.0,0.0
95175975,-0.08490923,-0.04063191,0.036337957,-0.0030287467,-0.011102747,-0.13659668,0.0,0.0,0.0,0.00018803775,0.0,0.0,0.0,0.0,0.0,0.0021968745,0.0021970007,0.0049645603,0.0009798054,0.0009798101,4.0082884,0.0,0.0,0.0,0.090209745,0.0,0.0,0.0,0.0,0.0,0.0009594818,0.03158739,0.016667092,0.0,0.0,0.0,0.0,0.0,0.0
95379984,-0.08490923,-0.04063191,0.036337957,1.2572622e-05,4.953335e-05,0.09234619,0.0,0.0,0.0,-0.00021871924,0.0,0.0,0.0,0.0,0.0,0.0021968745,0.0021970007,0.0049645603,0.0009825048,0.0009825103,4.0082965,0.0,0.0,0.0,0.090208836,0.0,0.0,0.0,0.0,0.0,0.0009681949,0.015937222,0.011978296,0.0,0.0,0.0,0.0,0.0,0.0
95579989,0.07237147,0.021302741,0.0459057,-0.0053538033,-0.0010547697,-0.053588867,0.0,0.0,0.0,7.766485e-05,0.0,0.0,0.0,0.0,0.0,0.002191429,0.00219155,0.004938487,0.00096623704,0.0009662393,4.008284,0.0,0.0,0.0,0.09020841,0.0,0.0,0.0,0.0,0.0,0.00041706825,0.0042604576,0.0060499217,0.0,0.0,0.0,0.0,0.0,0.0
95783985,0.013410021,0.015609498,0.17589523,0.0060266247,-0.008399513,-0.1416626,0.0,0.0,0.0,0.00026671588,0.0,0.0,0.0,0.0,0.0,0.0021903694,0.0021905056,0.0049728444,0.0009783178,0.0009783232,4.008175,0.0,0.0,0.0,0.09020813,0.0,0.0,0.0,0.0,0.0,0.0006596834,0.046637014,0.02734872,0.0,0.0,0.0,0.0,0.0,0.0
95987991,-0.00048568615,-0.008562294,0.14533283,0.004661072,-0.010382146,0.20489502,0.0,0.0,0.0,0.00021344423,0.0,0.0,0.0,0.0,0.0,0.0022022356,0.0022023958,0.004994087,0.0009809502,0.0009809566,4.0083275,0.0,0.0,0.0,0.09020743,0.0,0.0,0.0,0.0,0.0,0.00047781772,0.06159591,0.044177048,0.0,0.0,0.0,0.0,0.0,0.0
96188762,-0.0012681242,-0.0051963227,-0.020659097,0.0041711535,-0.010037454,0.08294678,0.0,0.0,0.0,-0.0001270473,0.0,0.0,0.0,0.0,0.0,0.0021867447,0.0021869047,0.0049732206,0.000978455,0.0009784614,4.0081854,0.0,0.0,0.0,0.090207264,0.0,0.0,0.0,0.0,0.0,0.00029318113,0.021758724,0.025666725,0.0,0.0,0.0,0.0,0.0,0.0
96392840,-0.00042995875,-0.003108936,0.0009105392,-0.00022917829,0.00071566284,-0.45324707,0.0,0.0,0.0,-0.00015473366,0.0,0.0,0.0,0.0,0.0,0.0022024708,0.002202628,0.0049953973,0.00096876436,0.00096876785,4.0081887,0.0,0.0,0.0,0.09020663,0.0,0.0,0.0,0.0,0.0,0.00026274082,0.006411645,0.010386131,0.0,0.0,0.0,0.0,0.0,0.0
96596809,-0.049607623,0.008859615,0.09680178,0.0040563233,0.0001032998,-0.39300537,0.0,0.0,0.0,-0.0017345697,0.0,0.0,0.0,0.0,0.0,0.0021868674,0.0021869987,0.0049737543,0.00096881523,0.0009688188,4.0081873,0.0,0.0,0.0,0.09020594,0.0,0.0,0.0,0.0,0.0,0.0007168468,0.026621638,0.017005438,0.0,0.0,0.0,0.0,0.0,0.0
