timestamp,ref_timestamp,ref_lat,ref_lon,x,y,z,delta_xy[0],delta_xy[1],delta_z,vx,vy,vz,z_deriv,delta_vxy[0],delta_vxy[1],delta_vz,ax,ay,az,yaw,ref_alt,dist_bottom,dist_bottom_rate,eph,epv,evh,evv,vxy_max,vz_max,hagl_min,hagl_max,xy_valid,z_valid,v_xy_valid,v_z_valid,xy_reset_counter,z_reset_counter,vxy_reset_counter,vz_reset_counter,xy_global,z_global,dist_bottom_valid
58358375,15543965,30.7872066,103.8586443,0.0063562463,-0.009756345,0.058477875,-0.00095907715,-0.010018757,0.0,-0.016593948,-0.0051751677,0.041849665,-0.10793562,0.030264545,0.009913368,0.05628799,-0.13631101,0.119325235,-0.01800962,0.16782176,0.0,0.16088714,-0.041849665,0.014867116,0.24760976,0.06388541,0.03324271,inf,inf,inf,inf,1,1,1,1,3,0,3,3,1,1,0
58362374,15543965,30.7872066,103.8586443,0.006289482,-0.009778183,0.058645718,-0.00095907715,-0.010018757,0.0,-0.016779767,-0.0057410756,0.042051088,-0.1077342,0.030264545,0.009913368,0.05628799,-0.04644331,-0.14144161,0.050342903,0.16783784,0.0,0.1607193,-0.042051088,0.014867116,0.24760976,0.06388541,0.03324271,inf,inf,inf,inf,1,1,1,1,3,0,3,3,1,1,0
58462394,15543965,30.7872066,103.8586443,0.002232724,-0.010286929,0.08081872,-0.00095907715,-0.010018757,0.0,-0.03030565,-0.0075650504,0.050697878,-0.06735546,0.030264545,0.009913368,0.05628799,-0.1353221,0.11457827,-0.012484246,0.16786486,0.0,0.17440864,-0.050697878,0.012908895,0.23325372,0.04789483,0.033090137,inf,inf,inf,inf,1,1,1,1,3,0,3,3,1,1,0
58566436,15543965,30.7872066,103.8586443,-0.0031415103,-0.010991299,0.098852664,-0.00095907715,-0.010018757,0.0,-0.04325746,-0.010175559,0.05826734,-0.036941975,0.030264545,0.009913368,0.05628799,-0.13883866,0.09490798,-0.012393172,0.16791265,0.0,0.1594556,-0.05826734,0.014689682,0.22883353,0.052987956,0.03725135,inf,inf,inf,inf,1,1,1,1,3,0,3,3,1,1,0
58666457,15543965,30.7872066,103.8586443,-0.008247749,-0.011709383,0.054015785,-0.00095907715,-0.010018757,0.0,-0.050504826,-0.011517379,0.039905123,-0.09695212,0.030264545,0.009913368,0.05628799,-0.05121451,-0.03915369,0.03289425,0.16684648,0.0,0.1,-0.039905123,0.012798729,0.21708497,0.042283222,0.035021752,inf,inf,inf,inf,1,1,1,1,3,0,3,3,1,1,0
58766424,15543965,30.7872066,103.8586443,-0.013365701,-0.012307993,0.01578033,-0.00095907715,-0.010018757,0.0,-0.05694748,-0.0124053545,0.021834644,-0.14237827,0.030264545,0.009913368,0.05628799,-0.08983607,-0.08672546,-0.05320047,0.1655514,0.0,0.1,-0.021834644,0.011808643,0.20587662,0.0353173,0.03257412,inf,inf,inf,inf,1,1,1,1,3,0,3,3,1,1,0
58870369,15543965,30.7872066,103.8586443,-0.017317804,-0.011509416,-0.013806792,-0.00095907715,-0.010018757,0.0,-0.058202617,-0.008692066,0.0069403825,-0.1707829,0.030264545,0.009913368,0.05628799,-0.08381111,-0.09282045,-0.046068862,0.16422409,0.0,0.1,-0.0069403825,0.012920807,0.20202132,0.040442765,0.036159325,inf,inf,inf,inf,1,1,1,1,3,0,3,3,1,1,0
58970380,15543965,30.7872066,103.8586443,-0.02089943,-0.010409619,-0.03133065,-0.00095907715,-0.010018757,0.0,-0.05958274,-0.006007665,-0.0028895305,-0.18056464,0.030264545,0.009913368,0.05628799,-0.09658854,0.11204716,-0.03167527,0.16283858,0.0,0.11364317,0.0028895305,0.013849563,0.199509,0.04386402,0.03940668,inf,inf,inf,inf,1,1,1,1,3,0,3,3,1,1,0
59074430,15543965,30.7872066,103.8586443,-0.023294404,-0.009412849,-0.033398952,-0.00095907715,-0.010018757,0.0,-0.057336204,-0.0044816686,-0.0054947967,-0.16579384,0.030264545,0.009913368,0.05628799,-0.106897116,0.09417685,-0.036369577,0.16152197,0.0,0.14920318,0.0054947967,0.012737035,0.19059932,0.038608808,0.036184512,inf,inf,inf,inf,1,1,1,1,3,0,3,3,1,1,0
59174398,15543965,30.7872066,103.8586443,-0.025217058,-0.008317078,-0.032171443,-0.00095907715,-0.010018757,0.0,-0.056185354,-0.0029745612,-0.006843834,-0.14854148,0.030264545,0.009913368,0.05628799,0.002108561,-0.1092406,0.04073785,0.16036648,0.0,0.15398146,0.006843834,0.013825891,0.188756,0.04252256,0.039481606,inf,inf,inf,inf,1,1,1,1,3,0,3,3,1,1,0
59274422,15543965,30.7872066,103.8586443,-0.025672445,-0.007221029,-0.015693102,-0.00095907715,-0.010018757,0.0,-0.051532567,-0.0010253282,0.00038971554,-0.11140194,0.030264545,0.009913368,0.05628799,-0.08933869,0.07021983,-0.059311535,0.15956399,0.0,0.18334207,-0.00038971554,0.012574402,0.18120107,0.03733234,0.035791222,inf,inf,inf,inf,1,1,1,1,3,0,3,3,1,1,0
59378383,15543965,30.7872066,103.8586443,-0.025728997,-0.006329018,-0.0018743479,-0.00095907715,-0.010018757,0.0,-0.047195114,-0.0014162061,0.0051715635,-0.083160974,0.030264545,0.009913368,0.05628799,-0.06696946,0.061461944,-0.033108316,0.15890633,0.0,0.13422942,-0.0051715635,0.011788382,0.1757365,0.03296528,0.032735296,inf,inf,inf,inf,1,1,1,1,3,0,3,3,1,1,0
59478363,15543965,30.7872066,103.8586443,-0.026165225,-0.0074157994,-0.0030769673,-0.00095907715,-0.010018757,0.0,-0.046179146,-0.0070085293,0.00081096013,-0.08166703,0.030264545,0.009913368,0.05628799,0.00796859,0.010032396,0.018014276,0.15792072,0.0,0.13258608,-0.00081096013,0.012715295,0.17361495,0.03753718,0.035744138,inf,inf,inf,inf,1,1,1,1,3,0,3,3,1,1,0
59578398,15543965,30.7872066,103.8586443,-0.027284846,-0.009098825,-0.0050539677,-0.00095907715,-0.010018757,0.0,-0.045755837,-0.011410061,-0.0029998682,-0.080881275,0.030264545,0.009913368,0.05628799,-0.02177107,-0.106333286,-0.020866482,0.1568098,0.0,0.13410242,0.0029998682,0.011747087,0.16886322,0.03251768,0.032382313,inf,inf,inf,inf,1,1,1,1,3,0,3,3,1,1,0
59683226,15543965,30.7872066,103.8586443,-0.027303876,-0.011293869,-0.006066531,-0.00095907715,-0.010018757,0.0,-0.041401938,-0.015591297,-0.0050810194,-0.076837406,0.030264545,0.009913368,0.05628799,0.00091033854,-0.13357121,0.041699704,0.15575401,0.0,0.13649088,0.0050810194,0.012646311,0.16703837,0.03697256,0.035267904,inf,inf,inf,inf,1,1,1,1,3,0,3,3,1,1,0
59783245,15543965,30.7872066,103.8586443,-0.027276348,-0.013666027,-0.007651674,-0.00095907715,-0.010018757,0.0,-0.03879882,-0.018564476,-0.0070666857,-0.07377435,0.030264545,0.009913368,0.05628799,-0.07352978,0.077582724,-0.06545767,0.15505087,0.0,0.11171468,0.0070666857,0.011848795,0.16302906,0.03240554,0.03215974,inf,inf,inf,inf,1,1,1,1,3,0,3,3,1,1,0
59883227,15543965,30.7872066,103.8586443,-0.026617648,-0.015228551,-0.015356727,-0.00095907715,-0.010018757,0.0,-0.034336306,-0.01911289,-0.013547148,-0.081714205,0.030264545,0.009913368,0.05628799,0.014271864,-0.035015885,0.015300727,0.15457346,0.0,0.12170085,0.013547148,0.0125554595,0.16136432,0.036361486,0.03474789,inf,inf,inf,inf,1,1,1,1,3,0,3,3,1,1,0
59987274,15543965,30.7872066,103.8586443,-0.025786145,-0.016584983,-0.020643385,-0.00095907715,-0.010018757,0.0,-0.030347494,-0.018933725,-0.018604424,-0.08428534,0.030264545,0.009913368,0.05628799,0.013640159,-0.042040214,0.01660949,0.15440589,0.0,0.13711625,0.018604424,0.011827201,0.15792966,0.03233778,0.031864535,inf,inf,inf,inf,1,1,1,1,3,0,3,3,1,1,0
60087204,15543965,30.7872066,103.8586443,-0.024499666,-0.01729522,-0.019958047,-0.00095907715,-0.010018757,0.0,-0.025941428,-0.017184487,-0.02058939,-0.07777846,0.030264545,0.009913368,0.05628799,-0.03425566,-0.033761542,-0.054011952,0.15456769,0.0,0.1434154,0.02058939,0.01271382,0.1565355,0.036614414,0.03456256,inf,inf,inf,inf,1,1,1,1,3,0,3,3,1,1,0
60191227,15543965,30.7872066,103.8586443,-0.023333997,-0.017599259,-0.018635863,-0.00095907715,-0.010018757,0.0,-0.021856023,-0.015283324,-0.02198045,-0.0708643,0.030264545,0.009913368,0.05628799,-0.036727216,-0.053825874,-0.057712536,0.15485154,0.0,0.1417625,0.02198045,0.011971933,0.15305167,0.03265023,0.031778745,inf,inf,inf,inf,1,1,1,1,3,0,3,3,1,1,0
60291224,15543965,30.7872066,103.8586443,-0.021908589,-0.016940331,-0.01695158,-0.00095907715,-0.010018757,0.0,-0.018048069,-0.01119276,-0.022927154,-0.064378686,0.030264545,0.009913368,0.05628799,-0.031958178,0.12194677,-0.014004359,0.15514623,0.0,0.14299582,0.022927154,0.012699611,0.15219341,0.036423575,0.034229737,inf,inf,inf,inf,1,1,1,1,3,0,3,3,1,1,0
60391261,15543965,30.7872066,103.8586443,-0.020204995,-0.015575297,-0.013635166,-0.00095907715,-0.010018757,0.0,-0.013628666,-0.0071182665,-0.022742787,-0.055655554,0.030264545,0.009913368,0.05628799,0.016794477,-0.11213942,0.038008157,0.15550888,0.0,0.14855418,0.022742787,0.011983414,0.14909564,0.03272876,0.03162979,inf,inf,inf,inf,1,1,1,1,3,0,3,3,1,1,0
60495193,15543965,30.7872066,103.8586443,-0.018271543,-0.013467109,-0.008855479,-0.00095907715,-0.010018757,0.0,-0.0090537,-0.0018171034,-0.021437146,-0.045461632,0.030264545,0.009913368,0.05628799,0.020971501,-0.08773352,0.012653908,0.1558503,0.0,0.1436923,0.021437146,0.012342736,0.14841868,0.036061298,0.034263756,inf,inf,inf,inf,1,1,1,1,3,0,3,3,1,1,0
60595212,15543965,30.7872066,103.8586443,-0.016325349,-0.011308058,-0.00521068,-0.00095907715,-0.010018757,0.0,-0.0051211873,0.0027659086,-0.020600311,-0.03823456,0.030264545,0.009913368,0.05628799,-0.049043138,0.11389795,-0.057717696,0.15613638,0.0,0.14018165,0.020600311,0.011951603,0.14552253,0.032397076,0.031435348,inf,inf,inf,inf,1,1,1,1,3,0,3,3,1,1,0
60695263,15543965,30.7872066,103.8586443,-0.013075581,-0.0091844285,-0.0022891175,-0.00095907715,-0.010018757,0.0,0.0022493086,0.004876277,-0.021039814,-0.033761166,0.030264545,0.009913368,0.05628799,0.057336863,0.005116255,0.03626305,0.15636247,0.0,0.13574821,0.021039814,0.012299387,0.14492606,0.03571857,0.034063444,inf,inf,inf,inf,1,1,1,1,3,0,3,3,1,1,0
60799217,15543965,30.7872066,103.8586443,-0.009784138,-0.007293768,-0.0025880965,-0.00095907715,-0.010018757,0.0,0.007795992,0.0061664623,-0.023670875,-0.035071626,0.030264545,0.009913368,0.05628799,0.053693064,-0.038505588,0.027828261,0.15661453,0.0,0.11257905,0.023670875,0.01163553,0.14234726,0.03195508,0.03143477,inf,inf,inf,inf,1,1,1,1,3,0,3,3,1,1,0
60900002,15543965,30.7872066,103.8586443,-0.007096863,-0.0059631704,-0.009293446,-0.00095907715,-0.010018757,0.0,0.010864978,0.006476583,-0.030092327,-0.045922056,0.030264545,0.009913368,0.05628799,0.032490037,-0.13077518,-0.020516722,0.15667279,0.0,0.1157786,0.030092327,0.012275043,0.14175218,0.035378646,0.0338602,inf,inf,inf,inf,1,1,1,1,3,0,3,3,1,1,0
60999991,15543965,30.7872066,103.8586443,-0.0043447656,-0.0050061923,-0.014680277,-0.00095907715,-0.010018757,0.0,0.014478327,0.007043334,-0.034959253,-0.052434497,0.030264545,0.009913368,0.05628799,-0.030771637,0.12900092,-0.04852766,0.15661554,0.0,0.12195809,0.034959253,0.011637869,0.13942195,0.031967323,0.031403992,inf,inf,inf,inf,1,1,1,1,3,0,3,3,1,1,0
61104012,15543965,30.7872066,103.8586443,-0.001276108,-0.004734893,-0.018914642,-0.00095907715,-0.010018757,0.0,0.018369565,0.004946975,-0.038902182,-0.05581931,0.030264545,0.009913368,0.05628799,-0.02804058,0.12189014,-0.04051843,0.15659066,0.0,0.12451675,0.038902182,0.012454176,0.13862766,0.03574928,0.034032673,inf,inf,inf,inf,1,1,1,1,3,0,3,3,1,1,0
61203971,15543965,30.7872066,103.8586443,0.0015560637,-0.0047109816,-0.023375256,-0.00095907715,-0.010018757,0.0,0.021794884,0.003680742,-0.042382892,-0.058862988,0.030264545,0.009913368,0.05628799,0.05303493,-0.111920066,0.04628378,0.15665726,0.0,0.11976322,0.042382892,0.011600098,0.13673154,0.031657685,0.031301618,inf,inf,inf,inf,1,1,1,1,3,0,3,3,1,1,0
61304013,15543965,30.7872066,103.8586443,0.004340787,-0.004646648,-0.029175311,-0.00095907715,-0.010018757,0.0,0.024922505,0.003659735,-0.04739984,-0.06427193,0.030264545,0.009913368,0.05628799,-0.013311261,0.052488558,-0.08945651,0.15671036,0.0,0.12326111,0.04739984,0.012403908,0.13631827,0.035437465,0.033945497,inf,inf,inf,inf,1,1,1,1,3,0,3,3,1,1,0
61408011,15543965,30.7872066,103.8586443,0.0073326384,-0.0043555093,-0.033207238,-0.00095907715,-0.010018757,0.0,0.027752694,0.004478733,-0.050105352,-0.06478328,0.030264545,0.009913368,0.05628799,-0.011170937,0.038593348,-0.078321606,0.15678586,0.0,0.13168356,0.050105352,0.011781614,0.13463905,0.0323716,0.031618353,inf,inf,inf,inf,1,1,1,1,3,0,3,3,1,1,0
61507959,15543965,30.7872066,103.8586443,0.010495911,-0.0036495307,-0.035829376,-0.00095907715,-0.010018757,0.0,0.031643692,0.006012199,-0.05066693,-0.062200826,0.030264545,0.009913368,0.05628799,0.047638793,0.013095592,0.01719078,0.15690564,0.0,0.1296424,0.05066693,0.01243543,0.13420635,0.03562218,0.034066435,inf,inf,inf,inf,1,1,1,1,3,0,3,3,1,1,0
61611971,15543965,30.7872066,103.8586443,0.013123169,-0.0028570371,-0.033956077,-0.00095907715,-0.010018757,0.0,0.03140473,0.0068478608,-0.046120033,-0.050018128,0.030264545,0.009913368,0.05628799,0.042346835,0.018378643,0.025351467,0.15714426,0.0,0.1574572,0.046120033,0.011771344,0.13262947,0.032181207,0.03162406,inf,inf,inf,inf,1,1,1,1,3,0,3,3,1,1,0
61711967,15543965,30.7872066,103.8586443,0.014066885,-0.0022631385,-0.024999615,-0.00095907715,-0.010018757,0.0,0.028250696,0.007554296,-0.036560684,-0.028381072,0.030264545,0.009913368,0.05628799,0.022169374,-0.07967264,-0.01949637,0.15750974,0.0,0.1486949,0.036560684,0.012611441,0.13229965,0.035834502,0.034286857,inf,inf,inf,inf,1,1,1,1,3,0,3,3,1,1,0
61812768,15543965,30.7872066,103.8586443,0.014435021,-0.0016902519,-0.016409876,-0.00095907715,-0.010018757,0.0,0.02591533,0.008223205,-0.029019656,-0.011662095,0.030264545,0.009913368,0.05628799,-0.01460697,0.12179835,-0.05775751,0.15789413,0.0,0.15084538,0.029019656,0.011740667,0.13075629,0.031829964,0.031561796,inf,inf,inf,inf,1,1,1,1,3,0,3,3,1,1,0
61912790,15543965,30.7872066,103.8586443,0.013444202,-0.0013856157,-0.0060559968,-0.00095907715,-0.010018757,0.0,0.020683639,0.007520191,-0.021029381,0.0046340665,0.030264545,0.009913368,0.05628799,0.029391257,-0.056547496,0.041678883,0.15821156,0.0,0.14092414,0.021029381,0.012593157,0.1301858,0.035575274,0.03425481,inf,inf,inf,inf,1,1,1,1,3,0,3,3,1,1,0
62016782,15543965,30.7872066,103.8586443,0.012084173,-0.0010520922,0.006659926,-0.00095907715,-0.010018757,0.0,0.016569886,0.00749189,-0.011204163,0.023472989,0.030264545,0.009913368,0.05628799,0.04560134,-0.08092118,0.04712692,0.15847278,0.0,0.14920607,0.011204163,0.011944676,0.12881969,0.03253845,0.031915482,inf,inf,inf,inf,1,1,1,1,3,0,3,3,1,1,0
62116837,15543965,30.7872066,103.8586443,0.01072896,-0.00064758153,0.018721571,-0.00095907715,-0.010018757,0.0,0.013773635,0.007874809,-0.0015731341,0.039498843,0.030264545,0.009913368,0.05628799,-0.03430562,-0.012190563,-0.047389116,0.15870821,0.0,0.1355572,0.0015731341,0.0126359435,0.12849589,0.035739057,0.034389384,inf,inf,inf,inf,1,1,1,1,3,0,3,3,1,1,0
62220793,15543965,30.7872066,103.8586443,0.009247668,-0.0003973416,0.023434985,-0.00095907715,-0.010018757,0.0,0.011735802,0.007253359,-0.0008299048,0.036679734,0.030264545,0.009913368,0.05628799,-0.025117561,0.014639399,-0.06387668,0.15883134,0.0,0.1,0.0008299048,0.011951293,0.12720226,0.032372102,0.031929195,inf,inf,inf,inf,1,1,1,1,3,0,3,3,1,1,0
62320762,15543965,30.7872066,103.8586443,0.007881021,-0.00038705277,0.020947881,-0.00095907715,-0.010018757,0.0,0.010188965,0.006496804,-0.0074943556,0.020931065,0.030264545,0.009913368,0.05628799,0.009799078,0.07908402,-0.004501082,0.15878768,0.0,0.102692805,0.0074943556,0.012799238,0.1267141,0.035904493,0.034615748,inf,inf,inf,inf,1,1,1,1,3,0,3,3,1,1,0
62420737,15543965,30.7872066,103.8586443,0.0070452467,-0.00049516984,0.017409373,-0.00095907715,-0.010018757,0.0,0.009493732,0.0052547385,-0.014138901,0.007100865,0.030264545,0.009913368,0.05628799,0.011840613,-0.12769245,0.014072221,0.15873577,0.0,0.1,0.014138901,0.011929711,0.12543853,0.03222941,0.031948697,inf,inf,inf,inf,1,1,1,1,3,0,3,3,1,1,0
62524852,15543965,30.7872066,103.8586443,0.006502196,-0.0007999934,0.01156201,-0.00095907715,-0.010018757,0.0,0.009474962,0.004435065,-0.021601932,-0.0075940825,0.030264545,0.009913368,0.05628799,0.041104916,-0.11856248,0.008208795,0.15865013,0.0,0.1,0.021601932,0.012786143,0.12498705,0.035784718,0.034645125,inf,inf,inf,inf,1,1,1,1,3,0,3,3,1,1,0
62624824,15543965,30.7872066,103.8586443,0.005529897,-0.001203407,0.008699884,-0.00095907715,-0.010018757,0.0,0.007520443,0.0040679434,-0.023744753,-0.011943853,0.030264545,0.009913368,0.05628799,-0.053857837,0.11223789,-0.059692353,0.15860656,0.0,0.11187124,0.023744753,0.01211132,0.12384572,0.032758333,0.03226504,inf,inf,inf,inf,1,1,1,1,3,0,3,3,1,1,0
62724863,15543965,30.7872066,103.8586443,0.0043406854,-0.001590731,0.00744508,-0.00095907715,-0.010018757,0.0,0.005751783,0.002971882,-0.023708284,-0.012085606,0.030264545,0.009913368,0.05628799,0.02425058,-0.06253254,0.043529976,0.15857472,0.0,0.1121866,0.023708284,0.012801938,0.12337554,0.035841335,0.0347609,inf,inf,inf,inf,1,1,1,1,3,0,3,3,1,1,0
62828761,15543965,30.7872066,103.8586443,0.0033338012,-0.0021395271,0.00114419,-0.00095907715,-0.010018757,0.0,0.0052162977,0.0014504194,-0.030567564,-0.024454506,0.030264545,0.009913368,0.05628799,0.037627805,-0.07955687,0.028971152,0.15855655,0.0,0.1,0.030567564,0.011642822,0.122296326,0.032180123,0.03234508,inf,inf,inf,inf,1,1,1,1,3,0,3,3,1,1,0
62928796,15543965,30.7872066,103.8586443,0.0026705281,-0.0027164316,-0.0072706463,-0.00095907715,-0.010018757,0.0,0.004594965,0.0008831934,-0.039767634,-0.03933817,0.030264545,0.009913368,0.05628799,-0.019582009,-0.028518649,-0.06917125,0.15851206,0.0,0.10113653,0.039767634,0.012439681,0.12214898,0.03542959,0.03506077,inf,inf,inf,inf,1,1,1,1,3,0,3,3,1,1,0
63032828,15543965,30.7872066,103.8586443,0.0030200141,-0.0029463996,-0.012966103,-0.00095907715,-0.010018757,0.0,0.0073948675,0.0010502739,-0.044134546,-0.04449921,0.030264545,0.009913368,0.05628799,-0.013463414,-0.0056088874,-0.07760467,0.15848781,0.0,0.112624295,0.044134546,0.011793818,0.12110608,0.032349776,0.032537956,inf,inf,inf,inf,1,1,1,1,3,0,3,3,1,1,0
63133593,15543965,30.7872066,103.8586443,0.0043585524,-0.002755465,-0.017331762,-0.00095907715,-0.010018757,0.0,0.011055449,0.001989307,-0.0449011,-0.044566482,0.030264545,0.009913368,0.05628799,0.021407712,0.12429869,-0.034716107,0.15851268,0.0,0.11287552,0.0449011,0.012410477,0.12092117,0.035189647,0.035049357,inf,inf,inf,inf,1,1,1,1,3,0,3,3,1,1,0
63233646,15543965,30.7872066,103.8586443,0.0049429233,-0.0030718858,-0.018418405,-0.00095907715,-0.010018757,0.0,0.01103273,0.0003091799,-0.042082533,-0.037914854,0.030264545,0.009913368,0.05628799,0.035808742,-0.10797771,0.033121124,0.15860134,0.0,0.12215389,0.042082533,0.011806718,0.119929254,0.032428976,0.032618515,inf,inf,inf,inf,1,1,1,1,3,0,3,3,1,1,0
63337606,15543965,30.7872066,103.8586443,0.0049674874,-0.003728196,-0.01853794,-0.00095907715,-0.010018757,0.0,0.009423885,-0.0009194167,-0.038558055,-0.030827504,0.030264545,0.009913368,0.05628799,0.043728486,-0.11507048,0.05034188,0.15871085,0.0,0.120406665,0.038558055,0.012636267,0.11961923,0.03567628,0.03536781,inf,inf,inf,inf,1,1,1,1,3,0,3,3,1,1,0
63437557,15543965,30.7872066,103.8586443,0.005062227,-0.004423028,-0.018388605,-0.00095907715,-0.010018757,0.0,0.00917731,-0.0012893653,-0.03592834,-0.025614599,0.030264545,0.009913368,0.05628799,-0.022566767,0.07189709,-0.07600202,0.15884139,0.0,0.119551055,0.03592834,0.011824308,0.1186111,0.03243421,0.03269129,inf,inf,inf,inf,1,1,1,1,3,0,3,3,1,1,0
63537564,15543965,30.7872066,103.8586443,0.005167918,-0.005154631,-0.018434422,-0.00095907715,-0.010018757,0.0,0.0089750085,-0.0022279054,-0.032916307,-0.021263242,0.030264545,0.009913368,0.05628799,0.03646253,0.017080553,0.027357662,0.15894762,0.0,0.11556986,0.032916307,0.012631923,0.11852947,0.03558867,0.03542595,inf,inf,inf,inf,1,1,1,1,3,0,3,3,1,1,0
63641542,15543965,30.7872066,103.8586443,0.0056953235,-0.006772867,-0.026392207,-0.00095907715,-0.010018757,0.0,0.01065116,-0.0057021687,-0.040714137,-0.036120396,0.030264545,0.009913368,0.05628799,0.051589724,-0.00754949,0.02251652,0.15902944,0.0,0.1,0.040714137,0.011971485,0.11740664,0.032590475,0.03286085,inf,inf,inf,inf,1,1,1,1,3,0,3,3,1,1,0
63741596,15543965,30.7872066,103.8586443,0.0066119255,-0.008882048,-0.036551397,-0.00095907715,-0.010018757,0.0,0.011832802,-0.008839434,-0.05032492,-0.052434947,0.030264545,0.009913368,0.05628799,0.017362028,-0.057801086,-0.037670195,0.15907016,0.0,0.1,0.05032492,0.012597223,0.1172879,0.03535602,0.03538921,inf,inf,inf,inf,1,1,1,1,3,0,3,3,1,1,0
63841587,15543965,30.7872066,103.8586443,0.0067043914,-0.010887373,-0.03800351,-0.00095907715,-0.010018757,0.0,0.009956004,-0.01068827,-0.04596595,-0.04386631,0.030264545,0.009913368,0.05628799,-0.020931534,0.097761944,-0.021667585,0.15909718,0.0,0.12252554,0.04596595,0.011978156,0.11641485,0.032787558,0.03301054,inf,inf,inf,inf,1,1,1,1,3,0,3,3,1,1,0
63945581,15543965,30.7872066,103.8586443,0.0065098265,-0.012866002,-0.03827449,-0.00095907715,-0.010018757,0.0,0.008206381,-0.012855299,-0.040987324,-0.03485237,0.030264545,0.009913368,0.05628799,-0.011592238,0.077535644,0.0011625264,0.15915038,0.0,0.119795546,0.040987324,0.012812893,0.11618299,0.035893817,0.03575537,inf,inf,inf,inf,1,1,1,1,3,0,3,3,1,1,0
64045644,15543965,30.7872066,103.8586443,0.006653938,-0.014356574,-0.037814055,-0.00095907715,-0.010018757,0.0,0.008506776,-0.013409122,-0.036303688,-0.02695671,0.030264545,0.009913368,0.05628799,0.032517336,-0.15024549,0.03232576,0.15924112,0.0,0.120237455,0.036303688,0.011966956,0.11527876,0.032648303,0.033030726,inf,inf,inf,inf,1,1,1,1,3,0,3,3,1,1,0
64149568,15543965,30.7872066,103.8586443,0.007019876,-0.015668904,-0.036571503,-0.00095907715,-0.010018757,0.0,0.008896942,-0.013476778,-0.03288356,-0.020740561,0.030264545,0.009913368,0.05628799,0.048790943,-0.13427159,0.05610746,0.15938276,0.0,0.11917046,0.03288356,0.01279433,0.115070544,0.035747174,0.035781015,inf,inf,inf,inf,1,1,1,1,3,0,3,3,1,1,0
64250362,15543965,30.7872066,103.8586443,0.0069845864,-0.016521784,-0.033974033,-0.00095907715,-0.010018757,0.0,0.00831957,-0.012777186,-0.0288475,-0.013465554,0.030264545,0.009913368,0.05628799,-0.017924465,0.04199204,-0.069846876,0.1594718,0.0,0.120119154,0.0288475,0.012120495,0.11425088,0.032809556,0.033181045,inf,inf,inf,inf,1,1,1,1,3,0,3,3,1,1,0
64350408,15543965,30.7872066,103.8586443,0.0069391923,-0.017194211,-0.03174069,-0.00095907715,-0.010018757,0.0,0.008290224,-0.012643833,-0.02566245,-0.008069763,0.030264545,0.009913368,0.05628799,0.056833163,0.022140015,0.025039604,0.15949242,0.0,0.11815038,0.02566245,0.012778677,0.11419447,0.03555874,0.03572496,inf,inf,inf,inf,1,1,1,1,3,0,3,3,1,1,0
64450361,15543965,30.7872066,103.8586443,0.0060100527,-0.017924566,-0.029603936,-0.00095907715,-0.010018757,0.0,0.0051188907,-0.01261065,-0.024072085,-0.005156547,0.030264545,0.009913368,0.05628799,0.003378352,-0.086802095,-0.0023664946,0.15951478,0.0,0.113636024,0.024072085,0.012101726,0.11340586,0.032544803,0.033079475,inf,inf,inf,inf,1,1,1,1,3,0,3,3,1,1,0
64554418,15543965,30.7872066,103.8586443,0.0045082024,-0.018863171,-0.029232182,-0.00095907715,-0.010018757,0.0,0.0015888325,-0.012860833,-0.023033502,-0.004574848,0.030264545,0.009913368,0.05628799,0.027789764,-0.09065828,-0.0071520945,0.15950479,0.0,0.10933172,0.023033502,0.012941913,0.11324249,0.035702325,0.035836574,inf,inf,inf,inf,1,1,1,1,3,0,3,3,1,1,0
64654450,15543965,30.7872066,103.8586443,0.003128009,-0.019362612,-0.03041188,-0.00095907715,-0.010018757,0.0,-0.00011284457,-0.011329632,-0.022922866,-0.006215174,0.030264545,0.009913368,0.05628799,-0.015565797,0.12302537,-0.015889358,0.15944886,0.0,0.106355205,0.022922866,0.012107227,0.1124217,0.032739777,0.033174552,inf,inf,inf,inf,1,1,1,1,3,0,3,3,1,1,0
64758389,15543965,30.7872066,103.8586443,0.0017129426,-0.01975136,-0.0314043,-0.00095907715,-0.010018757,0.0,-0.001462393,-0.01040548,-0.023601655,-0.0081286235,0.030264545,0.009913368,0.05628799,-0.0028791463,0.09956556,-0.003767353,0.15944892,0.0,0.10665977,0.023601655,0.012960371,0.1122808,0.035848506,0.03593914,inf,inf,inf,inf,1,1,1,1,3,0,3,3,1,1,0
64858413,15543965,30.7872066,103.8586443,-0.00033892255,-0.0193694,-0.030456739,-0.00095907715,-0.010018757,0.0,-0.0048084864,-0.008137326,-0.02105748,-0.004610587,0.030264545,0.009913368,0.05628799,0.021207836,-0.11728173,0.05721273,0.15948044,0.0,0.11064299,0.02105748,0.011808093,0.11153696,0.03259977,0.033458278,inf,inf,inf,inf,1,1,1,1,3,0,3,3,1,1,0
64958407,15543965,30.7872066,103.8586443,-0.0023883968,-0.018861886,-0.029808518,-0.00095907715,-0.010018757,0.0,-0.0073137563,-0.005831878,-0.019542182,-0.0026480653,0.030264545,0.009913368,0.05628799,-0.027476154,0.05925003,-0.036978222,0.15950988,0.0,0.10934889,0.019542182,0.012973201,0.111535706,0.03586206,0.036016256,inf,inf,inf,inf,1,1,1,1,3,0,3,3,1,1,0
65062375,15543965,30.7872066,103.8586443,-0.0041606766,-0.018060202,-0.031154495,-0.00095907715,-0.010018757,0.0,-0.0078568,-0.003946593,-0.021577472,-0.006573893,0.030264545,0.009913368,0.05628799,-0.036240283,0.08513173,-0.05565236,0.15951401,0.0,0.10248576,0.021577472,0.011795013,0.110638775,0.032415252,0.03342501,inf,inf,inf,inf,1,1,1,1,3,0,3,3,1,1,0
65162430,15543965,30.7872066,103.8586443,-0.005587471,-0.017231047,-0.033530116,-0.00095907715,-0.010018757,0.0,-0.008690049,-0.0027791054,-0.024132274,-0.011433182,0.030264545,0.009913368,0.05628799,0.023846509,-0.019331781,0.0325684,0.1595284,0.0,0.1,0.024132274,0.011273459,0.11001692,0.029504418,0.030995851,inf,inf,inf,inf,1,1,1,1,3,0,3,3,1,1,0
65262393,15543965,30.7872066,103.8586443,-0.0064633624,-0.016373659,-0.040178027,-0.00095907715,-0.010018757,0.0,-0.007734847,-0.0014105961,-0.032040846,-0.024769582,0.030264545,0.009913368,0.05628799,-0.0041923597,-0.065007076,-0.04277539,0.1595129,0.0,0.1,0.032040846,0.011820501,0.10978524,0.03264616,0.033578206,inf,inf,inf,inf,1,1,1,1,3,0,3,3,1,1,0
65367220,15543965,30.7872066,103.8586443,-0.0071047503,-0.015558964,-0.04686984,-0.00095907715,-0.010018757,0.0,-0.006892389,-0.00075035146,-0.0377856,-0.0339993,0.030264545,0.009913368,0.05628799,0.0056718276,-0.054584585,0.021501612,0.15947473,0.0,0.1,0.0377856,0.012581327,0.109878324,0.035396405,0.03635954,inf,inf,inf,inf,1,1,1,1,3,0,3,3,1,1,0
65467274,15543965,30.7872066,103.8586443,-0.0072501632,-0.014438322,-0.04930453,-0.00095907715,-0.010018757,0.0,-0.0056799925,0.001226034,-0.036929503,-0.0313902,0.030264545,0.009913368,0.05628799,-0.017022574,0.13098478,-0.024663173,0.1594523,0.0,0.10864418,0.036929503,0.011984069,0.10918298,0.032918155,0.033814434,inf,inf,inf,inf,1,1,1,1,3,0,3,3,1,1,0
65567199,15543965,30.7872066,103.8586443,-0.0072332104,-0.013374451,-0.052232586,-0.00095907715,-0.010018757,0.0,-0.0040497393,0.0026979637,-0.036933474,-0.030663311,0.030264545,0.009913368,0.05628799,0.03268511,-0.10470146,0.041950345,0.15947594,0.0,0.10715553,0.036933474,0.012615304,0.109242536,0.035406195,0.03640724,inf,inf,inf,inf,1,1,1,1,3,0,3,3,1,1,0
65671199,15543965,30.7872066,103.8586443,-0.006891973,-0.0123072425,-0.04784111,-0.00095907715,-0.010018757,0.0,-0.002610196,0.003260525,-0.025956128,-0.012221379,0.030264545,0.009913368,0.05628799,0.05765765,-0.09525639,0.05447629,0.1594874,0.0,0.12385687,0.025956128,0.011982673,0.10840099,0.032729268,0.033759587,inf,inf,inf,inf,1,1,1,1,3,0,3,3,1,1,0
65771263,15543965,30.7872066,103.8586443,-0.006397393,-0.0113837775,-0.04196789,-0.00095907715,-0.010018757,0.0,-0.0012550785,0.0044631646,-0.017606728,0.0020876986,0.030264545,0.009913368,0.05628799,-0.02265824,0.07757624,-0.044289105,0.15950052,0.0,0.12034341,0.017606728,0.012763621,0.108370714,0.03551834,0.03654199,inf,inf,inf,inf,1,1,1,1,3,0,3,3,1,1,0
65875220,15543965,30.7872066,103.8586443,-0.0051003764,-0.0105907265,-0.035449047,-0.00095907715,-0.010018757,0.0,0.002282163,0.004730971,-0.0096319495,0.014610884,0.030264545,0.009913368,0.05628799,-0.033977848,0.07840626,-0.025587223,0.15948264,0.0,0.11788066,0.0096319495,0.012103786,0.10770136,0.032810643,0.03384514,inf,inf,inf,inf,1,1,1,1,3,0,3,3,1,1,0
65975216,15543965,30.7872066,103.8586443,-0.0035533332,-0.009960396,-0.029763028,-0.00095907715,-0.010018757,0.0,0.0054538944,0.004841073,-0.004508291,0.02224092,0.030264545,0.009913368,0.05628799,0.040593825,-0.007133597,0.052900165,0.15945396,0.0,0.111457735,0.004508291,0.011393908,0.10708883,0.029510919,0.031131858,inf,inf,inf,inf,1,1,1,1,3,0,3,3,1,1,0
66075229,15543965,30.7872066,103.8586443,-0.0013538004,-0.009443398,-0.024635034,-0.00095907715,-0.010018757,0.0,0.008792799,0.0050741597,-0.0017727711,0.025880951,0.030264545,0.009913368,0.05628799,-0.0014114159,-0.0454859,-0.048263725,0.15946339,0.0,0.109226406,0.0017727711,0.012117524,0.10713475,0.033021178,0.033941608,inf,inf,inf,inf,1,1,1,1,3,0,3,3,1,1,0
66179193,15543965,30.7872066,103.8586443,0.0009855144,-0.008956938,-0.020417973,-0.00095907715,-0.010018757,0.0,0.011747059,0.0051276432,0.00066284445,0.028220462,0.030264545,0.009913368,0.05628799,-0.010913972,-0.027846575,-0.025596727,0.15946643,0.0,0.10470441,-0.00066284445,0.011552893,0.10642983,0.029997956,0.031411465,inf,inf,inf,inf,1,1,1,1,3,0,3,3,1,1,0
66279278,15543965,30.7872066,103.8586443,0.0028713243,-0.008305227,-0.01758021,-0.00095907715,-0.010018757,0.0,0.013066131,0.0064493655,0.0022356468,0.028741363,0.030264545,0.009913368,0.05628799,-0.010465178,0.120268814,-0.009489235,0.15941831,0.0,0.102227695,-0.0022356468,0.012133033,0.106442094,0.033081777,0.03400767,inf,inf,inf,inf,1,1,1,1,3,0,3,3,1,1,0
66379219,15543965,30.7872066,103.8586443,0.004647925,-0.0076002846,-0.014580493,-0.00095907715,-0.010018757,0.0,0.013928448,0.006722988,0.003834675,0.029412795,0.030264545,0.009913368,0.05628799,0.06742857,-0.13294052,0.049865413,0.15939383,0.0,0.11021158,-0.003834675,0.0115506435,0.10575432,0.029822886,0.031370904,inf,inf,inf,inf,1,1,1,1,3,0,3,3,1,1,0
66483228,15543965,30.7872066,103.8586443,0.0059310836,-0.007014742,-0.007660906,-0.00095907715,-0.010018757,0.0,0.013482622,0.0070135957,0.010838415,0.039265163,0.030264545,0.009913368,0.05628799,0.028379781,-0.10039588,0.03868242,0.15938418,0.0,0.10744794,-0.010838415,0.012297149,0.10568568,0.03329205,0.034183484,inf,inf,inf,inf,1,1,1,1,3,0,3,3,1,1,0
66583972,15543965,30.7872066,103.8586443,0.0070260335,-0.006411659,-0.0019449127,-0.00095907715,-0.010018757,0.0,0.0134369545,0.008041849,0.015599998,0.044811834,0.030264545,0.009913368,0.05628799,0.000348171,0.053120427,-0.04950659,0.15932725,0.0,0.10345992,-0.015599998,0.012936248,0.10581749,0.035702396,0.0367666,inf,inf,inf,inf,1,1,1,1,3,0,3,3,1,1,0
66683989,15543965,30.7872066,103.8586443,0.0073794145,-0.006005432,-0.0073269974,-0.00095907715,-0.010018757,0.0,0.012294367,0.007666393,0.0035497458,0.02161343,0.030264545,0.009913368,0.05628799,0.010441489,0.054133978,0.032241516,0.15925138,0.0,0.1,-0.0035497458,0.012233985,0.10519996,0.032769874,0.033931356,inf,inf,inf,inf,1,1,1,1,3,0,3,3,1,1,0
66787986,15543965,30.7872066,103.8586443,0.007473232,-0.0057439646,-0.014602654,-0.00095907715,-0.010018757,0.0,0.011474948,0.0067177205,-0.007877649,0.0012527881,0.030264545,0.009913368,0.05628799,0.022985118,0.028260162,0.0144828735,0.15922017,0.0,0.1,0.007877649,0.011651164,0.10454138,0.03003798,0.03149102,inf,inf,inf,inf,1,1,1,1,3,0,3,3,1,1,0
66887990,15543965,30.7872066,103.8586443,0.007217075,-0.005898787,-0.020092318,-0.00095907715,-0.010018757,0.0,0.010760828,0.005721527,-0.013255972,-0.0083682565,0.030264545,0.009913368,0.05628799,0.027752455,-0.08442091,-0.0020382765,0.15920207,0.0,0.1,0.013255972,0.012240587,0.10459272,0.03314251,0.03409255,inf,inf,inf,inf,1,1,1,1,3,0,3,3,1,1,0
66987989,15543965,30.7872066,103.8586443,0.0069495337,-0.0062025953,-0.025383187,-0.00095907715,-0.010018757,0.0,0.010042586,0.0048560845,-0.017042782,-0.014971845,0.030264545,0.009913368,0.05628799,-0.03894984,0.11506779,-0.039443687,0.15916543,0.0,0.1,0.017042782,0.01308253,0.10480914,0.035946976,0.036896102,inf,inf,inf,inf,1,1,1,1,3,0,3,3,1,1,0
67092046,15543965,30.7872066,103.8586443,0.0072022397,-0.0057275314,-0.029250795,-0.00095907715,-0.010018757,0.0,0.0106450915,0.006327791,-0.018616155,-0.017298,0.030264545,0.009913368,0.05628799,-0.035904963,0.12370404,-0.04198303,0.15915397,0.0,0.1,0.018616155,0.011837052,0.10419927,0.03225233,0.0339902,inf,inf,inf,inf,1,1,1,1,3,0,3,3,1,1,0
67191966,15543965,30.7872066,103.8586443,0.0077646677,-0.0048715114,-0.031017149,-0.00095907715,-0.010018757,0.0,0.011401612,0.0077933874,-0.017450025,-0.014862615,0.030264545,0.009913368,0.05628799,0.035663165,-0.080075376,0.078312054,0.15916842,0.0,0.11774061,0.017450025,0.011596775,0.10365129,0.02971771,0.031314354,inf,inf,inf,inf,1,1,1,1,3,0,3,3,1,1,0
67295971,15543965,30.7872066,103.8586443,0.008496962,-0.0038137934,-0.025783088,-0.00095907715,-0.010018757,0.0,0.012587124,0.008854206,-0.007052541,0.0027419399,0.030264545,0.009913368,0.05628799,0.043568604,-0.109184444,0.07422899,0.15913928,0.0,0.11442551,0.007052541,0.011850313,0.10377122,0.032616645,0.034138232,inf,inf,inf,inf,1,1,1,1,3,0,3,3,1,1,0
67395994,15543965,30.7872066,103.8586443,0.009415672,-0.0026633213,-0.020246886,-0.00095907715,-0.010018757,0.0,0.013241858,0.010153665,0.0004574115,0.014935297,0.030264545,0.009913368,0.05628799,-0.025718436,0.052022878,-0.06668206,0.15906121,0.0,0.11212502,-0.0004574115,0.0125951115,0.103869535,0.03520315,0.036944326,inf,inf,inf,inf,1,1,1,1,3,0,3,3,1,1,0
67496764,15543965,30.7872066,103.8586443,0.010272183,-0.0018665871,-0.017603513,-0.00095907715,-0.010018757,0.0,0.013209399,0.009736581,0.0014910005,0.016120084,0.030264545,0.009913368,0.05628799,0.008929521,0.10293701,0.040128388,0.1589459,0.0,0.10126206,-0.0014910005,0.011778946,0.10321829,0.031972636,0.03380632,inf,inf,inf,inf,1,1,1,1,3,0,3,3,1,1,0
67596793,15543965,30.7872066,103.8586443,0.010838377,-0.0011392424,-0.017111382,-0.00095907715,-0.010018757,0.0,0.013012777,0.00983773,-0.0010589068,0.011442387,0.030264545,0.009913368,0.05628799,0.057420988,-0.10526525,0.02606571,0.15884697,0.0,0.1,0.0010589068,0.011308838,0.10274111,0.029874517,0.03158714,inf,inf,inf,inf,1,1,1,1,3,0,3,3,1,1,0
67700760,15543965,30.7872066,103.8586443,0.01089757,-0.00017739447,-0.01911621,-0.00095907715,-0.010018757,0.0,0.011059208,0.010487545,-0.005615185,0.003481483,0.030264545,0.009913368,0.05628799,0.0415703,-0.11967286,0.040680982,0.1587724,0.0,0.1,0.005615185,0.012054204,0.10289182,0.03323024,0.03444219,inf,inf,inf,inf,1,1,1,1,3,0,3,3,1,1,0
67800778,15543965,30.7872066,103.8586443,0.010947673,0.00058371335,-0.022537488,-0.00095907715,-0.010018757,0.0,0.009241178,0.010776465,-0.010475596,-0.0049725077,0.030264545,0.009913368,0.05628799,-0.04839236,0.09522682,-0.05740703,0.15870513,0.0,0.1,0.010475596,0.011377168,0.1023591,0.030141076,0.03177147,inf,inf,inf,inf,1,1,1,1,3,0,3,3,1,1,0
67904853,15543965,30.7872066,103.8586443,0.011134152,0.00076955894,-0.02862117,-0.00095907715,-0.010018757,0.0,0.009035993,0.009484561,-0.018019151,-0.017200246,0.030264545,0.009913368,0.05628799,-0.034571737,0.1253692,-0.041528177,0.1586248,0.0,0.1,0.018019151,0.012101878,0.10251651,0.033333723,0.03460444,inf,inf,inf,inf,1,1,1,1,3,0,3,3,1,1,0
68004833,15543965,30.7872066,103.8586443,0.011415584,0.0006117263,-0.034395214,-0.00095907715,-0.010018757,0.0,0.009495479,0.0073678433,-0.023806103,-0.025768163,0.030264545,0.009913368,0.05628799,0.025552679,-0.04472906,0.02460503,0.1585922,0.0,0.1,0.023806103,0.011524913,0.10203728,0.030326393,0.032009136,inf,inf,inf,inf,1,1,1,1,3,0,3,3,1,1,0
68104846,15543965,30.7872066,103.8586443,0.0118061425,-5.1559655e-06,-0.040171918,-0.00095907715,-0.010018757,0.0,0.009344854,0.005202289,-0.02864721,-0.032420468,0.030264545,0.009913368,0.05628799,0.001443057,-0.043276794,-0.045885,0.15861413,0.0,0.1,0.02864721,0.012097671,0.102153815,0.033180412,0.03462407,inf,inf,inf,inf,1,1,1,1,3,0,3,3,1,1,0
68208764,15543965,30.7872066,103.8586443,0.012110694,-0.00079267204,-0.045732636,-0.00095907715,-0.010018757,0.0,0.00891984,0.0031922269,-0.03182157,-0.036222726,0.030264545,0.009913368,0.05628799,-0.017673036,-0.026842723,-0.042615242,0.15858114,0.0,0.10102299,0.03182157,0.011533755,0.10155007,0.030415721,0.032105703,inf,inf,inf,inf,1,1,1,1,3,0,3,3,1,1,0
68308791,15543965,30.7872066,103.8586443,0.012156897,-0.0014353375,-0.050313085,-0.00095907715,-0.010018757,0.0,0.008416316,0.0028368875,-0.032654896,-0.036751512,0.030264545,0.009913368,0.05628799,-0.011669266,0.10950936,0.011388149,0.15851967,0.0,0.10182522,0.032654896,0.012288086,0.101736076,0.033619195,0.03494086,inf,inf,inf,inf,1,1,1,1,3,0,3,3,1,1,0
68408802,15543965,30.7872066,103.8586443,0.012222638,-0.0017156221,-0.053614624,-0.00095907715,-0.010018757,0.0,0.007574385,0.0025854378,-0.033155393,-0.0358904,0.030264545,0.009913368,0.05628799,0.035379842,-0.10724063,0.0482219,0.1585029,0.0,0.10954176,0.033155393,0.011514206,0.10121195,0.03008728,0.03199925,inf,inf,inf,inf,1,1,1,1,3,0,3,3,1,1,0
68512823,15543965,30.7872066,103.8586443,0.011946503,-0.0011627965,-0.055305075,-0.00095907715,-0.010018757,0.0,0.0067873257,0.0050828666,-0.0314535,-0.031527687,0.030264545,0.009913368,0.05628799,0.03964637,-0.11061225,0.023673935,0.1584394,0.0,0.10948998,0.0314535,0.0122495275,0.10127408,0.0333339,0.034831673,inf,inf,inf,inf,1,1,1,1,3,0,3,3,1,1,0
68612774,15543965,30.7872066,103.8586443,0.011552943,-0.00047824965,-0.05212737,-0.00095907715,-0.010018757,0.0,0.005463322,0.0069397604,-0.023128757,-0.016429354,0.030264545,0.009913368,0.05628799,-0.03219334,0.08309108,-0.03748945,0.15839903,0.0,0.12867755,0.023128757,0.011692463,0.100809515,0.030732365,0.0323213,inf,inf,inf,inf,1,1,1,1,3,0,3,3,1,1,0
68713641,15543965,30.7872066,103.8586443,0.011122902,0.00010595599,-0.044791333,-0.00095907715,-0.010018757,0.0,0.0044875387,0.00664425,-0.010514989,0.0043450072,0.030264545,0.009913368,0.05628799,0.011646241,0.032168556,0.039838348,0.15837331,0.0,0.122462966,0.010514989,0.012285221,0.10083267,0.033545863,0.03493761,inf,inf,inf,inf,1,1,1,1,3,0,3,3,1,1,0
68817560,15543965,30.7872066,103.8586443,0.010414278,0.00034161535,-0.03798268,-0.00095907715,-0.010018757,0.0,0.0028121755,0.0055265613,-0.0013644164,0.017822456,0.030264545,0.009913368,0.05628799,0.0120175965,0.023517288,0.025504913,0.15841375,0.0,0.11092904,0.0013644164,0.011686945,0.10037446,0.03047059,0.032218084,inf,inf,inf,inf,1,1,1,1,3,0,3,3,1,1,0
68917565,15543965,30.7872066,103.8586443,0.008970312,-0.00062644144,-0.032612428,-0.00095907715,-0.010018757,0.0,-0.00055239943,0.0020199746,0.0023875893,0.02289604,0.030264545,0.009913368,0.05628799,-0.0022315371,-0.1076364,0.012002822,0.158469,0.0,0.108629525,-0.0023875893,0.012459482,0.10047113,0.033729766,0.03507577,inf,inf,inf,inf,1,1,1,1,3,0,3,3,1,1,0
69021567,15543965,30.7872066,103.8586443,0.0074510733,-0.0019788942,-0.029946307,-0.00095907715,-0.010018757,0.0,-0.0027659426,-0.0010405168,0.0011651582,0.019836452,0.030264545,0.009913368,0.05628799,-0.00064059027,-0.108633466,-0.0009368701,0.15839268,0.0,0.1,-0.0011651582,0.011840996,0.10001301,0.030907385,0.03247266,inf,inf,inf,inf,1,1,1,1,3,0,3,3,1,1,0
69121745,15543965,30.7872066,103.8586443,0.0060661985,-0.0035772987,-0.030160272,-0.00095907715,-0.010018757,0.0,-0.0041055167,-0.0033798735,-0.0034453927,0.012034827,0.030264545,0.009913368,0.05628799,-0.029646596,0.13077225,-0.038684405,0.15829624,0.0,0.1,0.0034453927,0.012444227,0.1001876,0.033727437,0.03509056,inf,inf,inf,inf,1,1,1,1,3,0,3,3,1,1,0
69221656,15543965,30.7872066,103.8586443,0.004898406,-0.0050971545,-0.03278267,-0.00095907715,-0.010018757,0.0,-0.004318705,-0.0050870585,-0.010366369,0.0008456675,0.030264545,0.009913368,0.05628799,0.017113315,-0.08328826,0.048228566,0.15824653,0.0,0.1,0.010366369,0.011848065,0.099609666,0.031079698,0.03256755,inf,inf,inf,inf,1,1,1,1,3,0,3,3,1,1,0
69325575,15543965,30.7872066,103.8586443,0.004111328,-0.006264679,-0.037113983,-0.00095907715,-0.010018757,0.0,-0.0043141437,-0.005190381,-0.0165712,-0.009262603,0.030264545,0.009913368,0.05628799,0.038670313,-0.08356182,0.06542348,0.15817465,0.0,0.1,0.0165712,0.0121206455,0.09985352,0.03356767,0.03540669,inf,inf,inf,inf,1,1,1,1,3,0,3,3,1,1,0
69425598,15543965,30.7872066,103.8586443,0.0038311041,-0.0069964626,-0.03702424,-0.00095907715,-0.010018757,0.0,-0.0031477935,-0.004592311,-0.014432094,-0.004880304,0.030264545,0.009913368,0.05628799,-0.0587063,0.022900553,-0.045442082,0.15822048,0.0,0.114985496,0.014432094,0.011855154,0.099341616,0.03098863,0.03254581,inf,inf,inf,inf,1,1,1,1,3,0,3,3,1,1,0
69525589,15543965,30.7872066,103.8586443,0.0041834423,-0.0073304116,-0.032042485,-0.00095907715,-0.010018757,0.0,-0.00087970856,-0.0038256133,-0.005981074,0.00933437,0.030264545,0.009913368,0.05628799,0.00040893254,0.04349745,0.016717175,0.158213,0.0,0.11299969,0.005981074,0.012120434,0.09959215,0.033475388,0.035386052,inf,inf,inf,inf,1,1,1,1,3,0,3,3,1,1,0
69629587,15543965,30.7872066,103.8586443,0.0048203375,-0.0075194417,-0.030348347,-0.00095907715,-0.010018757,0.0,0.0006303612,-0.0034013984,-0.006078863,0.009305274,0.030264545,0.009913368,0.05628799,0.012273348,0.060793586,0.019379826,0.15817712,0.0,0.1,0.006078863,0.011565976,0.099016875,0.03095809,0.03283779,inf,inf,inf,inf,1,1,1,1,3,0,3,3,1,1,0
69729566,15543965,30.7872066,103.8586443,0.005590128,-0.0075862203,-0.03147161,-0.00095907715,-0.010018757,0.0,0.001816877,-0.0027113706,-0.009426656,0.003664755,0.030264545,0.009913368,0.05628799,0.023433441,-0.10566661,0.016973289,0.15820938,0.0,0.1,0.009426656,0.012128931,0.09934471,0.03355099,0.035462644,inf,inf,inf,inf,1,1,1,1,3,0,3,3,1,1,0
69833602,15543965,30.7872066,103.8586443,0.006923737,-0.0076118396,-0.030526415,-0.00095907715,-0.010018757,0.0,0.0041542007,-0.0029981115,-0.007601409,0.0062647085,0.030264545,0.009913368,0.05628799,0.0027758353,-0.10291163,0.011030521,0.1582209,0.0,0.109102465,0.007601409,0.011541644,0.09877232,0.030654786,0.032714605,inf,inf,inf,inf,1,1,1,1,3,0,3,3,1,1,0
69933570,15543965,30.7872066,103.8586443,0.009025138,-0.007680093,-0.026915831,-0.00095907715,-0.010018757,0.0,0.008183094,-0.0026769056,-0.002286449,0.014303705,0.030264545,0.009913368,0.05628799,-0.044890396,0.12731402,-0.014660941,0.15818836,0.0,0.10741946,0.002286449,0.012271017,0.09892294,0.03365713,0.03555327,inf,inf,inf,inf,1,1,1,1,3,0,3,3,1,1,0
70034381,15543965,30.7872066,103.8586443,0.011197707,-0.0071872026,-0.021477502,-0.00095907715,-0.010018757,0.0,0.011466632,-0.00042117466,0.0048948172,0.02504033,0.030264545,0.009913368,0.05628799,0.016842397,-0.02799841,0.05033081,0.15822417,0.0,0.11158106,-0.0048948172,0.011545427,0.09853817,0.030856417,0.032810543,inf,inf,inf,inf,1,1,1,1,3,0,3,3,1,1,0
70134456,15543965,30.7872066,103.8586443,0.013641152,-0.0060626715,-0.014262889,-0.00095907715,-0.010018757,0.0,0.01430376,0.0024282346,0.012436387,0.035995357,0.030264545,0.009913368,0.05628799,0.00041774972,-0.05231573,-0.03384734,0.15828685,0.0,0.10862568,-0.012436387,0.012286879,0.09869782,0.03382369,0.0356527,inf,inf,inf,inf,1,1,1,1,3,0,3,3,1,1,0
70238360,15543965,30.7872066,103.8586443,0.015875377,-0.004609347,-0.004478612,-0.00095907715,-0.010018757,0.0,0.015527018,0.00487509,0.021791985,0.05005733,0.030264545,0.009913368,0.05628799,-0.016438674,-0.019724688,-0.01975121,0.15831009,0.0,0.11562386,-0.021791985,0.01171688,0.09825457,0.0310498,0.03293281,inf,inf,inf,inf,1,1,1,1,3,0,3,3,1,1,0
70338387,15543965,30.7872066,103.8586443,0.017675541,-0.0029382752,0.0062085213,-0.00095907715,-0.010018757,0.0,0.016035272,0.007457051,0.03173301,0.063949354,0.030264545,0.009913368,0.05628799,0.0067494214,0.09405224,0.03167734,0.15827318,0.0,0.108535245,-0.03173301,0.012269867,0.09836534,0.033612862,0.03555341,inf,inf,inf,inf,1,1,1,1,3,0,3,3,1,1,0
70442397,15543965,30.7872066,103.8586443,0.019303437,-0.0010469969,0.01664592,-0.00095907715,-0.010018757,0.0,0.016735073,0.009346955,0.03976498,0.07346276,0.030264545,0.009913368,0.05628799,0.0144260265,0.0701254,0.031481475,0.15820141,0.0,0.102410704,-0.03976498,0.011724358,0.0979244,0.03124483,0.033030283,inf,inf,inf,inf,1,1,1,1,3,0,3,3,1,1,0
70542393,15543965,30.7872066,103.8586443,0.020800112,0.00090460153,0.026010549,-0.00095907715,-0.010018757,0.0,0.017087402,0.0108882785,0.04534329,0.07869897,0.030264545,0.009913368,0.05628799,0.017759958,-0.10814231,0.026773596,0.15816967,0.0,0.1,-0.04534329,0.012487918,0.098108776,0.03417609,0.03587373,inf,inf,inf,inf,1,1,1,1,3,0,3,3,1,1,0
70642373,15543965,30.7872066,103.8586443,0.02213361,0.0025676952,0.03605252,-0.00095907715,-0.010018757,0.0,0.017891085,0.012576781,0.05175957,0.085643165,0.030264545,0.009913368,0.05628799,-0.019219816,0.1347236,-0.0077095507,0.15811302,0.0,0.1,-0.05175957,0.011730023,0.09760721,0.03116858,0.03300948,inf,inf,inf,inf,1,1,1,1,3,0,3,3,1,1,0
70746379,15543965,30.7872066,103.8586443,0.02351401,0.0041526277,0.046713192,-0.00095907715,-0.010018757,0.0,0.018484414,0.013240393,0.05830632,0.0919996,0.030264545,0.009913368,0.05628799,0.0066912174,0.124178834,-0.01149724,0.15798782,0.0,0.1,-0.05830632,0.012487413,0.09779801,0.034100395,0.03585383,inf,inf,inf,inf,1,1,1,1,3,0,3,3,1,1,0
70846366,15543965,30.7872066,103.8586443,0.02436816,0.005333084,0.05673308,-0.00095907715,-0.010018757,0.0,0.017851025,0.012573406,0.06459268,0.09719467,0.030264545,0.009913368,0.05628799,0.046014972,-0.07155232,0.08345375,0.15787145,0.0,0.1,-0.06459268,0.011908575,0.097357035,0.031659335,0.033304244,inf,inf,inf,inf,1,1,1,1,3,0,3,3,1,1,0
70946367,15543965,30.7872066,103.8586443,0.025187422,0.0063853385,0.06608396,-0.00095907715,-0.010018757,0.0,0.017318448,0.012936902,0.06942335,0.10026724,0.030264545,0.009913368,0.05628799,-0.0055266414,0.0011120865,-0.036996868,0.15778631,0.0,0.1,-0.06942335,0.012507569,0.097616106,0.034193352,0.035932645,inf,inf,inf,inf,1,1,1,1,3,0,3,3,1,1,0
71050396,15543965,30.7872066,103.8586443,0.025806522,0.0069493037,0.075190455,-0.00095907715,-0.010018757,0.0,0.01676806,0.012381161,0.07306894,0.10112127,0.030264545,0.009913368,0.05628799,-0.020614332,0.020215342,-0.043393634,0.15773983,0.0,0.1,-0.07306894,0.01189223,0.09717472,0.031509236,0.033267926,inf,inf,inf,inf,1,1,1,1,3,0,3,3,1,1,0
71151245,15543965,30.7872066,103.8586443,0.026423784,0.007229049,0.08363387,-0.00095907715,-0.010018757,0.0,0.016614992,0.011461184,0.07628262,0.10136849,0.030264545,0.009913368,0.05628799,-0.020796277,0.11354491,0.010494369,0.15767783,0.0,0.1,-0.07628262,0.012659188,0.097503126,0.03439901,0.036115896,inf,inf,inf,inf,1,1,1,1,3,0,3,3,1,1,0
71251235,15543965,30.7872066,103.8586443,0.026215818,0.0065841465,0.088649,-0.00095907715,-0.010018757,0.0,0.014315542,0.007522433,0.07354786,0.09288608,0.030264545,0.009913368,0.05628799,0.03743153,-0.12650715,0.058054503,0.15764809,0.0,0.1,-0.07354786,0.011898161,0.09688572,0.031626303,0.03333092,inf,inf,inf,inf,1,1,1,1,3,0,3,3,1,1,0
71355252,15543965,30.7872066,103.8586443,0.025735749,0.005421836,0.093005605,-0.00095907715,-0.010018757,0.0,0.011854884,0.0046643796,0.07136022,0.08536443,0.030264545,0.009913368,0.05628799,0.037151683,-0.09903812,0.08985289,0.15762292,0.0,0.1,-0.07136022,0.012702714,0.097227864,0.034574565,0.03620513,inf,inf,inf,inf,1,1,1,1,3,0,3,3,1,1,0
71455205,15543965,30.7872066,103.8586443,0.024403399,0.0039448426,0.094577156,-0.00095907715,-0.010018757,0.0,0.009060184,0.0023879611,0.065070614,0.07250463,0.030264545,0.009913368,0.05628799,-0.04847675,0.09867812,-0.05809043,0.15755425,0.0,0.1,-0.065070614,0.0120725855,0.09666965,0.03190542,0.033519674,inf,inf,inf,inf,1,1,1,1,3,0,3,3,1,1,0
71559235,15543965,30.7872066,103.8586443,0.023021612,0.0024577607,0.09506886,-0.00095907715,-0.010018757,0.0,0.0066730385,0.00016185228,0.059545454,0.061152004,0.030264545,0.009913368,0.05628799,-0.044309728,0.10179705,-0.06481056,0.15744853,0.0,0.1,-0.059545454,0.012321565,0.09690601,0.03407209,0.03636527,inf,inf,inf,inf,1,1,1,1,3,0,3,3,1,1,0
71659311,15543965,30.7872066,103.8586443,0.021718044,0.0004205738,0.08166381,-0.00095907715,-0.010018757,0.0,0.0055210283,-0.003459293,0.03449362,0.018585626,0.030264545,0.009913368,0.05628799,0.02645229,-0.012912937,0.034504864,0.15731889,0.0,0.1,-0.03449362,0.012099204,0.096403055,0.032159653,0.03365854,inf,inf,inf,inf,1,1,1,1,3,0,3,3,1,1,0
71759190,15543965,30.7872066,103.8586443,0.020566432,-0.0017351015,0.06799141,-0.00095907715,-0.010018757,0.0,0.004068844,-0.00568147,0.013784319,-0.013674018,0.030264545,0.009913368,0.05628799,-0.014999525,-0.057715036,-0.038665123,0.1572219,0.0,0.1,-0.013784319,0.01235656,0.09664987,0.03427031,0.036508273,inf,inf,inf,inf,1,1,1,1,3,0,3,3,1,1,0
71863201,15543965,30.7872066,103.8586443,0.020082235,-0.0028346945,0.061647605,-0.00095907715,-0.010018757,0.0,0.005747913,-0.004088338,0.0094015375,-0.018217826,0.030264545,0.009913368,0.05628799,-0.0015720631,-0.058472417,-0.03369457,0.15711415,0.0,0.1,-0.0094015375,0.011750844,0.096203536,0.031693555,0.03379563,inf,inf,inf,inf,1,1,1,1,3,0,3,3,1,1,0
71963175,15543965,30.7872066,103.8586443,0.020276112,-0.0032289727,0.057896014,-0.00095907715,-0.010018757,0.0,0.006801413,-0.0019275586,0.008164204,-0.01788179,0.030264545,0.009913368,0.05628799,-0.020852275,0.10742399,-0.016501773,0.15703602,0.0,0.1,-0.008164204,0.012311886,0.096396945,0.034052007,0.0364248,inf,inf,inf,inf,1,1,1,1,3,0,3,3,1,1,0
72063195,15543965,30.7872066,103.8586443,0.019686269,-0.0034648539,0.05457851,-0.00095907715,-0.010018757,0.0,0.0058050402,-0.0017314428,0.006335199,-0.018206954,0.030264545,0.009913368,0.05628799,0.058666155,-0.13018318,0.039682068,0.15699233,0.0,0.1,-0.006335199,0.01177005,0.09595746,0.03192701,0.03391779,inf,inf,inf,inf,1,1,1,1,3,0,3,3,1,1,0
72167209,15543965,30.7872066,103.8586443,0.019416677,-0.0034308918,0.052377075,-0.00095907715,-0.010018757,0.0,0.00524502,-0.00043859344,0.005060083,-0.01763516,0.030264545,0.009913368,0.05628799,0.032674164,-0.08379075,0.024323866,0.156948,0.0,0.1,-0.005060083,0.012529894,0.09622863,0.03459642,0.036769427,inf,inf,inf,inf,1,1,1,1,3,0,3,3,1,1,0
72267260,15543965,30.7872066,103.8586443,0.018508706,-0.003164197,0.056670614,-0.00095907715,-0.010018757,0.0,0.0032603806,0.000986598,0.012755815,-0.0026343742,0.030264545,0.009913368,0.05628799,-0.031301983,0.060288582,-0.024092032,0.15690579,0.0,0.10924991,-0.012755815,0.011752159,0.09571946,0.031695317,0.033822734,inf,inf,inf,inf,1,1,1,1,3,0,3,3,1,1,0
72367995,15543965,30.7872066,103.8586443,0.017467437,-0.0027624697,0.062450208,-0.00095907715,-0.010018757,0.0,0.0017377115,0.0014129262,0.019615661,0.010680673,0.030264545,0.009913368,0.05628799,-0.0055983188,0.029184952,0.029115915,0.15685098,0.0,0.10783135,-0.019615661,0.011261821,0.09527178,0.028984057,0.031291284,inf,inf,inf,inf,1,1,1,1,3,0,3,3,1,1,0
72471964,15543965,30.7872066,103.8586443,0.01556126,-0.0025353066,0.06880973,-0.00095907715,-0.010018757,0.0,-0.0012655054,0.0014237539,0.02468701,0.020591434,0.030264545,0.009913368,0.05628799,0.021063663,0.041474354,0.027136067,0.1567727,0.0,0.10586342,-0.02468701,0.011964265,0.0954478,0.032352176,0.034179345,inf,inf,inf,inf,1,1,1,1,3,0,3,3,1,1,0
72571991,15543965,30.7872066,103.8586443,0.013897112,-0.0023451583,0.07461427,-0.00095907715,-0.010018757,0.0,-0.0027070793,0.000991616,0.027862793,0.026851308,0.030264545,0.009913368,0.05628799,0.026798833,-0.1048599,0.000106054395,0.15667994,0.0,0.10307263,-0.027862793,0.012552213,0.09578156,0.034624692,0.036812168,inf,inf,inf,inf,1,1,1,1,3,0,3,3,1,1,0
72671976,15543965,30.7872066,103.8586443,0.011841427,-0.0030162607,0.06747463,-0.00095907715,-0.010018757,0.0,-0.004807327,-0.00081519806,0.010836109,-0.0004071741,0.030264545,0.009913368,0.05628799,-0.03998221,0.12082952,-0.040548913,0.1565523,0.0,0.1,-0.010836109,0.011943295,0.09533542,0.032090414,0.03406956,inf,inf,inf,inf,1,1,1,1,3,0,3,3,1,1,0
72775991,15543965,30.7872066,103.8586443,0.009926243,-0.003933245,0.059128165,-0.00095907715,-0.010018757,0.0,-0.00658302,-0.0022535534,-0.0032296297,-0.02154872,0.030264545,0.009913368,0.05628799,-0.04022618,0.13949774,-0.042657427,0.15645538,0.0,0.1,0.0032296297,0.011410318,0.09488685,0.02918845,0.031443644,inf,inf,inf,inf,1,1,1,1,3,0,3,3,1,1,0
72875951,15543965,30.7872066,103.8586443,0.008309068,-0.0048481193,0.052233614,-0.00095907715,-0.010018757,0.0,-0.0063284812,-0.0035974162,-0.011375201,-0.032507595,0.030264545,0.009913368,0.05628799,0.049432725,-0.0988388,0.042222608,0.15637854,0.0,0.1,0.011375201,0.011941216,0.095121555,0.03214122,0.034088172,inf,inf,inf,inf,1,1,1,1,3,0,3,3,1,1,0
72979999,15543965,30.7872066,103.8586443,0.0069631627,-0.005773818,0.04559776,-0.00095907715,-0.010018757,0.0,-0.0067554945,-0.0039662253,-0.01767505,-0.039638873,0.030264545,0.009913368,0.05628799,0.046526678,-0.0932877,0.05177961,0.15627027,0.0,0.1,0.01767505,0.012712611,0.09553059,0.03480651,0.036941987,inf,inf,inf,inf,1,1,1,1,3,0,3,3,1,1,0
73079965,15543965,30.7872066,103.8586443,0.005871484,-0.0062343255,0.044699028,-0.00095907715,-0.010018757,0.0,-0.005896581,-0.0033000116,-0.014223114,-0.03106652,0.030264545,0.009913368,0.05628799,-0.044150513,0.018132424,-0.04618597,0.156271,0.0,0.10609503,0.014223114,0.0120689375,0.095078744,0.032321516,0.034236625,inf,inf,inf,inf,1,1,1,1,3,0,3,3,1,1,0
73179979,15543965,30.7872066,103.8586443,0.005163282,-0.006555331,0.044050567,-0.00095907715,-0.010018757,0.0,-0.005307561,-0.0029589438,-0.012311573,-0.02570172,0.030264545,0.009913368,0.05628799,0.007669563,0.034559354,0.019573541,0.15627535,0.0,0.1,0.012311573,0.011382487,0.09468155,0.02913157,0.03141313,inf,inf,inf,inf,1,1,1,1,3,0,3,3,1,1,0
73280789,15543965,30.7872066,103.8586443,0.004282674,-0.0071463394,0.040939346,-0.00095907715,-0.010018757,0.0,-0.005846058,-0.0038262857,-0.015676277,-0.028868815,0.030264545,0.009913368,0.05628799,0.038809247,-0.12131919,0.032054435,0.15631236,0.0,0.10101327,0.015676277,0.012085141,0.0949816,0.032459054,0.034280747,inf,inf,inf,inf,1,1,1,1,3,0,3,3,1,1,0
73384816,15543965,30.7872066,103.8586443,0.0035923142,-0.007565857,0.037854575,-0.00095907715,-0.010018757,0.0,-0.005414514,-0.003708625,-0.018198472,-0.030844,0.030264545,0.009913368,0.05628799,0.054102197,-0.10647126,0.04719005,0.15631202,0.0,0.10325206,0.018198472,0.011541471,0.09453771,0.02942363,0.031589575,inf,inf,inf,inf,1,1,1,1,3,0,3,3,1,1,0
73484876,15543965,30.7872066,103.8586443,0.003587723,-0.006146508,0.03546831,-0.00095907715,-0.010018757,0.0,-0.0039543794,0.002190574,-0.019774137,-0.03120779,0.030264545,0.009913368,0.05628799,-0.026974455,0.11023666,-0.05301987,0.15634945,0.0,0.10468164,0.019774137,0.01208977,0.0948938,0.032376256,0.03423581,inf,inf,inf,inf,1,1,1,1,3,0,3,3,1,1,0
73588809,15543965,30.7872066,103.8586443,0.003924417,-0.004181511,0.034446027,-0.00095907715,-0.010018757,0.0,-0.0025546649,0.005704285,-0.018983932,-0.027605055,0.030264545,0.009913368,0.05628799,-0.052528404,0.09020827,-0.0530308,0.15639278,0.0,0.12274183,0.018983932,0.011541604,0.09455034,0.029524129,0.031634796,inf,inf,inf,inf,1,1,1,1,3,0,3,3,1,1,0
73688831,15543965,30.7872066,103.8586443,0.004840129,-0.0030696187,0.03992066,-0.00095907715,-0.010018757,0.0,0.000798734,0.0056604357,-0.0086499,-0.009210676,0.030264545,0.009913368,0.05628799,0.024844443,-0.044153817,0.03974506,0.15647718,0.0,0.11857028,0.0086499,0.0122710075,0.09486362,0.032825965,0.03450244,inf,inf,inf,inf,1,1,1,1,3,0,3,3,1,1,0
73788771,15543965,30.7872066,103.8586443,0.0059174756,-0.0020738,0.045200948,-0.00095907715,-0.010018757,0.0,0.0023789161,0.0057975953,-0.0013610019,0.003381683,0.030264545,0.009913368,0.05628799,0.016106175,-0.041551884,-0.04126805,0.1565406,0.0,0.12107974,0.0013610019,0.011536368,0.094355665,0.029384289,0.03157727,inf,inf,inf,inf,1,1,1,1,3,0,3,3,1,1,0
73892782,15543965,30.7872066,103.8586443,0.006745326,-0.00059462,0.052755438,-0.00095907715,-0.010018757,0.0,0.002564616,0.008296995,0.007896639,0.018124979,0.030264545,0.009913368,0.05628799,0.004153863,-0.009285994,-0.038847692,0.15657088,0.0,0.1145174,-0.007896639,0.012256817,0.0946696,0.032695644,0.034445066,inf,inf,inf,inf,1,1,1,1,3,0,3,3,1,1,0
73992808,15543965,30.7872066,103.8586443,0.0073818155,0.000875281,0.061020177,-0.00095907715,-0.010018757,0.0,0.0027332765,0.009970214,0.017303461,0.03199453,0.030264545,0.009913368,0.05628799,-0.005669349,0.087967314,0.025633467,0.15665506,0.0,0.121806055,-0.017303461,0.011267577,0.09421873,0.029447023,0.03184985,inf,inf,inf,inf,1,1,1,1,3,0,3,3,1,1,0
74092777,15543965,30.7872066,103.8586443,0.007403444,0.0018811997,0.07229517,-0.00095907715,-0.010018757,0.0,0.0016779375,0.009383023,0.02937309,0.049909696,0.030264545,0.009913368,0.05628799,0.033230357,-0.11308137,0.06402929,0.15675786,0.0,0.11576884,-0.02937309,0.012265463,0.09448333,0.032791875,0.03449824,inf,inf,inf,inf,1,1,1,1,3,0,3,3,1,1,0
74196757,15543965,30.7872066,103.8586443,0.007260446,0.002586503,0.08298844,-0.00095907715,-0.010018757,0.0,0.0009856982,0.008658924,0.03667883,0.05972861,0.030264545,0.009913368,0.05628799,0.015771389,-0.111331016,0.04019582,0.15683022,0.0,0.102039486,-0.03667883,0.011285145,0.09413883,0.02965929,0.03197135,inf,inf,inf,inf,1,1,1,1,3,0,3,3,1,1,0
74296796,15543965,30.7872066,103.8586443,0.006878451,0.002553185,0.090482466,-0.00095907715,-0.010018757,0.0,-0.00023173727,0.007093069,0.03812018,0.060008552,0.030264545,0.009913368,0.05628799,-0.022688372,0.09927473,-0.038159046,0.15685548,0.0,0.1,-0.03812018,0.01196765,0.094366714,0.032717034,0.034841787,inf,inf,inf,inf,1,1,1,1,3,0,3,3,1,1,0
74400866,15543965,30.7872066,103.8586443,0.006403839,0.0023273933,0.09642117,-0.00095907715,-0.010018757,0.0,-0.0011809318,0.0058409735,0.03787489,0.05732953,0.030264545,0.009913368,0.05628799,-0.033856962,0.1457923,-0.039579224,0.15690863,0.0,0.1,-0.03787489,0.01142929,0.09401488,0.029910533,0.03218412,inf,inf,inf,inf,1,1,1,1,3,0,3,3,1,1,0
74500764,15543965,30.7872066,103.8586443,0.0058529233,0.0021145802,0.09891687,-0.00095907715,-0.010018757,0.0,-0.0020275263,0.004811014,0.034842987,0.049988557,0.030264545,0.009913368,0.05628799,0.033976838,-0.025360253,0.06660234,0.15692994,0.0,0.1,-0.034842987,0.011968529,0.0942961,0.032636877,0.034833934,inf,inf,inf,inf,1,1,1,1,3,0,3,3,1,1,0
74601651,15543965,30.7872066,103.8586443,0.00523053,0.0019180764,0.10113627,-0.00095907715,-0.010018757,0.0,-0.0029631886,0.0046119513,0.032375682,0.044182934,0.030264545,0.009913368,0.05628799,-0.011578691,-0.0750383,-0.047213458,0.15697764,0.0,0.1,-0.032375682,0.011452621,0.093840994,0.030064255,0.032264065,inf,inf,inf,inf,1,1,1,1,3,0,3,3,1,1,0
74705624,15543965,30.7872066,103.8586443,0.004593866,0.0018146649,0.10324044,-0.00095907715,-0.010018757,0.0,-0.0036225857,0.0042220973,0.031153006,0.040426843,0.030264545,0.009913368,0.05628799,-0.015676035,-0.079285875,-0.025971083,0.1569916,0.0,0.1,-0.031153006,0.012159302,0.09418955,0.033091955,0.03513619,inf,inf,inf,inf,1,1,1,1,3,0,3,3,1,1,0
74805606,15543965,30.7872066,103.8586443,0.004377143,0.0020198878,0.105149925,-0.00095907715,-0.010018757,0.0,-0.0023286939,0.005467099,0.030582022,0.037897635,0.030264545,0.009913368,0.05628799,-0.009538562,0.11812149,-0.018543627,0.15694714,0.0,0.1,-0.030582022,0.011461965,0.09378093,0.029967494,0.032243118,inf,inf,inf,inf,1,1,1,1,3,0,3,3,1,1,0
74905609,15543965,30.7872066,103.8586443,0.005256746,0.0028104763,0.107059255,-0.00095907715,-0.010018757,0.0,0.0010596723,0.007285844,0.030986527,0.036587454,0.030264545,0.009913368,0.05628799,0.03885923,-0.107745,0.070319444,0.15697381,0.0,0.1,-0.030986527,0.012171432,0.09413186,0.033033542,0.035112962,inf,inf,inf,inf,1,1,1,1,3,0,3,3,1,1,0
75009618,15543965,30.7872066,103.8586443,0.006330693,0.0043484154,0.11034611,-0.00095907715,-0.010018757,0.0,0.002844813,0.010679391,0.03256012,0.037865933,0.030264545,0.009913368,0.05628799,0.042676087,-0.093104035,0.04475278,0.15705259,0.0,0.1,-0.03256012,0.011622453,0.093771785,0.030441705,0.032522675,inf,inf,inf,inf,1,1,1,1,3,0,3,3,1,1,0
75109555,15543965,30.7872066,103.8586443,0.007232228,0.006607248,0.11430526,-0.00095907715,-0.010018757,0.0,0.0036022807,0.014484432,0.034826923,0.04034299,0.030264545,0.009913368,0.05628799,-0.05280518,0.107304394,-0.0358001,0.15709217,0.0,0.1,-0.034826923,0.012196597,0.093967944,0.03314111,0.03517077,inf,inf,inf,inf,1,1,1,1,3,0,3,3,1,1,0
75209573,15543965,30.7872066,103.8586443,0.008414075,0.009174239,0.12039353,-0.00095907715,-0.010018757,0.0,0.005174569,0.01692344,0.041183695,0.048756808,0.030264545,0.009913368,0.05628799,0.03167104,-0.04336483,0.054975074,0.15715529,0.0,0.1081184,-0.041183695,0.011611149,0.0936106,0.030145047,0.032385822,inf,inf,inf,inf,1,1,1,1,3,0,3,3,1,1,0
75313645,15543965,30.7872066,103.8586443,0.010377343,0.011888748,0.13094804,-0.00095907715,-0.010018757,0.0,0.0089508165,0.01975554,0.052047346,0.06435055,0.030264545,0.009913368,0.05628799,0.053399436,-0.09468615,0.07745117,0.15721549,0.0,0.102626115,-0.052047346,0.012332831,0.09387078,0.03321304,0.035253234,inf,inf,inf,inf,1,1,1,1,3,0,3,3,1,1,0
