timestamp,lat,lon,alt,delta_alt,vel_n,vel_e,vel_d,yaw,eph,epv,terrain_alt,lat_lon_reset_counter,alt_reset_counter,terrain_alt_valid,dead_reckoning
58346393,30.787206661383834,103.85864419803943,-0.056936964,-0.0,-0.014380316,-0.005172485,0.041377664,0.16782987,0.017010804,0.24748285,0.0,3,0,0,0
58350373,30.787206659573176,103.85864419806941,-0.057623304,-0.0,-0.015269643,-0.0053969086,0.041442603,0.16784605,0.017386585,0.24760982,0.0,3,0,0,0
58554368,30.787206578280234,103.85864418577063,-0.09658862,-0.0,-0.041715268,-0.010123141,0.05737815,0.16789824,0.016915176,0.22869025,0.0,3,0,0,0
58758364,30.78720648263808,103.858644170704,-0.018677654,-0.0,-0.056796484,-0.012880317,0.023392826,0.16564721,0.015999615,0.21383025,0.0,3,0,0,0
58958374,30.787206416600185,103.85864419017935,0.030111453,-0.0,-0.05909798,-0.0065244427,-0.0020605642,0.16300166,0.01576739,0.19953384,0.0,3,0,0,0
59158381,30.787206376175824,103.85864421115481,0.032481924,-0.0,-0.056433354,-0.0027340674,-0.006787992,0.16052741,0.015545653,0.18951342,0.0,3,0,0,0
59362419,30.787206369142925,103.85864423481402,0.0015740368,-0.0,-0.04744959,-0.0009251633,0.006065582,0.15903738,0.015954103,0.1803881,0.0,3,0,0,0
59566449,30.78720635613541,103.85864420674595,0.004915135,-0.0,-0.04615873,-0.010854931,-0.0027860622,0.15693723,0.015508325,0.17237431,0.0,3,0,0,0
59767209,30.78720635428008,103.85864416037214,0.0067341826,-0.0,-0.03932072,-0.018723462,-0.0064022588,0.15514499,0.015418023,0.16601409,0.0,3,0,0,0
59967205,30.787206367367776,103.85864412867733,0.020385815,-0.0,-0.03084631,-0.018918404,-0.01816659,0.15438138,0.015344669,0.160509,0.0,3,0,0,0
60171291,30.787206385537615,103.85864411374297,0.01899686,-0.0,-0.023003204,-0.016640117,-0.021578893,0.1547771,0.01530787,0.15573704,0.0,3,0,0,0
60375220,30.787206415440078,103.85864413387719,0.014452217,-0.0,-0.014703395,-0.0074927327,-0.023216568,0.15543129,0.014133302,0.14958851,0.0,3,0,0,0
60575219,30.787206448864293,103.85864417810568,0.005675012,-0.0,-0.006256692,0.0022209203,-0.020720547,0.15609735,0.014110366,0.14599605,0.0,3,0,0,0
60775249,30.787206505744894,103.8586442198585,0.0008575488,-0.0,0.0068003912,0.0061331363,-0.021957025,0.15659635,0.015427608,0.14444874,0.0,3,0,0,0
60979967,30.787206554807042,103.85864424665063,0.0137017025,-0.0,0.013300002,0.0073221726,-0.034151684,0.15662599,0.01410008,0.1398032,0.0,3,0,0,0
61183962,30.787206609158535,103.85864425028505,0.022220094,-0.0,0.021353865,0.0036419553,-0.041567177,0.15664074,0.014200369,0.1371639,0.0,3,0,0,0
61387973,30.787206660275437,103.85864425320474,0.032862443,-0.0,0.026906563,0.0039438815,-0.050038524,0.15677305,0.014201771,0.13500215,0.0,3,0,0,0
61587982,30.78720671504555,103.85864426868508,0.036196608,-0.0,0.032357287,0.0065656486,-0.049181554,0.15708563,0.014194913,0.13298698,0.0,3,0,0,0
61792782,30.78720672961063,103.85864428140857,0.018052699,-0.0,0.026598398,0.008299344,-0.030552903,0.15781009,0.0143157,0.13088624,0.0,3,0,0,0
61996762,30.78720671236219,103.85864428846924,-0.0030398676,-0.0,0.017341541,0.0075540715,-0.013838252,0.15842183,0.013970842,0.12916502,0.0,3,0,0,0
62196790,30.78720668615105,103.85864429574126,-0.024048045,-0.0,0.012228549,0.0076012663,0.0010477694,0.15882239,0.013977937,0.12754416,0.0,3,0,0,0
62400861,30.787206664026094,103.85864429504744,-0.018359033,-0.0,0.009694059,0.0055314056,-0.01280683,0.15874518,0.014092784,0.12583072,0.0,3,0,0,0
62604840,30.787206652755437,103.85864428871149,-0.008883293,-0.0,0.008407285,0.004250115,-0.02369869,0.15861613,0.014100445,0.124178305,0.0,3,0,0,0
62808757,30.78720663086738,103.8586442784989,-0.0026457845,-0.0,0.0051561985,0.0019015531,-0.028820228,0.15857045,0.01423205,0.12245017,0.0,3,0,0,0
63008762,30.787206625080227,103.8586442691045,0.011971897,-0.0,0.006249523,0.00093500124,-0.043266427,0.15846315,0.014231635,0.121431485,0.0,3,0,0,0
63213617,30.787206644565526,103.85864426936593,0.018572235,-0.0,0.011773144,0.00059746753,-0.043009747,0.15858743,0.014231054,0.12025231,0.0,3,0,0,0
63417558,30.787206645047252,103.85864425495963,0.018295938,-0.0,0.009192532,-0.0013833621,-0.03632827,0.15881272,0.014384331,0.118983515,0.0,3,0,0,0
63617578,30.787206649669173,103.85864423411445,0.023786847,-0.0,0.010084739,-0.0048411437,-0.038188618,0.15904547,0.014366876,0.11772378,0.0,3,0,0,0
63817589,30.787206660474006,103.85864419079645,0.03800363,-0.0,0.010730314,-0.010612281,-0.04731538,0.15909158,0.014369839,0.11672921,0.0,3,0,0,0
64021588,30.7872066593479,103.85864415313935,0.038044203,-0.0,0.008288697,-0.0127709545,-0.037500348,0.15920563,0.014372804,0.115591034,0.0,3,0,0,0
64226401,30.787206663096075,103.85864412886303,0.034622584,-0.0,0.008431835,-0.0129737295,-0.029513082,0.15943916,0.014105029,0.114560015,0.0,3,0,0,0
64426376,30.787206656809364,103.85864411450144,0.02996901,-0.0,0.005792968,-0.012217397,-0.024370441,0.15951535,0.014094641,0.11371389,0.0,3,0,0,0
64630426,30.787206631208036,103.85864409834316,0.030141965,-0.0,0.0003372141,-0.012167926,-0.022786725,0.15947647,0.014096025,0.112727664,0.0,3,0,0,0
64834365,30.787206601401138,103.85864409609209,0.030695692,-0.0,-0.004199082,-0.008435635,-0.021838691,0.1594613,0.014239038,0.111839294,0.0,3,0,0,0
65038379,30.78720656595033,103.8586441089091,0.030699024,-0.0,-0.008024575,-0.004599248,-0.02104969,0.15949859,0.014230018,0.11093999,0.0,3,0,0,0
65238378,30.787206543519915,103.85864412638823,0.038584247,-0.0,-0.007873473,-0.0012138087,-0.030200426,0.15950939,0.014249264,0.11008416,0.0,3,0,0,0
65443204,30.787206535003246,103.85864414617,0.048673335,-0.0,-0.005996593,0.0005809708,-0.037218474,0.15945289,0.014382191,0.1094783,0.0,3,0,0,0
65647207,30.787206537196006,103.85864416872518,0.049108524,-0.0,-0.0034017283,0.003370806,-0.028534256,0.15949428,0.014384146,0.10869505,0.0,3,0,0,0
65847210,30.787206550142734,103.85864418694757,0.037512116,-0.0,0.0014568919,0.0043963115,-0.011704042,0.15949418,0.01434357,0.107940644,0.0,3,0,0,0
66051225,30.78720658304898,103.85864419993638,0.025818007,-0.0,0.008186052,0.0054484494,-0.0020094947,0.15945154,0.014491619,0.10742458,0.0,3,0,0,0
66255207,30.78720662174605,103.85864421135966,0.018256655,-0.0,0.013048052,0.005641959,0.0020268245,0.15943182,0.014504233,0.106730565,0.0,3,0,0,0
66459251,30.787206650845036,103.8586442251614,0.009202782,-0.0,0.013488968,0.007219329,0.009395467,0.15937641,0.014238646,0.106119,0.0,3,0,0,0
66659982,30.787206665827394,103.85864423618585,0.005589743,-0.0,0.012771298,0.0073096403,0.00654703,0.1592905,0.014183765,0.105480395,0.0,3,0,0,0
66863974,30.787206665520426,103.85864423878212,0.018737035,-0.0,0.010840213,0.006262579,-0.012179331,0.15918516,0.014196116,0.10487668,0.0,3,0,0,0
67067976,30.78720666388504,103.85864423833323,0.028432738,-0.0,0.010720952,0.0054457495,-0.018199135,0.15916647,0.014270609,0.10448185,0.0,3,0,0,0
67267993,30.78720667421104,103.8586442569703,0.02696175,-0.0,0.012477573,0.008861383,-0.009432023,0.15912403,0.014276756,0.104052514,0.0,3,0,0,0
67468812,30.787206690146455,103.85864427836489,0.018059542,-0.0,0.012990664,0.009715403,0.0013774383,0.15898773,0.014222261,0.10350096,0.0,3,0,0,0
67672819,30.787206698376103,103.85864429536443,0.018483518,-0.0,0.0113702025,0.010369947,-0.0044988124,0.15875655,0.014299106,0.10311447,0.0,3,0,0,0
67876759,30.787206699265074,103.85864430732828,0.027196579,-0.0,0.009195805,0.009281586,-0.016384458,0.15865864,0.014481383,0.10279242,0.0,3,0,0,0
68076765,30.787206704925698,103.85864430155645,0.03864945,-0.0,0.009649097,0.0053866385,-0.0273367,0.15861411,0.014480153,0.102428444,0.0,3,0,0,0
68280761,30.78720670930601,103.85864428694997,0.048978284,-0.0,0.008589663,0.0029172362,-0.032425392,0.15856814,0.014489243,0.101950556,0.0,3,0,0,0
68484813,30.78720670767273,103.85864428587462,0.054836437,-0.0,0.0068281167,0.0048304773,-0.031746577,0.15843807,0.014605729,0.10154524,0.0,3,0,0,0
68685575,30.78720670082455,103.85864429930794,0.04659559,-0.0,0.0047283648,0.006836907,-0.0137567865,0.15837368,0.0146346055,0.101102486,0.0,3,0,0,0
68885563,30.787206684746543,103.85864429686274,0.0342098,-0.0,0.00014845599,0.0028301526,0.0011256738,0.15845807,0.014632103,0.10080692,0.0,3,0,0,0
69089604,30.787206658552268,103.85864426822818,0.030046059,-0.0,-0.0035755248,-0.00257706,-0.001999686,0.15830597,0.014618242,0.10039575,0.0,3,0,0,0
69293644,30.787206638892588,103.85864423787338,0.035787534,-0.0,-0.004462391,-0.0051063146,-0.014862539,0.15820546,0.014361071,0.100181326,0.0,3,0,0,0
69497602,30.787206636272185,103.85864422388795,0.033666577,-0.0,-0.0017484782,-0.0038055067,-0.00850801,0.15822138,0.014362679,0.099794894,0.0,3,0,0,0
69697568,30.78720664781828,103.85864422061432,0.03105681,-0.0,0.0013426814,-0.002742477,-0.008481533,0.15818448,0.014368671,0.09954572,0.0,3,0,0,0
69901635,30.787206674935536,103.85864421986767,0.028042438,-0.0,0.007496311,-0.0027311337,-0.0035727066,0.15819553,0.014484116,0.099242404,0.0,3,0,0,0
70106356,30.787206716110767,103.85864423266223,0.016421463,-0.0,0.013747309,0.0016500278,0.010563669,0.15826416,0.014494565,0.09901485,0.0,3,0,0,0
70306359,30.78720675384642,103.85864426329321,-0.002825123,-0.0,0.015717309,0.006708073,0.028849933,0.15827645,0.014497564,0.09868156,0.0,3,0,0,0
70510429,30.78720678272202,103.8586443030118,-0.023114908,-0.0,0.01689569,0.010579049,0.043971036,0.15820299,0.0146580655,0.098301485,0.0,3,0,0,0
70714396,30.787206807552007,103.858644338452,-0.043531075,-0.0,0.018067937,0.012727697,0.056579478,0.15802039,0.014659276,0.09810665,0.0,3,0,0,0
70918429,30.78720682416115,103.85864436371655,-0.06356046,-0.0,0.017466879,0.012741975,0.068316996,0.15781645,0.014828201,0.097868815,0.0,3,0,0,0
71119230,30.78720683560805,103.85864437468653,-0.080971144,-0.0,0.016589357,0.011735231,0.075485274,0.15768614,0.014797959,0.097689874,0.0,3,0,0,0
71323225,30.787206832754983,103.85864436070432,-0.09162625,-0.0,0.012607927,0.0053984122,0.071579084,0.15762854,0.014833985,0.09741323,0.0,3,0,0,0
71527212,30.787206810719358,103.858644330472,-0.09500305,-0.0,0.0075472035,0.0008212692,0.061185766,0.15746346,0.014532421,0.09720181,0.0,3,0,0,0
71727198,30.78720678779838,103.85864428875257,-0.07208223,-0.0,0.0044440385,-0.0051083835,0.019219523,0.15724203,0.014559207,0.09694267,0.0,3,0,0,0
71931201,30.787206781377957,103.8586442669091,-0.058946103,-0.0,0.006613046,-0.0025436424,0.008615904,0.15706311,0.014523702,0.09668896,0.0,3,0,0,0
72135199,30.7872067751716,103.85864426370566,-0.052926432,-0.0,0.0052684853,-0.0008674064,0.0054374933,0.15696521,0.014698287,0.09640377,0.0,3,0,0,0
72335964,30.787206760347043,103.858644269817,-0.060591727,-0.0,0.0024770643,0.0010894339,0.017619858,0.15686564,0.014675964,0.09616945,0.0,3,0,0,0
72535995,30.78720672988203,103.85864427478025,-0.07264909,-0.0,-0.0023450234,0.0014419687,0.026749467,0.1567148,0.014718416,0.09606428,0.0,3,0,0,0
72739986,30.7872066955506,103.85864426262839,-0.06230077,-0.0,-0.0059960075,-0.002161387,0.0013966849,0.15651745,0.01469416,0.09584493,0.0,3,0,0,0
72943995,30.787206666313594,103.85864424258735,-0.047630325,-0.0,-0.0068580774,-0.0034460947,-0.016238322,0.15630709,0.014849502,0.09580846,0.0,3,0,0,0
73143976,30.787206648585506,103.85864423257341,-0.04435884,-0.0,-0.005359418,-0.0031426377,-0.0127974115,0.15629964,0.014812063,0.095598675,0.0,3,0,0,0
73344842,30.78720663430798,103.8586442215682,-0.038986556,-0.0,-0.005290919,-0.0041002473,-0.017409327,0.15630063,0.014829579,0.09550486,0.0,3,0,0,0
73548768,30.78720663364485,103.85864424896398,-0.034086384,-0.0,-0.0032376517,0.004891611,-0.020545734,0.15639114,0.014829008,0.09541798,0.0,3,0,0,0
73752850,30.787206649993028,103.85864427458253,-0.043295532,-0.0,0.0018903281,0.0059556887,-0.0036863156,0.15649843,0.014997062,0.0953965,0.0,3,0,0,0
73952831,30.787206665080397,103.85864430389326,-0.05714416,-0.0,0.0029147065,0.009849056,0.012646387,0.15661451,0.014981813,0.095204085,0.0,3,0,0,0
74156838,30.787206666211414,103.85864432595363,-0.0795963,-0.0,0.0018227368,0.009283284,0.035605215,0.15679513,0.014991758,0.09502085,0.0,3,0,0,0
74360809,30.787206659552865,103.85864432547457,-0.09489361,-0.0,-0.00080599997,0.0058454378,0.038931984,0.15690452,0.01471258,0.09491518,0.0,3,0,0,0
74564858,30.78720664933482,103.85864432108372,-0.1002881,-0.0,-0.002694251,0.0048175855,0.033050995,0.15694253,0.014710609,0.094846964,0.0,3,0,0,0
74765573,30.78720663817231,103.85864431926335,-0.10443421,-0.0,-0.004035523,0.0049168207,0.030803038,0.15697019,0.014738862,0.094791934,0.0,3,0,0,0
74969553,30.787206653887477,103.8586443372079,-0.108639695,-0.0,0.0027489671,0.008875228,0.031553943,0.15699898,0.0138471695,0.09405126,0.0,3,0,0,0
75173569,30.78720667042161,103.85864438632699,-0.11684365,-0.0,0.003710368,0.016202513,0.03650745,0.15713644,0.014910264,0.0946379,0.0,3,0,0,0
75373628,30.787206704162124,103.85864444152398,-0.13675758,-0.0,0.010096646,0.02122201,0.056801777,0.15725024,0.0148703875,0.09447605,0.0,3,0,0,0
75573571,30.787206760655746,103.85864447343074,-0.15032631,-0.0,0.019368384,0.019167941,0.060844496,0.15739447,0.014855291,0.09432393,0.0,3,0,0,0
75778401,30.787206801854992,103.8586444824053,-0.15441246,-0.0,0.020049848,0.01509164,0.052866884,0.15749414,0.013928139,0.09338761,0.0,3,0,0,0
75982385,30.787206828844614,103.8586444872338,-0.15569417,-0.0,0.019736333,0.012867915,0.04422399,0.15753521,0.013964416,0.093250886,0.0,3,0,0,0
76182387,30.787206830769044,103.85864448566389,-0.15084635,-0.0,0.015262332,0.011685144,0.030039929,0.15752782,0.015057925,0.093878105,0.0,3,0,0,0
76386365,30.787206813114523,103.85864446711322,-0.14917485,-0.0,0.008517734,0.006112252,0.025663443,0.15761556,0.014063497,0.09303858,0.0,3,0,0,0
76590368,30.787206793914883,103.85864444128704,-0.15988308,-0.0,0.00507297,0.0031969417,0.037527394,0.15767811,0.014065811,0.092913404,0.0,3,0,0,0
76791205,30.78720676937252,103.8586444282568,-0.18512106,-0.0,0.00090844446,0.0019772022,0.06358572,0.15771198,0.014079316,0.09288868,0.0,3,0,0,0
76995213,30.78720674493731,103.85864440479511,-0.1999474,-0.0,-0.00078989624,-0.0011262664,0.065028325,0.15767317,0.013881861,0.092826106,0.0,3,0,0,0
77199304,30.78720673762795,103.85864439646463,-0.1943145,-0.0,0.0008676052,-0.000753073,0.041208986,0.15771188,0.013877284,0.092806585,0.0,3,0,0,0
77403212,30.787206761211337,103.85864439493272,-0.16957018,-0.0,0.007948706,0.00023207733,0.0051043304,0.15771982,0.013981309,0.092744835,0.0,3,0,0,0
77603256,30.787206779114033,103.85864438689589,-0.15152824,-0.0,0.008593288,-0.0003074784,-0.009307302,0.15772146,0.013984464,0.09272851,0.0,3,0,0,0
77803207,30.78720678842676,103.85864437227697,-0.14404167,-0.0,0.008029626,-0.0019651935,-0.011091322,0.15773423,0.013990192,0.09261742,0.0,3,0,0,0
78008004,30.787206788874105,103.8586443530343,-0.14049943,-0.0,0.007029012,-0.0037224244,-0.009848286,0.15777992,0.013994543,0.092509605,0.0,3,0,0,0
78212031,30.787206801245627,103.85864434044169,-0.14416657,-0.0,0.009408367,-0.0030991982,-0.0015779013,0.15788914,0.014103533,0.092467494,0.0,3,0,0,0
78411949,30.78720680070888,103.8586443428033,-0.14154272,-0.0,0.0075594676,-0.00032981913,-0.0044426657,0.15793899,0.01410165,0.09236647,0.0,3,0,0,0
78616010,30.78720680662726,103.85864435511661,-0.14224318,-0.0,0.008495132,0.0024233756,-0.00010375325,0.15800971,0.014086067,0.092268676,0.0,3,0,0,0
78819967,30.787206801128725,103.85864435844411,-0.14955875,-0.0,0.006351421,0.0014502392,0.011510796,0.15805966,0.01422436,0.09232498,0.0,3,0,0,0
79020774,30.78720679327507,103.85864435619378,-0.15770477,-0.0,0.005325955,0.0016504837,0.01929841,0.158124,0.014241568,0.09232435,0.0,3,0,0,0
79220829,30.78720680717849,103.85864436228425,-0.16861603,-0.0,0.009468768,0.0029144029,0.028448537,0.15818143,0.014248996,0.09232906,0.0,3,0,0,0
79424832,30.78720681833288,103.85864435962888,-0.1740435,-0.0,0.01115445,0.0011023714,0.028079987,0.15816684,0.014245196,0.092232496,0.0,3,0,0,0
79628739,30.787206800811013,103.85864434516682,-0.17220233,-0.0,0.003057247,-0.00072873966,0.017369242,0.15819639,0.014026597,0.092291296,0.0,3,0,0,0
79832804,30.78720674126503,103.8586443208563,-0.15248373,-0.0,-0.007037863,-0.0039800773,-0.009828432,0.15817972,0.014023644,0.09229372,0.0,3,0,0,0
80032768,30.7872066982472,103.85864430043571,-0.13134429,-0.0,-0.0078024818,-0.0042893104,-0.0298346,0.15820037,0.0140308635,0.09229507,0.0,3,0,0,0
80236761,30.787206692910665,103.85864429813662,-0.1170501,-0.0,-0.0018394997,-0.0019127222,-0.03413673,0.15825844,0.014142073,0.092259705,0.0,3,0,0,0
80441562,30.787206702381752,103.85864430791415,-0.1181982,-0.0,0.0019476102,0.0011629128,-0.021075768,0.1582618,0.014147232,0.09227008,0.0,3,0,0,0
80641588,30.78720669128865,103.85864431492669,-0.12058931,-0.0,-0.0010187424,0.0018543196,-0.015304903,0.15826856,0.014161946,0.092178375,0.0,3,0,0,0
80841558,30.78720666204172,103.85864432103678,-0.11924141,-0.0,-0.005095954,0.0026749768,-0.017120209,0.15818049,0.014154748,0.09208966,0.0,3,0,0,0
81045566,30.787206634227065,103.85864432035414,-0.11811264,-0.0,-0.0062820837,0.0029858702,-0.017728541,0.15822242,0.014301177,0.09206212,0.0,3,0,0,0
81249579,30.787206619684873,103.85864431368684,-0.11570226,-0.0,-0.005273358,0.0005394299,-0.016764853,0.15822211,0.014276548,0.09197859,0.0,3,0,0,0
81450399,30.78720661398,103.85864430580463,-0.11032339,-0.0,-0.0023134926,0.0017201097,-0.019424945,0.15828995,0.0142670125,0.09199238,0.0,3,0,0,0
81654411,30.787206626776346,103.85864430795424,-0.104625575,-0.0,0.0033152888,0.0025261813,-0.020286525,0.15831856,0.014451572,0.09207178,0.0,3,0,0,0
81858431,30.787206646523273,103.85864430799722,-0.10685923,-0.0,0.0064505464,0.0022044946,-0.010761324,0.1584387,0.014447232,0.09198923,0.0,3,0,0,0
82062383,30.78720666950212,103.85864430213854,-0.10619018,-0.0,0.009095016,0.0013673393,-0.010472399,0.15842707,0.01418852,0.09196949,0.0,3,0,0,0
82262456,30.78720668278654,103.85864429481278,-0.094693705,-0.0,0.009111036,0.00062730926,-0.0217546,0.15845107,0.014190569,0.0918917,0.0,3,0,0,0
82466399,30.787206684370016,103.8586442932645,-0.08633486,-0.0,0.007575122,0.0013202231,-0.023464188,0.15840305,0.014194254,0.09191122,0.0,3,0,0,0
82671207,30.787206671524817,103.85864429380455,-0.08476678,-0.0,0.002887019,0.0012897499,-0.016995244,0.15832354,0.014360964,0.091897465,0.0,3,0,0,0
82871195,30.78720663908542,103.85864428563312,-0.079932876,-0.0,-0.0033711854,-0.0005688977,-0.020202849,0.15828328,0.014351846,0.0918298,0.0,3,0,0,0
83075180,30.78720659082111,103.85864426508624,-0.07404674,-0.0,-0.010875156,-0.002794624,-0.020845458,0.15825874,0.014344708,0.09175898,0.0,3,0,0,0
83279253,30.7872065397309,103.85864424516943,-0.07029487,-0.0,-0.014527024,-0.0039694062,-0.01948357,0.15821746,0.014484675,0.09175143,0.0,3,0,0,0
83483203,30.787206504389424,103.85864423071611,-0.06367896,-0.0,-0.014471053,-0.0038583882,-0.023197072,0.15827945,0.01447955,0.09168525,0.0,3,0,0,0
83683964,30.787206485310733,103.85864422284251,-0.058470257,-0.0,-0.011800119,-0.0026969889,-0.022322422,0.15834667,0.014515155,0.09162264,0.0,3,0,0,0
83887962,30.78720647846401,103.85864421903162,-0.0535297,-0.0,-0.009066316,-0.002343703,-0.022791011,0.15837228,0.014655228,0.091629304,0.0,3,0,0,0
84091984,30.787206492058132,103.85864422363896,-0.05022717,-0.0,-0.002693435,0.00013809951,-0.021661833,0.15834486,0.014646001,0.09156745,0.0,3,0,0,0
84291985,30.787206527538455,103.85864423602918,-0.049428254,-0.0,0.004635763,0.0019170572,-0.01783123,0.1583672,0.014624842,0.09159965,0.0,3,0,0,0
84495978,30.78720656483504,103.8586442536311,-0.055889703,-0.0,0.008299287,0.0047341585,-0.005166342,0.15836084,0.0143480385,0.09178984,0.0,3,0,0,0
84700799,30.787206600026582,103.85864427663574,-0.06634775,-0.0,0.011595879,0.0068387007,0.007571352,0.15844852,0.014344606,0.09181548,0.0,3,0,0,0
84900773,30.787206639858077,103.85864429311226,-0.072612636,-0.0,0.015922572,0.00705622,0.010355871,0.15848851,0.01436983,0.09184843,0.0,3,0,0,0
85104821,30.787206668843464,103.85864428680135,-0.07828273,-0.0,0.015413872,0.002498803,0.014685309,0.15856004,0.014522186,0.0918474,0.0,3,0,0,0
85308776,30.787206677608474,103.85864427047805,-0.07203448,-0.0,0.011681324,7.493576e-05,0.00079321465,0.15859711,0.014524756,0.09187401,0.0,3,0,0,0
85512854,30.787206676354803,103.85864425741433,-0.054461166,-0.0,0.009570632,-0.0010218421,-0.019469887,0.1585666,0.014673102,0.09177786,0.0,3,0,0,0
85712770,30.787206677615384,103.85864424734989,-0.0410894,-0.0,0.008994341,-0.00097437226,-0.028313939,0.15852517,0.014693986,0.091715775,0.0,3,0,0,0
85916830,30.78720667085316,103.85864423368184,-0.03736138,-0.0,0.005549076,-0.0034846116,-0.020015081,0.15858564,0.014661777,0.091652066,0.0,3,0,0,0
86121627,30.78720667678037,103.8586442229073,-0.03277888,-0.0,0.008362103,-0.0034655582,-0.023532314,0.1586147,0.014828603,0.09175315,0.0,3,0,0,0
86321634,30.787206693478044,103.85864422247167,-0.036748976,-0.0,0.009633209,-0.0022833776,-0.011738356,0.15862757,0.01480762,0.09169686,0.0,3,0,0,0
86521632,30.787206701972078,103.85864422631218,-0.047734406,-0.0,0.008429134,-0.0007744772,0.0019347351,0.15863289,0.014824527,0.09173059,0.0,3,0,0,0
86721593,30.78720670159877,103.85864422905067,-0.052887104,-0.0,0.0064619263,-0.00045747778,0.0023331402,0.15866649,0.014817732,0.091668956,0.0,3,0,0,0
86925584,30.78720669920888,103.8586442274022,-0.053327646,-0.0,0.005302388,-0.0015632517,0.0007968845,0.15867507,0.014830291,0.09161146,0.0,3,0,0,0
87130381,30.78720668856989,103.85864422461943,-0.04915456,-0.0,0.0019449173,-0.0011090436,-0.0051774303,0.15867342,0.0145782465,0.091625005,0.0,3,0,0,0
87330394,30.787206665323275,103.85864422792663,-0.037404,-0.0,-0.0022628456,0.0004996141,-0.019344997,0.15869248,0.014576435,0.09157492,0.0,3,0,0,0
87534397,30.787206629275474,103.85864422768617,-0.022251822,-0.0,-0.007894564,-0.00056389027,-0.033067364,0.15867871,0.014575539,0.091522045,0.0,3,0,0,0
87738382,30.787206586145434,103.8586442212896,-0.021618629,-0.0,-0.012837804,-0.0014699874,-0.023784874,0.1586836,0.014746697,0.091542095,0.0,3,0,0,0
87942394,30.78720655798765,103.85864423675469,-0.02182785,-0.0,-0.012181003,0.0018929908,-0.01988343,0.15869823,0.014741263,0.0914927,0.0,3,0,0,0
88142391,30.787206546252126,103.85864426260068,-0.04013234,-0.0,-0.0102162985,0.0060040923,0.008382691,0.15866475,0.0147549715,0.09144713,0.0,3,0,0,0
88347189,30.787206538492786,103.85864428460992,-0.048350826,-0.0,-0.01019872,0.0076865754,0.010516344,0.1587211,0.014881646,0.09146727,0.0,3,0,0,0
88551205,30.787206540136822,103.85864430020764,-0.054362856,-0.0,-0.006500605,0.008598608,0.0136131765,0.15866591,0.0148861455,0.091429465,0.0,3,0,0,0
88751191,30.787206532075146,103.8586443059689,-0.06435665,-0.0,-0.008921175,0.0068746796,0.022352777,0.15866202,0.014904922,0.0913884,0.0,3,0,0,0
88955245,30.787206539874305,103.85864430341177,-0.06675767,-0.0,-0.0042899656,0.005354554,0.019345531,0.15859972,0.015058586,0.09132233,0.0,3,0,0,0
89159240,30.78720655551857,103.85864429553344,-0.067592,-0.0,-0.000967409,0.0031529856,0.017365772,0.15856205,0.015074627,0.09137627,0.0,3,0,0,0
89363275,30.787206575778843,103.85864429029816,-0.06354811,-0.0,0.0018251925,0.0035128673,0.011513171,0.15854053,0.014738981,0.091401175,0.0,3,0,0,0
89563999,30.787206593545136,103.85864427184846,-0.058000278,-0.0,0.00396836,-0.0008750289,0.0062339385,0.15861356,0.014712961,0.09135936,0.0,3,0,0,0
89767970,30.78720661374052,103.85864425832466,-0.037474435,-0.0,0.0066048345,-0.000663292,-0.020333745,0.15862645,0.014710877,0.091415316,0.0,3,0,0,0
89972005,30.787206624336225,103.85864425523589,-0.008738326,-0.0,0.0060922997,-1.355072e-05,-0.04872061,0.1585828,0.013852853,0.0907699,0.0,3,0,0,0
90171973,30.787206624438685,103.85864425422409,0.0017467007,-0.0,0.005192148,0.0008126311,-0.043916423,0.15855147,0.0148962755,0.09158987,0.0,3,0,0,0
90376772,30.787206617729723,103.85864425184961,0.0031198272,-0.0,0.0036676473,-0.00034978756,-0.031542465,0.15858907,0.014886302,0.09163204,0.0,3,0,0,0
90580788,30.78720663661443,103.85864427443634,-0.0074394066,-0.0,0.008392389,0.0044930624,-0.010553331,0.1586047,0.013978456,0.09096747,0.0,3,0,0,0
90780782,30.787206650683608,103.85864427258181,-0.015561809,-0.0,0.009640326,0.0012646191,-0.00035859502,0.158598,0.013985227,0.091010176,0.0,3,0,0,0
90980810,30.787206653264462,103.85864425638214,-0.02347691,-0.0,0.0070461417,-0.0013529372,0.008472161,0.15851495,0.0140023,0.091049455,0.0,3,0,0,0
91184853,30.78720664557976,103.85864425286874,-0.032071136,-0.0,0.0043528657,-0.00065661164,0.01688833,0.15842335,0.01511979,0.0917888,0.0,3,0,0,0
91388818,30.78720665650157,103.85864424913323,-0.03826418,-0.0,0.008310795,-0.0007510245,0.020823795,0.1583644,0.014096916,0.09099977,0.0,3,0,0,0
91592755,30.78720667502481,103.85864422899785,-0.055544276,-0.0,0.010372209,-0.0048370636,0.039297946,0.15839575,0.014086908,0.09103911,0.0,3,0,0,0
91793566,30.787206693966596,103.85864420985291,-0.060639292,-0.0,0.01163229,-0.0054883524,0.033024423,0.15838178,0.014096149,0.090989344,0.0,3,0,0,0
91997562,30.787206698444464,103.85864419659787,-0.05611423,-0.0,0.0106370095,-0.0057940306,0.019107291,0.15836771,0.0138757415,0.090907075,0.0,3,0,0,0
92201581,30.787206702927882,103.85864419396833,-0.048188724,-0.0,0.0104112215,-0.004681572,0.007558995,0.15838139,0.013881251,0.0909485,0.0,3,0,0,0
92401576,30.787206693306974,103.85864417985296,-0.046142455,-0.0,0.006871579,-0.007211007,0.006613767,0.15831664,0.013875785,0.09108299,0.0,3,0,0,0
92601586,30.787206688123668,103.85864416086476,-0.020858763,-0.0,0.0066658137,-0.008430771,-0.02767108,0.1582542,0.013884773,0.09112227,0.0,3,0,0,0
92806402,30.787206694296483,103.85864414689074,-0.0008437743,-0.0,0.0076418323,-0.00840233,-0.041731104,0.15820397,0.013996867,0.09112503,0.0,3,0,0,0
93010392,30.787206696647935,103.85864414823337,0.0062945457,-0.0,0.0064381487,-0.005492071,-0.03792428,0.15815255,0.014006635,0.0910768,0.0,3,0,0,0
93210373,30.78720669662974,103.8586441550172,0.00683683,-0.0,0.0061709792,-0.003855774,-0.028965995,0.15813453,0.014007783,0.091024004,0.0,3,0,0,0
93414419,30.787206716942514,103.85864416297505,0.0051806606,-0.0,0.009675536,-0.00214949,-0.024313243,0.15819216,0.015242071,0.09189475,0.0,3,0,0,0
93618417,30.787206709592297,103.85864416948844,-0.0054539433,-0.0,0.0058352943,-0.0015759422,-0.009909638,0.15823051,0.01407209,0.09107483,0.0,3,0,0,0
93822404,30.787206697537727,103.85864417346444,-0.0014545431,-0.0,0.0033954158,-0.0024243044,-0.018528942,0.15832406,0.015345684,0.09195029,0.0,3,0,0,0
94023238,30.787206689203185,103.85864415792062,-0.010682416,-0.0,0.0037470222,-0.006641408,-0.001081713,0.15828261,0.013822166,0.09103278,0.0,3,0,0,0
94227210,30.787206678336865,103.85864413219352,-0.029578125,-0.0,0.0023132954,-0.00984705,0.022573508,0.15833922,0.014181717,0.09099051,0.0,3,0,0,0
94431252,30.78720664314897,103.85864408904666,-0.049432017,-0.0,-0.0044675996,-0.013643886,0.03919993,0.15827538,0.013957597,0.09099779,0.0,3,0,0,0
94631216,30.787206607652557,103.85864405908688,-0.060213983,-0.0,-0.007967453,-0.0139469495,0.041431293,0.15826166,0.013940502,0.09086037,0.0,3,0,0,0
94835216,30.78720656052345,103.85864405852196,-0.06442957,-0.0,-0.015418273,-0.0097129885,0.035893515,0.15821965,0.01396412,0.09090668,0.0,3,0,0,0
95039206,30.787206482625162,103.8586440724626,-0.064031154,-0.0,-0.024470199,-0.0075554997,0.028296554,0.15823539,0.014146608,0.090827405,0.0,3,0,0,0
95239977,30.787206431498948,103.85864407458088,-0.06098544,-0.0,-0.02238424,-0.005619413,0.020016925,0.1581593,0.014171507,0.090786114,0.0,3,0,0,0
95439994,30.787206449624115,103.85864409558259,-0.062123798,-0.0,-0.006821434,-0.002283437,0.021870755,0.1581723,0.01418662,0.09084395,0.0,3,0,0,0
95643991,30.787206511071023,103.85864411238792,-0.074567586,-0.0,0.0052532433,-0.0014824257,0.035649247,0.15819515,0.014212307,0.09089475,0.0,3,0,0,0
95847993,30.787206540290384,103.8586441098173,-0.07369251,-0.0,0.004455062,-0.00443362,0.022347378,0.15823787,0.01436736,0.09091161,0.0,3,0,0,0
96048794,30.78720654546503,103.85864409662379,-0.05063377,-0.0,0.0016116435,-0.0055991057,-0.013952374,0.15820263,0.014372348,0.090960585,0.0,3,0,0,0
96252787,30.787206541928455,103.85864409028075,-0.018066434,-0.0,0.0011526342,-0.0052922266,-0.045673035,0.15823588,0.014385793,0.0910155,0.0,3,0,0,0
96456794,30.787206536950478,103.8586440924621,0.008471902,-0.0,0.0011073323,-0.003293958,-0.062311,0.15823089,0.014516741,0.0910325,0.0,3,0,0,0
96660771,30.78720654887102,103.85864409693576,0.03572532,-0.0,0.005947669,-0.0034217308,-0.08138728,0.15822524,0.014524034,0.09098944,0.0,3,0,0,0
96860759,30.78720658089,103.85864409821944,0.07163856,-0.0,0.010630167,-0.0031597677,-0.10936942,0.15819632,0.014495252,0.09103855,0.0,3,0,0,0
97064884,30.7872065967937,103.85864410599864,0.1007363,-0.0,0.008799925,-0.0016558734,-0.11795835,0.15820959,0.0142414225,0.09114721,0.0,3,0,0,0
97268751,30.787206595872203,103.85864411869112,0.12193994,-0.0,0.005665299,0.00040024528,-0.12228438,0.15820366,0.014219802,0.091099694,0.0,3,0,0,0
97469570,30.787206593632888,103.85864413471988,0.14174645,-0.0,0.005290412,0.00257179,-0.124677084,0.15812375,0.014181381,0.09105262,0.0,3,0,0,0
97669593,30.787206596591552,103.85864416038952,0.14685623,-0.0,0.004005804,0.005133208,-0.1090065,0.15814131,0.014194538,0.091105506,0.0,3,0,0,0
97873619,30.787206587932346,103.85864417750786,0.14089006,-0.0,0.0016877741,0.004604616,-0.085056596,0.15814276,0.014351687,0.09112227,0.0,3,0,0,0
98077601,30.787206575542122,103.85864419991546,0.13030657,-0.0,-0.00089118304,0.0074574947,-0.063427664,0.15817639,0.014377346,0.091076,0.0,3,0,0,0
98281594,30.78720655638269,103.85864423472583,0.11321177,-0.0,-0.004284835,0.010497093,-0.038095,0.1581592,0.014519006,0.09118754,0.0,3,0,0,0
98481568,30.787206537774765,103.85864426730804,0.10611911,-0.0,-0.0055972566,0.012247004,-0.033059347,0.15812036,0.01451136,0.09114,0.0,3,0,0,0
98686371,30.787206524149674,103.8586442925445,0.10662942,-0.0,-0.0060432227,0.012370448,-0.02999823,0.15809812,0.014541908,0.09127996,0.0,3,0,0,0
98890439,30.787206505691575,103.85864429497137,0.105858855,-0.0,-0.009032698,0.007009527,-0.026149586,0.15809834,0.014312395,0.091209404,0.0,3,0,0,0
99090439,30.787206475695132,103.85864426406287,0.115322515,-0.0,-0.013354791,-0.00030488396,-0.036931913,0.15805206,0.014311163,0.09116355,0.0,3,0,0,0
99294452,30.78720644863839,103.85864422482256,0.118822806,-0.0,-0.014026341,-0.0046456913,-0.03185138,0.15790786,0.014318816,0.091211915,0.0,3,0,0,0
99498373,30.787206438933836,103.8586442034144,0.114391394,-0.0,-0.0109391995,-0.00427701,-0.020079616,0.15777937,0.014436685,0.0913224,0.0,3,0,0,0
99702393,30.78720644076338,103.85864421110688,0.11146807,-0.0,-0.0076308963,0.0003663826,-0.014525267,0.15761513,0.014418967,0.09127307,0.0,3,0,0,0
99903300,30.78720644458906,103.85864423706077,0.112500876,-0.0,-0.005911991,0.0045818365,-0.014977159,0.15748808,0.014426341,0.09123174,0.0,3,0,0,0
100107221,30.787206452808537,103.85864426391844,0.10519869,-0.0,-0.0034537904,0.007313902,-0.0008707342,0.1574044,0.014595422,0.091253854,0.0,3,0,0,0
100311299,30.78720647232496,103.8586442860186,0.09844026,-0.0,0.0010022603,0.008509633,0.004741901,0.15721627,0.014608033,0.091209486,0.0,3,0,0,0
100511205,30.78720650171207,103.85864430160593,0.09019772,-0.0,0.0052707936,0.007980826,0.012460435,0.15713267,0.014595206,0.09116516,0.0,3,0,0,0
100716001,30.78720655317304,103.85864432579395,0.07914763,-0.0,0.013262519,0.011037846,0.022624686,0.15699661,0.014722503,0.09118864,0.0,3,0,0,0
100919983,30.787206627725162,103.85864436920423,0.064978704,-0.0,0.013062842,0.015972601,0.034144137,0.15708026,0.0147577375,0.091157325,0.0,3,0,0,0
101119962,30.787206704339535,103.85864440781889,0.064094454,-0.0,0.02835858,0.0153168645,0.025550816,0.15684077,0.014761413,0.091208555,0.0,3,0,0,0
101323956,30.78720675236801,103.85864444838074,0.049816526,-0.0,0.028493522,0.018037125,0.04362658,0.15756582,0.014887877,0.0913232,0.0,3,0,0,0
101527967,30.78720672611322,103.85864447647293,0.03460148,-0.0,0.0003160861,0.017773928,0.04885673,0.15675901,0.014911208,0.09137361,0.0,3,0,0,0
101728800,30.787206687903954,103.8586444774212,0.02709388,-0.0,0.011033485,0.015416434,0.04535453,0.15716697,0.014908834,0.091511734,0.0,3,0,0,0
101928813,30.787206657357608,103.85864446555402,0.029380327,-0.0,0.015039419,0.013315497,0.026392097,0.15748933,0.014405004,0.09155007,0.0,3,0,0,0
102132856,30.787206662213688,103.85864441752209,0.05831699,-0.0,-0.0035556643,-0.020647136,-0.023967255,0.19143954,0.014566144,0.09156424,0.0,3,0,0,0
102336762,30.78720663927947,103.85864438877812,0.073698364,-0.0,-0.064356394,-0.0035045526,-0.030089142,0.22726049,0.0145109715,0.09150233,0.0,3,0,0,0
102540775,30.787206464643443,103.85864418959883,0.086396545,-0.0,-0.15479077,-0.13482377,-0.077453464,0.09957076,0.014713999,0.09161501,0.0,3,0,0,0
102740773,30.78720619661403,103.85864375117275,0.111389585,-0.0,-0.16404842,-0.25841498,-0.18865497,-0.09395552,0.014735759,0.09156428,0.0,3,0,0,0
102944816,30.7872059320176,103.85864297388709,0.1570949,-0.0,-0.11408654,-0.36006615,-0.25142032,-0.25742465,0.014787414,0.09160965,0.0,3,0,0,0
103149566,30.787205725137955,103.85864220434702,0.22385873,-0.0,-0.12114737,-0.32307974,-0.30883846,-0.3941204,0.015123773,0.09153565,0.0,3,0,0,0
103349611,30.78720550760926,103.85864162872716,0.29284957,-0.0,-0.11174869,-0.25311264,-0.28940958,-0.49557513,0.015539822,0.09149754,0.0,3,0,0,0
103549584,30.78720520974932,103.85864134597686,0.37021026,-0.0,-0.16033523,-0.12163116,-0.2759745,-0.5753134,0.014148178,0.09083338,0.0,3,0,0,0
103753562,30.787204946304602,103.85864130576631,0.4023718,-0.0,-0.13247861,-0.010835695,-0.25223455,-0.661913,0.016455255,0.09152518,0.0,3,0,0,0
103957579,30.787204658742485,103.8586412340237,0.41838577,-0.0,-0.1303214,-0.042213395,-0.23813573,-0.76081514,0.014095961,0.09088197,0.0,3,0,0,0
104161578,30.787204396689187,103.8586411557169,0.4571392,-0.0,-0.10149473,-0.009573859,-0.3508644,-0.8660552,0.014499176,0.09083216,0.0,3,0,0,0
104362372,30.787204136907352,103.85864098471046,0.52278405,-0.0,-0.11471445,-0.058142357,-0.4366234,-0.94921124,0.014489897,0.090785794,0.0,3,0,0,0
104566368,30.78720394665533,103.85864076706531,0.62278396,-0.0,-0.12946586,-0.037655845,-0.39906958,-1.0315123,0.014262545,0.090797804,0.0,3,0,0,0
104766419,30.787203633234217,103.85864049480521,0.6862238,-0.0,-0.14474049,-0.061406262,-0.25987217,-1.0751388,0.01421227,0.09084479,0.0,3,0,0,0
104966460,30.78720349701263,103.85864027260415,0.7132824,-0.0,-0.044246517,-0.015719492,-0.08920773,-1.0935198,0.014182483,0.09079805,0.0,3,0,0,0
105170390,30.787203637275937,103.85864018381277,0.72726995,-0.0,0.097087964,0.05609609,-0.09921106,-1.0994925,0.014127154,0.09075413,0.0,3,0,0,0
105374366,30.78720388414129,103.85864028722814,0.73309565,-0.0,0.15988997,0.12210318,0.062062234,-1.0551269,0.0142406775,0.09076389,0.0,3,0,0,0
105575198,30.787204219180243,103.85864049221043,0.6871581,-0.0,0.20562786,0.15432158,0.29569727,-0.9973252,0.014205812,0.09081218,0.0,3,0,0,0
105779271,30.787204624401515,103.85864079328768,0.586885,-0.0,0.21836595,0.21429098,0.44370693,-0.9081855,0.0142038185,0.09077281,0.0,3,0,0,0
105983222,30.78720502415131,103.85864112824405,0.4770603,-0.0,0.23546737,0.19907327,0.43316007,-0.8258823,0.014283426,0.09078607,0.0,3,0,0,0
106187230,30.787205431444892,103.85864137679917,0.3722613,-0.0,0.23177552,0.17901586,0.4719776,-0.7275088,0.0142406635,0.09074512,0.0,3,0,0,0
106387236,30.787205694565255,103.85864164362104,0.26431996,-0.0,0.16910003,0.17490624,0.48858607,-0.6135447,0.014221946,0.09070572,0.0,3,0,0,0
106591957,30.78720572877114,103.85864182131255,0.14516015,-0.0,0.013012215,0.09318084,0.4135931,-0.5077008,0.015038411,0.09159824,0.0,3,0,0,0
106795995,30.78720552008895,103.85864182564588,0.049663063,-0.0,-0.076140255,-0.006450283,0.36086592,-0.4591553,0.01437652,0.09150563,0.0,3,0,0,0
107000011,30.787205246887076,103.85864174021255,-0.03227151,-0.0,-0.12290934,-0.07143684,0.3148107,-0.44725183,0.014342493,0.09149882,0.0,3,0,0,0
107199945,30.787205016053935,103.85864165770096,-0.0564913,-0.0,-0.12914535,-0.07653288,0.21067221,-0.4898314,0.014229261,0.091432266,0.0,3,0,0,0
107403974,30.787204833924232,103.85864158609841,-0.0494176,-0.0,-0.04000147,-0.06766666,0.09529444,-0.5302812,0.014082817,0.09146807,0.0,3,0,0,0
107608761,30.7872048272259,103.85864174659844,-0.03064969,-0.0,-0.015330633,0.05391696,0.10527166,-0.46342382,0.014146607,0.0914708,0.0,3,0,0,0
107808775,30.787204689397008,103.85864193358822,-0.005759973,-0.0,-0.03563027,-0.021646354,0.0036957685,-0.45044175,0.014829186,0.092522174,0.0,3,0,0,0
108012809,30.787204561189586,103.85864207704712,0.009802244,-0.0,-0.09387825,0.0063540726,-0.0013362136,-0.4504862,0.014601578,0.09245365,0.0,3,0,0,0
108216759,30.787204433710098,103.85864219470778,0.010540539,-0.0,-0.09377119,0.01269318,0.0013688324,-0.45210013,0.014546666,0.09240272,0.0,3,0,0,0
108420760,30.787204327155106,103.85864231059543,0.0076818243,-0.0,-0.08290041,0.020110652,0.005937052,-0.4529603,0.014423956,0.09239312,0.0,3,0,0,0
108620793,30.787204333439607,103.85864237198841,0.0021585927,-0.0,-0.05549208,0.01863194,0.012228925,-0.453873,0.014321418,0.09229856,0.0,3,0,0,0
108824854,30.78720445838539,103.85864242709503,-0.0133599015,-0.0,-0.020244028,0.021659475,0.027812328,-0.45473534,0.014022949,0.09236975,0.0,3,0,0,0
109029562,30.787204596322294,103.85864248848739,-0.028469535,-0.0,0.0011155426,0.027079577,0.037636124,-0.45551735,0.014006986,0.09228115,0.0,3,0,0,0
109229563,30.78720472378664,103.85864254894534,-0.04279464,-0.0,0.015126148,0.0298821,0.042702556,-0.45621085,0.014022556,0.09220189,0.0,3,0,0,0
109433561,30.787204840945126,103.85864259318302,-0.049446534,-0.0,0.02473925,0.028693363,0.038401205,-0.45703197,0.014070779,0.0920853,0.0,3,0,0,0
109637548,30.78720492888368,103.85864262447032,-0.047528893,-0.0,0.027839845,0.02722722,0.0269493,-0.4578833,0.014071499,0.09200256,0.0,3,0,0,0
109841559,30.787204993768196,103.8586426388098,-0.047784735,-0.0,0.030055655,0.023043819,0.024244789,-0.4587393,0.014163584,0.09198155,0.0,3,0,0,0
110042373,30.787205072094395,103.85864263326675,-0.03976376,-0.0,0.036575228,0.01764172,0.008373176,-0.45954984,0.014184636,0.091996714,0.0,3,0,0,0
110246338,30.787205144480083,103.85864262257081,-0.026659375,-0.0,0.037925243,0.013598806,-0.007584513,-0.46038234,0.01426136,0.0919233,0.0,3,0,0,0
110450407,30.787205199948303,103.85864261347673,-0.021774266,-0.0,0.036435015,0.010712872,-0.006694833,-0.4611196,0.014436421,0.09190524,0.0,3,0,0,0
110650395,30.78720523593142,103.85864260382624,-0.03153301,-0.0,0.033038635,0.0082764635,0.009402255,-0.4617596,0.014453182,0.09182852,0.0,3,0,0,0
110850362,30.787205259896044,103.85864259924614,-0.043788742,-0.0,0.029557316,0.0072192354,0.01755468,-0.46240184,0.014443883,0.09184921,0.0,3,0,0,0
111054413,30.787205269227922,103.85864260855844,-0.04099992,-0.0,0.023591649,0.008829887,0.0028412067,-0.46315217,0.014425378,0.091681965,0.0,3,0,0,0
111259203,30.787205263522615,103.85864262492115,-0.027588282,-0.0,0.017397176,0.009635264,-0.015829517,-0.46401113,0.01455176,0.09167211,0.0,3,0,0,0
111459192,30.78720525420681,103.85864263562584,-0.018656297,-0.0,0.012471651,0.009384382,-0.02049421,-0.46476287,0.014093494,0.0916106,0.0,3,0,0,0
111663233,30.78720524495722,103.85864264496247,-0.024531744,-0.0,0.009438745,0.009177553,-0.003487666,-0.46541145,0.01404606,0.0915434,0.0,3,0,0,0
111867220,30.787205234682325,103.85864264775958,-0.047454186,-0.0,0.005552354,0.007445203,0.024446892,-0.46601954,0.014161229,0.0915378,0.0,3,0,0,0
112071284,30.787205212593825,103.85864263303479,-0.06341866,-0.0,-0.00011584709,0.0031974,0.0326937,-0.46670288,0.014191995,0.09147548,0.0,3,0,0,0
112271229,30.78720520499389,103.85864261923754,-0.06300496,-0.0,0.002241565,0.0022481848,0.016060214,-0.4674915,0.01422282,0.09150916,0.0,3,0,0,0
112475999,30.787205220634256,103.8586426210951,-0.04545107,-0.0,0.004881715,0.003219703,-0.01194151,-0.4683318,0.014413971,0.09151078,0.0,3,0,0,0
112679981,30.78720522351653,103.85864261532322,-0.016660266,-0.0,0.0021860616,0.0014036787,-0.04495943,-0.4691591,0.0144587355,0.091459565,0.0,3,0,0,0
112879979,30.787205221078228,103.85864260755447,0.014203111,-0.0,0.0021839691,0.0005566159,-0.06785226,-0.46986043,0.0144567145,0.091496095,0.0,3,0,0,0
113079965,30.78720522124212,103.85864260632228,0.02494817,-0.0,0.0011357563,0.0015755426,-0.0564763,-0.47049445,0.014457365,0.0915309,0.0,3,0,0,0
113284817,30.78720522856426,103.85864260379348,0.006882455,-0.0,0.0034864193,0.0016179017,-0.016203143,-0.47100395,0.014573929,0.091533214,0.0,3,0,0,0
113488787,30.78720524759279,103.85864260268812,-0.022170525,-0.0,0.004758648,0.001975238,0.019037917,-0.47146556,0.0145817315,0.09157389,0.0,3,0,0,0
113688806,30.78720525051781,103.85864260216304,-0.032113936,-0.0,0.0015775561,0.002402091,0.014655214,-0.4720787,0.014600485,0.09151671,0.0,3,0,0,0
113892795,30.787205256900137,103.85864260367696,-0.030714415,-0.0,0.004661046,0.0033402548,0.005093155,-0.47272736,0.014286171,0.09161301,0.0,3,0,0,0
114096818,30.787205263587335,103.85864259564816,-0.03630184,-0.0,0.0031381703,0.0012441241,0.0130720455,-0.47336614,0.014310091,0.09155526,0.0,3,0,0,0
114300880,30.787205247754134,103.85864258130651,-0.043523073,-0.0,-0.00019078076,-0.00039821694,0.019929385,-0.47397372,0.01446197,0.091562,0.0,3,0,0,0
114500754,30.787205236620224,103.85864258503457,-0.039936002,-0.0,-0.00027490285,0.0024867437,0.008073947,-0.47458565,0.014388817,0.09150079,0.0,3,0,0,0
114705558,30.787205242417205,103.85864261794468,-0.03280283,-0.0,0.0028210604,0.008648805,-0.0007953397,-0.47511932,0.014351293,0.09153469,0.0,3,0,0,0
114909552,30.787205260351946,103.85864264297014,-0.046216737,-0.0,0.0062591806,0.008498991,0.021032354,-0.4756757,0.0144975465,0.09154561,0.0,3,0,0,0
115109582,30.787205264492304,103.85864263263451,-0.059478886,-0.0,0.0027357298,0.0024576124,0.030174749,-0.47621542,0.014502077,0.09148756,0.0,3,0,0,0
115309592,30.787205258064276,103.85864259661095,-0.051120296,-0.0,0.0018775682,-0.0049735582,0.006308566,-0.47684062,0.0144642405,0.09142896,0.0,3,0,0,0
115513644,30.78720527103933,103.85864256469358,-0.042744316,-0.0,0.006716629,-0.0039377394,-0.0002853676,-0.47747633,0.014443672,0.09137209,0.0,3,0,0,0
115718478,30.78720530472071,103.85864257094515,-0.041484416,-0.0,0.012823453,0.0004950337,0.00045667082,-0.47805172,0.014589031,0.091380514,0.0,3,0,0,0
115918368,30.7872053481589,103.85864258974587,-0.029911486,-0.0,0.01799743,0.0048857084,-0.014589864,-0.47859022,0.014613823,0.091427,0.0,3,0,0,0
116122456,30.787205387801148,103.85864262819308,-0.020449484,-0.0,0.019468842,0.010842588,-0.019734845,-0.4791072,0.014626154,0.091375686,0.0,3,0,0,0
116326348,30.787205420557193,103.85864267015342,-0.011153525,-0.0,0.020439858,0.013586746,-0.026824135,-0.47967115,0.014437439,0.09139817,0.0,3,0,0,0
116526364,30.787205437810506,103.85864269295051,-0.013085022,-0.0,0.018464802,0.012535397,-0.016760437,-0.48017102,0.014478776,0.091352165,0.0,3,0,0,0
116726459,30.787205440554477,103.85864269522942,-0.022747204,-0.0,0.014732605,0.009175732,-0.0013226782,-0.48066467,0.014479938,0.09130689,0.0,3,0,0,0
116926369,30.78720543920339,103.85864268871812,-0.034246653,-0.0,0.01349212,0.007318609,0.0114130275,-0.4810862,0.014513704,0.0913586,0.0,3,0,0,0
117131263,30.787205426957748,103.85864267721786,-0.029801749,-0.0,0.00890196,0.0041638194,-0.002766549,-0.48164105,0.014556164,0.09141546,0.0,3,0,0,0
117335251,30.787205413706634,103.85864266421447,-0.019995637,-0.0,0.007010161,0.0029915222,-0.01608564,-0.48217043,0.0146862045,0.09143507,0.0,3,0,0,0
117535230,30.787205407727402,103.85864267171257,-0.02361239,-0.0,0.006560716,0.005439316,-0.0043688705,-0.48267695,0.014651337,0.09138491,0.0,3,0,0,0
117739226,30.787205387210964,103.85864268014976,-0.034384593,-0.0,0.0011132642,0.0055919276,0.010232462,-0.4831881,0.014667327,0.09134187,0.0,3,0,0,0
117943210,30.78720536254441,103.85864267274447,-0.034702465,-0.0,-0.0023641,0.0028526473,0.0042294096,-0.48372304,0.014825307,0.09136671,0.0,3,0,0,0
118143994,30.787205343586905,103.85864262276189,-0.0080118645,-0.0,-0.0035941508,-0.007167766,-0.036117878,-0.48426318,0.01482584,0.091323726,0.0,3,0,0,0
118343975,30.787205325362034,103.85864256495425,0.006006032,-0.0,-0.004907351,-0.012459644,-0.040737595,-0.4847432,0.014837145,0.09128873,0.0,3,0,0,0
118547966,30.787205300773596,103.85864251969217,0.009355414,-0.0,-0.007784725,-0.013380484,-0.033845816,-0.4852514,0.014862906,0.09143809,0.0,3,0,0,0
118751943,30.787205276985727,103.85864248657583,0.0070873937,-0.0,-0.008617259,-0.012952232,-0.024862925,-0.48568004,0.015020607,0.09146632,0.0,3,0,0,0
118956032,30.787205263736897,103.85864246772084,0.0027967433,-0.0,-0.0071639633,-0.010885254,-0.015821345,-0.48615205,0.015026686,0.09151595,0.0,3,0,0,0
119156867,30.78720525541866,103.85864246928546,0.010626296,-0.0,-0.006113394,-0.0059606507,-0.027544377,-0.4865659,0.014996842,0.09146714,0.0,3,0,0,0
119360770,30.787205265772496,103.85864248039962,0.040045157,-0.0,-0.0014590432,-0.0031668323,-0.06166051,-0.48703632,0.013710544,0.09083012,0.0,3,0,0,0
119564832,30.787205265048577,103.85864249231732,0.046262085,-0.0,-0.0024733793,-0.0006500292,-0.05029646,-0.4874192,0.014710449,0.09154327,0.0,3,0,0,0
119764869,30.787205277160606,103.85864250246823,0.054932326,-0.0,0.0015236216,0.0011006858,-0.051481437,-0.48780015,0.014709127,0.091590695,0.0,3,0,0,0
119968770,30.7872052615311,103.85864251876714,0.05699117,-0.0,-0.0032682968,0.0034183254,-0.044113837,-0.4882111,0.014882313,0.09161729,0.0,3,0,0,0
120172802,30.78720526014129,103.85864254568416,0.05105583,-0.0,-0.00092350965,0.006844114,-0.028577536,-0.48853594,0.014868257,0.09156907,0.0,3,0,0,0
120373654,30.787205247338033,103.85864255891764,0.069061965,-0.0,-0.00288245,0.0064328164,-0.050584234,-0.48896092,0.013848663,0.09083763,0.0,3,0,0,0
120573574,30.78720524159734,103.85864257888424,0.055880256,-0.0,-0.0017917927,0.008958505,-0.019963672,-0.48941132,0.013868286,0.0907971,0.0,3,0,0,0
120777594,30.787205262116046,103.85864259138349,0.05632441,-0.0,0.003815597,0.007844478,-0.021551115,-0.48976177,0.013981675,0.09089671,0.0,3,0,0,0
120981574,30.787205275859783,103.85864259466025,0.072042674,-0.0,0.005419848,0.0065782694,-0.040101185,-0.49023777,0.013974454,0.09085163,0.0,3,0,0,0
121185583,30.787205314468682,103.85864258866282,0.07992428,-0.0,0.013356084,0.0031929603,-0.039409056,-0.49059433,0.014048613,0.09077067,0.0,3,0,0,0
121385579,30.7872053779315,103.85864256945838,0.09575936,-0.0,0.022927247,-0.00087891903,-0.051842134,-0.49100927,0.014052415,0.09090895,0.0,3,0,0,0
121590450,30.787205423832788,103.85864254088268,0.093455255,-0.0,0.0234643,-0.00481781,-0.03638109,-0.49133047,0.014074882,0.09095398,0.0,3,0,0,0
121794426,30.787205441393635,103.85864249720252,0.0983952,-0.0,0.019986795,-0.009516385,-0.036833167,-0.49172246,0.013872813,0.090874515,0.0,3,0,0,0
121994450,30.787205432933494,103.85864248292498,0.09073445,-0.0,0.013111635,-0.006733513,-0.018302198,-0.49203426,0.014225939,0.09082951,0.0,3,0,0,0
122198360,30.78720536870763,103.85864247048283,0.08649653,-0.0,-0.0027385124,-0.0062697073,-0.010735764,-0.49240336,0.013862876,0.09078552,0.0,3,0,0,0
122402354,30.787205304073442,103.85864248572427,0.05448841,-0.0,-0.008697082,-0.0011409249,0.030095823,-0.49273118,0.01399543,0.09079699,0.0,3,0,0,0
122606435,30.787205276465368,103.85864250287085,0.031690642,-0.0,-0.006519664,0.0007765552,0.045393687,-0.49310192,0.014005337,0.090754755,0.0,3,0,0,0
122807214,30.787205270671077,103.85864251361515,0.01726524,-0.0,-0.0037515063,0.00083199237,0.04879521,-0.4934526,0.0140197305,0.09071435,0.0,3,0,0,0
123011201,30.787205255276074,103.85864250462123,0.010648028,-0.0,-0.006867743,-0.0036746545,0.043969907,-0.4937691,0.014160795,0.090738945,0.0,3,0,0,0
123215213,30.78720522276608,103.85864246677303,0.006993005,-0.0,-0.012558231,-0.008790547,0.03853324,-0.49415532,0.014133567,0.09070222,0.0,3,0,0,0
123415243,30.787205173987736,103.85864243040643,0.018274447,-0.0,-0.017621774,-0.011066931,0.016721813,-0.49450177,0.014110601,0.090666585,0.0,3,0,0,0
123619253,30.78720514876209,103.85864241874378,0.025254184,-0.0,-0.015601895,-0.008952592,0.008833103,-0.49488848,0.014256721,0.090597145,0.0,3,0,0,0
123823254,30.787205143356815,103.85864240766487,0.03034774,-0.0,-0.010127541,-0.008501495,0.0035999909,-0.4951965,0.0142511735,0.09056364,0.0,3,0,0,0
124023970,30.78720516317319,103.85864240726757,0.032568447,-0.0,-0.002801275,-0.005897659,0.002250161,-0.4954102,0.01427375,0.09053665,0.0,3,0,0,0
124227963,30.78720519903717,103.8586424192127,0.029261256,-0.0,0.004396944,-0.0031002748,0.0064797993,-0.4956856,0.014020872,0.09056278,0.0,3,0,0,0
124431967,30.787205234402247,103.8586424267863,0.011998395,-0.0,0.008702816,-0.0025263985,0.029783553,-0.4959579,0.014007165,0.090712495,0.0,3,0,0,0
124635982,30.787205269493803,103.85864244327226,-0.016617661,-0.0,0.013469539,0.001387114,0.057217285,-0.49621737,0.014144551,0.09073583,0.0,3,0,0,0
124835987,30.78720531331044,103.85864247282024,-0.02469444,-0.0,0.017984608,0.0049363007,0.046546474,-0.49647877,0.014159116,0.0907003,0.0,3,0,0,0
125036809,30.78720534220085,103.85864248883026,-0.005308836,-0.0,0.017892895,0.004134806,0.0062781717,-0.49677265,0.014185988,0.09076214,0.0,3,0,0,0
125240814,30.787205362918563,103.85864249288575,0.026016813,-0.0,0.018387524,0.0034982811,-0.02889149,-0.4970806,0.014182998,0.090725906,0.0,3,0,0,0
125444868,30.78720539634866,103.85864249657374,0.038577404,-0.0,0.022177307,0.0035932374,-0.023562111,-0.49734482,0.014289194,0.09074979,0.0,3,0,0,0
125644827,30.787205441776102,103.85864250404094,0.025709847,-0.0,0.028000625,0.0037161973,0.0032502662,-0.49760568,0.014297399,0.09080576,0.0,3,0,0,0
125848769,30.787205485747585,103.85864250987694,0.026400896,-0.0,0.029340358,0.0041502067,-0.004723046,-0.49788335,0.014311256,0.090860695,0.0,3,0,0,0
126052837,30.78720550607761,103.85864252279517,0.0384094,-0.0,0.025626052,0.005995805,-0.02209727,-0.49806565,0.014443828,0.09097447,0.0,3,0,0,0
126252805,30.787205510048505,103.85864254758351,0.04487828,-0.0,0.021076571,0.0077336472,-0.025069116,-0.49830163,0.014444751,0.09093326,0.0,3,0,0,0
126457584,30.78720549678821,103.85864256617302,0.045842756,-0.0,0.015544404,0.0076819044,-0.020292772,-0.4985258,0.014456081,0.09099121,0.0,3,0,0,0
126661585,30.787205467833815,103.85864258327825,0.040735338,-0.0,0.008636163,0.008844965,-0.009214262,-0.49877974,0.014186531,0.09091888,0.0,3,0,0,0
126865548,30.787205430941174,103.85864260653054,0.036960173,-0.0,0.0028379958,0.009365494,-0.0066271466,-0.4989867,0.014216972,0.090970926,0.0,3,0,0,0
127065588,30.787205386355993,103.85864261834651,0.028871164,-0.0,-0.0035766657,0.009125592,0.0051784394,-0.4991908,0.014242683,0.09093116,0.0,3,0,0,0
127269617,30.787205350222514,103.85864263791503,0.019288223,-0.0,-0.0043007797,0.0115239695,0.011791089,-0.49946547,0.01438057,0.091046296,0.0,3,0,0,0
127474384,30.787205324908008,103.85864266450352,0.01674022,-0.0,-0.006245374,0.011572656,0.009252679,-0.4996887,0.014374921,0.09100522,0.0,3,0,0,0
127674440,30.78720530901504,103.8586426754787,0.002261458,-0.0,-0.004418682,0.009030626,0.029802224,-0.49993455,0.014374235,0.090971895,0.0,3,0,0,0
127874392,30.787205322623148,103.85864267579241,-0.027699435,-0.0,0.0024460193,0.007156638,0.062263727,-0.5000784,0.014370487,0.09102399,0.0,3,0,0,0
128078390,30.787205345031392,103.858642678334,-0.058014102,-0.0,0.005450761,0.0069120433,0.08221332,-0.5001692,0.014494765,0.0910461,0.0,3,0,0,0
128282371,30.787205362817524,103.85864267257162,-0.078445055,-0.0,0.0072541125,0.00388286,0.08594023,-0.50024265,0.0144755775,0.091005586,0.0,3,0,0,0
128486385,30.787205373268634,103.85864264797641,-0.09440823,-0.0,0.007704781,-0.00056525634,0.085977346,-0.5002514,0.0154273305,0.09211732,0.0,3,0,0,0
128687224,30.787205372300956,103.85864261380931,-0.12281715,-0.0,0.0064878054,-0.0044858805,0.108730495,-0.5003321,0.015131794,0.091953345,0.0,3,0,0,0
128891307,30.78720537731987,103.85864255309161,-0.1277796,-0.0,0.018501502,-0.004229694,0.08761828,-0.5006776,0.01492975,0.091843605,0.0,3,0,0,0
129095221,30.78720538931157,103.85864248997227,-0.11788142,-0.0,0.015530961,-0.010157584,0.06783659,-0.50081813,0.015276498,0.09331569,0.0,3,0,0,0
129295213,30.78720544491393,103.858642478891,-0.10572617,-0.0,0.023388064,-0.009430205,0.046582755,-0.50077015,0.015358427,0.092956655,0.0,3,0,0,0
129499254,30.78720551671695,103.85864251300912,-0.08626177,-0.0,0.03018316,-0.0015990641,0.021302659,-0.50079656,0.014627568,0.092735305,0.0,3,0,0,0
129703219,30.787205527200168,103.85864254507312,-0.066176385,-0.0,0.02151883,0.0010773165,-1.7627084e-05,-0.5009303,0.014651471,0.09274912,0.0,3,0,0,0
129903970,30.787205508335266,103.85864257464716,-0.054540936,-0.0,0.0163669,0.003878102,-0.006975692,-0.5011224,0.014601342,0.0926132,0.0,3,0,0,0
130104022,30.78720547953364,103.85864258426459,-0.06480557,-0.0,0.009240312,8.714793e-05,0.013974375,-0.50132,0.014497236,0.092591345,0.0,3,0,0,0
130307982,30.787205431169667,103.85864252388322,-0.07484886,-0.0,0.0009987338,-0.0146609275,0.018391429,-0.50147396,0.014424157,0.09248132,0.0,3,0,0,0
130512044,30.78720538851877,103.85864243170289,-0.071293145,-0.0,-0.0031830166,-0.023052622,0.0077466187,-0.5016162,0.014564324,0.09254744,0.0,3,0,0,0
130716042,30.787205355691565,103.85864237621846,-0.082322925,-0.0,0.012929369,-0.02960045,0.022004452,-0.5025597,0.0146194715,0.092550084,0.0,3,0,0,0
130916821,30.78720536161291,103.85864233977432,-0.09270219,-0.0,0.02475041,-0.026621267,0.032309175,-0.5054971,0.014709808,0.09265651,0.0,3,0,0,0
131120782,30.78720540162676,103.85864231144603,-0.10122727,-0.0,0.010518526,-0.023997126,0.031894777,-0.50043124,0.014890994,0.09253185,0.0,3,0,0,0
131324843,30.787205510561567,103.85864229923804,-0.09718985,-0.0,0.025822347,-0.022673711,0.019119881,-0.5002054,0.014890163,0.092440255,0.0,3,0,0,0
131524845,30.787205613972027,103.85864230805959,-0.10064347,-0.0,0.02003672,-0.01316677,0.027306747,-0.50117606,0.014852751,0.09235082,0.0,3,0,0,0
131728764,30.787205649042413,103.85864232956476,-0.09621481,-0.0,0.01344307,0.0020824564,0.0139600355,-0.5015722,0.014537255,0.092331655,0.0,3,0,0,0
131932770,30.787205563649643,103.85864240247872,-0.09106813,-0.0,0.008493553,0.0038519925,-0.001915413,-0.5108737,0.01452586,0.092344165,0.0,3,0,0,0
132133592,30.787205455513135,103.85864253803426,-0.07187746,-0.0,0.0218028,0.06300697,-0.15424578,-0.56879973,0.014531256,0.092357635,0.0,3,0,0,0
132333544,30.787205438035365,103.85864268411166,-0.005298874,-0.0,0.027972091,0.016942589,-0.4240023,-0.58463156,0.014544274,0.09228092,0.0,3,0,0,0
132537569,30.787205537085974,103.85864274219634,0.103968635,-0.0,-0.008104362,-0.013997048,-0.5635321,-0.60850054,0.014726347,0.092269875,0.0,3,0,0,0
132741561,30.78720534670664,103.85864267492744,0.23849234,-0.0,-0.18623306,-0.040419504,-0.6010178,-0.6414828,0.014757222,0.09229007,0.0,3,0,0,0
132945565,30.78720486827513,103.8586426183657,0.3682371,-0.0,-0.27134863,-0.015985081,-0.53032243,-0.6481263,0.014923078,0.09218607,0.0,3,0,0,0
133145564,30.78720432411069,103.85864269846051,0.51318246,-0.0,-0.29326725,0.008969888,-0.518703,-0.6540446,0.014872862,0.09220701,0.0,3,0,0,0
133350367,30.78720377055955,103.85864280832872,0.64507663,-0.0,-0.29126886,0.031117039,-0.45823514,-0.7263839,0.015657714,0.09335992,0.0,3,0,0,0
133554572,30.787203183275587,103.85864274185383,0.7690056,-0.0,-0.35132822,0.01298203,-0.4255156,-0.7645956,0.015518716,0.09312659,0.0,3,0,0,0
133754452,30.78720253764394,103.85864260362257,0.82951105,-0.0,-0.37567967,-0.021219093,-0.3400749,-0.7737143,0.01414016,0.09194224,0.0,3,0,0,0
133958390,30.787201856739685,103.85864229972887,0.83487207,-0.0,-0.3165582,-0.08835715,-0.25132653,-0.79381925,0.01516683,0.09300137,0.0,3,0,0,0
134162467,30.78720137968243,103.85864194804556,0.8295276,-0.0,-0.2584291,-0.1054912,-0.17776112,-0.85709214,0.013799698,0.09194802,0.0,3,0,0,0
134366439,30.787201100038654,103.85864165454565,0.8079848,-0.0,-0.15690106,-0.08706578,-0.11308282,-0.93133694,0.014810658,0.09274012,0.0,3,0,0,0
134567286,30.78720093376841,103.85864148618984,0.77899903,-0.0,-0.10283721,-0.07211632,-0.044852894,-0.9715402,0.0137891825,0.091800414,0.0,3,0,0,0
134771203,30.787200934093786,103.85864127717359,0.7398165,-0.0,-0.024162062,-0.09773592,0.10927728,-1.018828,0.014595482,0.09261907,0.0,3,0,0,0
134975209,30.78720103969369,103.85864104072226,0.69577765,-0.0,0.036957074,-0.0945827,0.123940535,-1.0652078,0.014379501,0.09249407,0.0,3,0,0,0
135175199,30.78720119165977,103.8586407766393,0.63896006,-0.0,0.05953832,-0.09562828,0.12983347,-1.0684388,0.014191084,0.09239393,0.0,3,0,0,0
135379203,30.78720135395689,103.8586405411904,0.59345376,-0.0,0.078040585,-0.09630572,0.13345942,-1.060042,0.014368467,0.09244216,0.0,3,0,0,0
135583178,30.787201509511203,103.85864035644566,0.5703225,-0.0,0.08651846,-0.11326982,0.1293802,-1.0745615,0.015259149,0.093268156,0.0,3,0,0,0
135783990,30.78720165870381,103.85864003127719,0.56935996,-0.0,0.08707934,-0.23485202,-0.10049181,-1.0936027,0.01614673,0.09480182,0.0,3,0,0,0
135983964,30.78720181155219,103.85863948583135,0.64154065,-0.0,0.09565874,-0.26640022,-0.513834,-1.116641,0.016816644,0.09697798,0.0,3,0,0,0
136187968,30.787201889633543,103.85863913262193,0.7773708,-0.0,0.008747235,-0.08703224,-0.710237,-1.113147,0.017377172,0.100199655,0.0,3,0,0,0
136391957,30.787201822796106,103.85863923736203,0.9347768,-0.0,-0.048044175,0.119357705,-0.70745665,-1.1149328,0.017521206,0.10439612,0.0,3,0,0,0
136595968,30.787201681190027,103.85863955994662,1.0656471,-0.0,-0.072712615,0.09743892,-0.5056189,-1.143422,0.016873635,0.10996501,0.0,3,0,0,0
136796800,30.78720149770924,103.85863978201918,1.1421499,-0.0,-0.09981488,0.09643694,-0.1750407,-1.181066,0.01687836,0.11643109,0.0,3,0,0,0
137000773,30.787201290731254,103.85864008326709,1.1520588,-0.0,-0.08761536,0.12753516,0.088055775,-1.2012621,0.016808655,0.12392689,0.0,3,0,0,0
137204854,30.7872011599794,103.85864036903772,1.1288602,-0.0,-0.046729773,0.10962447,0.18019325,-1.1912403,0.016942864,0.13257371,0.0,3,0,0,0
137404867,30.787201100221424,103.85864059274756,1.1009425,-0.0,-0.02087939,0.09373352,0.18922606,-1.1752177,0.016894225,0.1415723,0.0,3,0,0,0
137608817,30.78720108909811,103.85864071902309,1.076008,-0.0,0.0015151644,0.014144938,0.17639406,-1.1875904,0.016888063,0.1515221,0.0,3,0,0,0
137812788,30.78720107471944,103.85864069044707,1.0564592,-0.0,-0.02723132,-0.043472387,0.17920147,-1.1685295,0.017109603,0.1625066,0.0,3,0,0,0
138012807,30.787201018230203,103.85864054598498,1.0406684,-0.0,-0.029453564,-0.073718235,0.16139928,-1.1634123,0.017114216,0.17250425,0.0,3,0,0,0
138213631,30.787200961075744,103.8586403640288,1.0272632,-0.0,-0.038344007,-0.0838324,0.16298103,-1.1669881,0.017128557,0.1829733,0.0,3,0,0,0
138417566,30.78720086395379,103.85864018644384,1.0563211,-0.0,-0.06347075,-0.06372989,0.14367476,-1.1710082,0.015472809,0.13252813,0.0,3,0,0,0
138621560,30.787200773715632,103.85864004799342,1.1607572,-0.0,-0.057888888,-0.08136229,0.070142776,-1.177738,0.014917371,0.12337039,0.0,3,0,0,0
138821645,30.787200719610148,103.8586397227638,1.2284541,-0.0,-0.027581284,-0.20974351,0.046534676,-1.173514,0.014588461,0.11923913,0.0,3,0,0,0
139021616,30.787200675176376,103.85863910504341,1.2193474,-0.0,-0.042843442,-0.3678271,0.06440062,-1.164868,0.014441732,0.11690397,0.0,3,0,0,0
139225584,30.78720062837812,103.85863812670645,1.2127953,-0.0,-0.032491237,-0.4842802,-0.0038664914,-1.1590796,0.014409063,0.115700826,0.0,3,0,0,0
139430440,30.78720059355331,103.85863694099366,1.2537392,-0.0,-0.040029094,-0.5568514,-0.11802004,-1.16835,0.014160623,0.11471103,0.0,3,0,0,0
139630379,30.787200579072742,103.8586359419786,1.2744107,-0.0,-0.0119797895,-0.3873767,-0.0024232964,-1.1816056,0.0141488975,0.113639146,0.0,3,0,0,0
139834401,30.78720064107131,103.85863519426164,1.2566662,-0.0,0.041161377,-0.29507077,0.04463264,-1.2008939,0.014139885,0.11266393,0.0,3,0,0,0
140038368,30.787200737996486,103.85863454358339,1.2448621,-0.0,0.032181635,-0.3400808,0.026379436,-1.178233,0.014285093,0.11196588,0.0,3,0,0,0
