timestamp,timestamp_sample,control[0],control[1],control[2],control[3],control[4],control[5],control[6],control[7]
6489413,6489237,-0.0005275349,0.00018553092,-0.0013013093,0.0,0.0,0.0,0.0,-1.0
6493415,6493236,-0.0004713517,1.5036683e-05,0.0009708445,0.0,0.0,0.0,0.0,-1.0
6593432,6593238,-0.00066934555,0.00036778202,-0.0011864154,0.0,0.0,0.0,0.0,-1.0
6693439,6693237,-0.00044555138,0.00021395042,0.0004664147,0.0,0.0,0.0,0.0,-1.0
6797367,6797237,-0.00020199837,8.080522e-05,0.0012218674,0.0,0.0,0.0,0.0,-1.0
6897397,6897237,-0.0005208176,-0.00015672305,-0.0006118698,0.0,0.0,0.0,0.0,-1.0
7001407,7001238,-0.0005013077,0.00034547658,-0.0009862679,0.0,0.0,0.0,0.0,-1.0
7101416,7101237,4.332277e-05,0.00018378675,0.0001565344,0.0,0.0,0.0,0.0,-1.0
7201367,7201236,-0.00015097338,5.6582387e-05,-0.0002527457,0.0,0.0,0.0,0.0,-1.0
7302214,7302037,-8.239892e-05,0.00052742154,-0.000985958,0.0,0.0,0.0,0.0,-1.0
7406223,7406037,-0.00019929855,-2.8182578e-05,-0.0015265676,0.0,0.0,0.0,0.0,-1.0
7506201,7506037,-0.00058211334,0.00019971776,0.0013307675,0.0,0.0,0.0,0.0,-1.0
7610217,7610035,9.872223e-05,8.158349e-05,0.0011472605,0.0,0.0,0.0,0.0,-1.0
7710211,7710035,-0.000120643424,-3.754135e-05,-0.001408207,0.0,0.0,0.0,0.0,-1.0
7810221,7810038,-5.511043e-05,-2.9464281e-05,0.0007414937,0.0,0.0,0.0,0.0,-1.0
7914239,7914036,-0.00012842612,-0.00021517531,0.0013184543,0.0,0.0,0.0,0.0,-1.0
8014228,8014037,-0.0001581385,-0.0001642926,-0.00088712043,0.0,0.0,0.0,0.0,-1.0
8114226,8114039,-0.00020369113,0.00032500544,-3.519335e-05,0.0,0.0,0.0,0.0,-1.0
8218198,8218035,-0.00025922107,0.00020819227,0.000572942,0.0,0.0,0.0,0.0,-1.0
8318220,8318038,-0.00018515188,0.00014231031,0.00049324235,0.0,0.0,0.0,0.0,-1.0
8419044,8418868,-0.0002776695,6.487909e-05,-0.0014278127,0.0,0.0,0.0,0.0,-1.0
8523049,8522876,-0.0004478514,1.46463135e-05,-0.0016885775,0.0,0.0,0.0,0.0,-1.0
8623054,8622877,-0.0004480165,5.3197495e-05,0.00074082456,0.0,0.0,0.0,0.0,-1.0
8723038,8722877,-0.00058386324,-0.00014212551,-0.0011551331,0.0,0.0,0.0,0.0,-1.0
8827058,8826878,-0.00046501058,-0.00023947988,-0.0013754881,0.0,0.0,0.0,0.0,-1.0
8927048,8926879,-0.0004871658,0.0003433383,0.001113819,0.0,0.0,0.0,0.0,-1.0
9031049,9030877,-0.00046270434,-0.00015764522,0.00051748083,0.0,0.0,0.0,0.0,-1.0
9131012,9130838,-0.00022703191,0.000118987,-0.0005313462,0.0,0.0,0.0,0.0,-1.0
9231051,9230875,0.00017607547,4.4873013e-05,-0.00054341706,0.0,0.0,0.0,0.0,-1.0
9335064,9334863,-0.00049819914,0.00037328963,-0.00063206325,0.0,0.0,0.0,0.0,-1.0
9435045,9434869,7.335255e-05,4.9462513e-05,0.0012571415,0.0,0.0,0.0,0.0,-1.0
9535827,9535638,-0.00026586436,0.0004170103,-0.0010810462,0.0,0.0,0.0,0.0,-1.0
9639813,9639636,-0.00026729688,-3.566246e-05,-0.0010955709,0.0,0.0,0.0,0.0,-1.0
9739825,9739635,-0.0006534167,0.00056237157,0.0001926744,0.0,0.0,0.0,0.0,-1.0
9839804,9839635,-0.0004909911,8.5463034e-05,-7.636313e-05,0.0,0.0,0.0,0.0,-1.0
9943806,9943636,-0.0004458488,0.00028511143,-0.00042972853,0.0,0.0,0.0,0.0,-1.0
10043821,10043637,0.00028418936,0.00027835634,-0.00069267524,0.0,0.0,0.0,0.0,-1.0
10147829,10147638,-0.0005063135,0.00018363044,-0.0004092533,0.0,0.0,0.0,0.0,-1.0
10247766,10247636,-4.642745e-06,0.00048674492,0.0007525244,0.0,0.0,0.0,0.0,-1.0
10348617,10348437,-0.00031870438,0.00035234506,-0.001250918,0.0,0.0,0.0,0.0,-1.0
10448606,10448437,-0.00026434253,6.0897466e-05,0.00062434317,0.0,0.0,0.0,0.0,-1.0
10552619,10552437,-0.0006331794,0.00020612233,0.00065845804,0.0,0.0,0.0,0.0,-1.0
10652615,10652439,0.00020628165,9.646255e-05,3.1659434e-05,0.0,0.0,0.0,0.0,-1.0
10756612,10756436,-0.00020447465,9.9658064e-05,5.915123e-05,0.0,0.0,0.0,0.0,-1.0
10856568,10856436,0.000118731565,-0.00016316229,-0.0002677764,0.0,0.0,0.0,0.0,-1.0
10956612,10956436,-0.00034512865,0.00036165697,0.00048467453,0.0,0.0,0.0,0.0,-1.0
11060565,11060435,-0.00065871724,0.0006297556,0.0009100356,0.0,0.0,0.0,0.0,-1.0
11160618,11160436,-0.00029337447,0.0004066456,-0.0015949981,0.0,0.0,0.0,0.0,-1.0
11260565,11260435,-0.00033107563,0.00017134602,0.0010884798,0.0,0.0,0.0,0.0,-1.0
11364618,11364437,-0.00054484996,0.0001292889,0.0016013314,0.0,0.0,0.0,0.0,-1.0
11464611,11464438,-0.00039952286,0.00032738055,-0.0013754205,0.0,0.0,0.0,0.0,-1.0
11568610,11568436,-0.00040861114,1.08101085e-05,-0.001332585,0.0,0.0,0.0,0.0,-1.0
11668618,11668437,-0.00021338322,0.00062374177,0.00104946,0.0,0.0,0.0,0.0,-1.0
11769417,11769236,1.4289253e-06,0.00018541538,-0.00027009036,0.0,0.0,0.0,0.0,-1.0
11873438,11873238,-0.00018477303,0.00017678541,-9.371728e-05,0.0,0.0,0.0,0.0,-1.0
11973417,11973237,6.867442e-05,0.0006354577,-0.000630748,0.0,0.0,0.0,0.0,-1.0
12073366,12073237,-7.8370795e-07,0.00015318584,0.0005730501,0.0,0.0,0.0,0.0,-1.0
12177417,12177236,-0.00048523344,0.00020573796,0.0006322043,0.0,0.0,0.0,0.0,-1.0
12277398,12277237,-0.0001871222,0.0002249204,-0.0015318659,0.0,0.0,0.0,0.0,-1.0
12377424,12377235,-0.00020976881,0.0006158685,0.0012207159,0.0,0.0,0.0,0.0,-1.0
12481413,12481238,-0.0007349043,0.00040120594,0.0009114461,0.0,0.0,0.0,0.0,-1.0
12581415,12581237,-0.00010004609,8.632007e-05,-0.0012099381,0.0,0.0,0.0,0.0,-1.0
12685416,12685237,-0.00026075938,0.00023179365,-0.0014290644,0.0,0.0,0.0,0.0,-1.0
12785418,12785238,-0.0007337896,0.00027813943,0.0006272791,0.0,0.0,0.0,0.0,-1.0
12886222,12886038,-9.018673e-05,0.00067631074,0.00025164807,0.0,0.0,0.0,0.0,-1.0
12986219,12986038,-0.0005878105,-7.910472e-05,-0.0013026668,0.0,0.0,0.0,0.0,-1.0
13090223,13090038,-0.00045462482,0.0003901004,-0.0012880645,0.0,0.0,0.0,0.0,-1.0
13190218,13190038,-0.00058466016,-0.00021774234,0.0012766798,0.0,0.0,0.0,0.0,-1.0
13294213,13294037,-0.00012511814,0.00024060787,0.0010991981,0.0,0.0,0.0,0.0,-1.0
13394202,13394038,-0.00046769588,0.00028708024,-0.0016853553,0.0,0.0,0.0,0.0,-1.0
13494218,13494037,-0.0002324442,0.0004780774,0.0008134648,0.0,0.0,0.0,0.0,-1.0
13598215,13598037,-0.00015034182,0.0003600074,0.00094031135,0.0,0.0,0.0,0.0,-1.0
13698217,13698037,-0.0006965817,0.0004907056,-0.00092274847,0.0,0.0,0.0,0.0,-1.0
13798219,13798038,-0.00045172602,0.0003857335,-0.00073454663,0.0,0.0,0.0,0.0,-1.0
13902217,13902035,-0.00033652483,0.00020353128,-0.00019476564,0.0,0.0,0.0,0.0,-1.0
14003045,14002878,-0.00032036443,0.00032087913,0.0009970368,0.0,0.0,0.0,0.0,-1.0
14103050,14102867,-0.00025982113,-0.0002297893,-0.0012656553,0.0,0.0,0.0,0.0,-1.0
14207054,14206879,-0.00039509864,0.0001287066,-0.0013281556,0.0,0.0,0.0,0.0,-1.0
14307050,14306877,-0.00037974314,0.00021627301,0.00048040727,0.0,0.0,0.0,0.0,-1.0
14407049,14406875,-7.013936e-06,7.27353e-05,-0.00047138787,0.0,0.0,0.0,0.0,-1.0
14511075,14510879,-0.0006835244,6.772415e-05,4.5465284e-05,0.0,0.0,0.0,0.0,-1.0
14611059,14610879,-0.0003876929,0.0006502126,-0.00022778432,0.0,0.0,0.0,0.0,-1.0
14715056,14714860,-3.6344078e-05,0.0003447226,-0.0007681362,0.0,0.0,0.0,0.0,-1.0
14815043,14814864,-0.00039748958,0.00021411185,0.0014849573,0.0,0.0,0.0,0.0,-1.0
14915064,14914872,-0.0005370317,3.607729e-05,-0.00168654,0.0,0.0,0.0,0.0,-1.0
15019057,15018878,-0.0002476897,0.00010716297,-0.0012866269,0.0,0.0,0.0,0.0,-1.0
15119801,15119640,-0.000628881,0.0002367126,-0.00022004567,0.0,0.0,0.0,0.0,-1.0
15219821,15219636,-0.00037865495,0.0002445181,0.00039284385,0.0,0.0,0.0,0.0,-1.0
15323819,15323635,-0.00027924744,8.645257e-05,3.48102e-05,0.0,0.0,0.0,0.0,-1.0
15423829,15423647,-7.248914e-05,0.00012295006,-0.0011071503,0.0,0.0,0.0,0.0,-1.0
15523828,15523637,0.00024193227,0.00013123748,0.00086419465,0.0,0.0,0.0,0.0,-1.0
15627766,15627635,-0.0004330926,0.00028315277,0.0010796074,0.0,0.0,0.0,0.0,-1.0
15727768,15727636,-9.547702e-05,0.0002272946,-0.0010991746,0.0,0.0,0.0,0.0,-1.0
15831827,15831637,-0.000104702514,-5.423074e-05,-0.0010474074,0.0,0.0,0.0,0.0,-1.0
15932623,15932438,-9.115858e-05,0.00034320905,-0.00095665635,0.0,0.0,0.0,0.0,-1.0
16032618,16032437,-0.00014190507,0.0001240917,0.0009645046,0.0,0.0,0.0,0.0,-1.0
16132566,16132436,-0.00030965378,3.8614817e-06,-0.001300118,0.0,0.0,0.0,0.0,-1.0
16236568,16236436,-0.00028745495,0.00045033832,-0.0016505115,0.0,0.0,0.0,0.0,-1.0
16336600,16336437,-0.00016858647,0.0005218172,0.0008927725,0.0,0.0,0.0,0.0,-1.0
16440567,16440436,-0.0003157977,0.000113337876,0.0011433106,0.0,0.0,0.0,0.0,-1.0
16540568,16540437,-0.00025951126,0.0003472342,-0.0008451367,0.0,0.0,0.0,0.0,-1.0
16640615,16640437,-0.00033002556,0.00042802002,-0.00018892466,0.0,0.0,0.0,0.0,-1.0
16744565,16744435,-0.00032653936,0.00034880958,0.00049268076,0.0,0.0,0.0,0.0,-1.0
16844567,16844436,-0.00012853311,0.00035673147,0.00031130397,0.0,0.0,0.0,0.0,-1.0
16944619,16944438,-4.8156973e-05,0.0005512338,-0.001267157,0.0,0.0,0.0,0.0,-1.0
17048603,17048436,-0.00027176496,9.4674615e-05,-0.0011821204,0.0,0.0,0.0,0.0,-1.0
17148628,17148437,-2.5313624e-05,0.00022018298,0.0010771132,0.0,0.0,0.0,0.0,-1.0
17249420,17249236,-0.00014059042,0.000121501456,-0.0006910501,0.0,0.0,0.0,0.0,-1.0
17353430,17353236,-0.00028388022,0.00019817564,-0.0013753118,0.0,0.0,0.0,0.0,-1.0
17453365,17453236,0.00010775885,0.00029253907,-5.7033234e-05,0.0,0.0,0.0,0.0,-1.0
17557418,17557235,-0.0005543018,0.00023938228,-0.00024689536,0.0,0.0,0.0,0.0,-1.0
17657397,17657237,-0.0009233529,0.00039196914,0.0006132252,0.0,0.0,0.0,0.0,-1.0
17757423,17757238,0.00017696133,0.0004169448,-0.0016256319,0.0,0.0,0.0,0.0,-1.0
17861417,17861238,-0.00032520064,0.00023378682,-0.0014358347,0.0,0.0,0.0,0.0,-1.0
17961418,17961237,-0.0003533306,0.00039919332,0.0010414011,0.0,0.0,0.0,0.0,-1.0
18061417,18061237,-0.00021606995,0.00023694658,-0.00085741025,0.0,0.0,0.0,0.0,-1.0
18165419,18165237,-9.61044e-05,0.00026657636,-0.00083132007,0.0,0.0,0.0,0.0,-1.0
18265397,18265238,-0.00017208316,0.00030937124,-0.00021379544,0.0,0.0,0.0,0.0,-1.0
18369402,18369236,-0.00026821622,0.00020841915,8.299441e-05,0.0,0.0,0.0,0.0,-1.0
18470216,18470038,-0.00031548127,0.00032630377,0.00095018,0.0,0.0,0.0,0.0,-1.0
18570222,18570037,0.00017966278,0.00035043055,-0.0013722747,0.0,0.0,0.0,0.0,-1.0
18670218,18670038,-0.00045782834,0.00014210859,0.00075877184,0.0,0.0,0.0,0.0,-1.0
18774237,18774038,4.8346352e-05,0.00014128696,0.0009999848,0.0,0.0,0.0,0.0,-1.0
18874218,18874037,-0.0002069611,0.00030287437,0.000103459286,0.0,0.0,0.0,0.0,-1.0
18978220,18978037,-0.00019324901,0.00023098417,-7.974568e-05,0.0,0.0,0.0,0.0,-1.0
19078217,19078037,-0.00075593055,0.00050332653,-0.0009792262,0.0,0.0,0.0,0.0,-1.0
19178222,19178038,-0.0002937135,0.00049469573,0.0011824811,0.0,0.0,0.0,0.0,-1.0
19282215,19282037,-0.00023654493,0.00031715436,0.00066535315,0.0,0.0,0.0,0.0,-1.0
19382213,19382037,-0.0005061308,-0.0001516581,-0.0017391697,0.0,0.0,0.0,0.0,-1.0
19482200,19482037,-5.7458295e-05,-6.768902e-05,0.0004842302,0.0,0.0,0.0,0.0,-1.0
19587054,19586877,-0.00023891192,0.00018700998,-0.00022842856,0.0,0.0,0.0,0.0,-1.0
19687058,19686878,-0.0001805106,0.00024603648,0.0011081329,0.0,0.0,0.0,0.0,-1.0
19787051,19786874,-0.00050127006,-0.00014884946,-0.001447964,0.0,0.0,0.0,0.0,-1.0
19891050,19890879,-0.00047227967,0.00020683269,-0.0012711202,0.0,0.0,0.0,0.0,-1.0
19991060,19990877,-5.3206546e-05,8.85319e-05,0.0009541376,0.0,0.0,0.0,0.0,-1.0
20091059,20090876,-0.000351261,0.00036860953,-0.0006269517,0.0,0.0,0.0,0.0,-1.0
20195048,20194865,2.3922767e-06,0.00023536944,-0.0007073416,0.0,0.0,0.0,0.0,-1.0
20295039,20294863,-0.00014118709,6.796851e-05,-0.00066215615,0.0,0.0,0.0,0.0,-1.0
20399051,20398879,-0.00020472934,0.0002274525,-0.000100901736,0.0,0.0,0.0,0.0,-1.0
20499055,20498878,-0.000118627024,-0.00019355993,0.0009025861,0.0,0.0,0.0,0.0,-1.0
20599051,20598876,-0.0006927143,-2.9288407e-05,-0.0012924486,0.0,0.0,0.0,0.0,-1.0
20703820,20703635,-0.0006386192,-7.1722665e-05,-0.0014539835,0.0,0.0,0.0,0.0,-1.0
20803768,20803637,-0.0006302546,0.00023362413,0.000250494,0.0,0.0,0.0,0.0,-1.0
20903815,20903637,-0.00022239848,-5.7491125e-05,0.00039558558,0.0,0.0,0.0,0.0,-1.0
21007814,21007636,-0.0004576916,0.00028362105,0.0003714929,0.0,0.0,0.0,0.0,-1.0
21107768,21107635,-0.00035756096,0.00037904136,-0.0007924614,0.0,0.0,0.0,0.0,-1.0
21207807,21207635,-1.8724371e-05,0.00030234258,0.00085951935,0.0,0.0,0.0,0.0,-1.0
21311799,21311635,-0.0004339181,0.00012902541,0.0010269606,0.0,0.0,0.0,0.0,-1.0
21411830,21411640,-0.0003964839,0.00025279878,-0.0010455219,0.0,0.0,0.0,0.0,-1.0
21515839,21515635,-0.00042532996,0.0002244342,-0.0012694161,0.0,0.0,0.0,0.0,-1.0
21616611,21616438,-0.00026180432,0.00022295867,-0.0005718688,0.0,0.0,0.0,0.0,-1.0
21716631,21716436,-0.0003842283,6.830608e-05,0.00086484064,0.0,0.0,0.0,0.0,-1.0
21816565,21816436,-0.00044318906,0.00011968678,-0.0013560619,0.0,0.0,0.0,0.0,-1.0
21920618,21920437,-0.00045724737,9.391821e-06,-0.001132674,0.0,0.0,0.0,0.0,-1.0
22020610,22020438,-0.00036423077,0.00032368727,0.0005847382,0.0,0.0,0.0,0.0,-1.0
22124632,22124437,-0.00023878113,0.0002679813,0.00049724017,0.0,0.0,0.0,0.0,-1.0
22224613,22224437,-0.00067402003,0.00018943571,-0.0006559946,0.0,0.0,0.0,0.0,-1.0
22324612,22324437,-0.00040113425,0.00016741267,-0.001054739,0.0,0.0,0.0,0.0,-1.0
22428613,22428436,-0.00023352823,0.000190139,-0.00037779633,0.0,0.0,0.0,0.0,-1.0
22528597,22528437,-0.00045104214,9.34793e-05,0.0009073285,0.0,0.0,0.0,0.0,-1.0
22628622,22628438,-0.00040649815,0.00025317975,-0.0012350264,0.0,0.0,0.0,0.0,-1.0
22732566,22732437,-0.00055649766,0.00012785401,-0.0012572642,0.0,0.0,0.0,0.0,-1.0
22832613,22832437,7.943262e-05,0.0004322431,0.00077539595,0.0,0.0,0.0,0.0,-1.0
22933440,22933238,-0.00057885493,0.00017360381,0.0005723595,0.0,0.0,0.0,0.0,-1.0
23037413,23037237,-0.00030116714,0.00041393927,0.000660474,0.0,0.0,0.0,0.0,-1.0
23137368,23137237,-0.00047132766,0.00015274751,-0.0014852033,0.0,0.0,0.0,0.0,-1.0
23241368,23241235,-0.00039657357,0.00033885724,-0.0006743568,0.0,0.0,0.0,0.0,-1.0
23341419,23341238,-0.0003170468,0.00023037806,0.0009597161,0.0,0.0,0.0,0.0,-1.0
23441412,23441238,-0.0002936131,0.0005764422,-0.0011593322,0.0,0.0,0.0,0.0,-1.0
23545416,23545237,-0.00046479903,0.00015722864,-0.00086388603,0.0,0.0,0.0,0.0,-1.0
23645412,23645238,-0.0005153182,0.00034823682,0.0008025436,0.0,0.0,0.0,0.0,-1.0
23745407,23745237,-0.00010390385,0.00045394403,0.0001538085,0.0,0.0,0.0,0.0,-1.0
23849364,23849236,-0.00064341794,0.00035600766,-0.00024865975,0.0,0.0,0.0,0.0,-1.0
23949423,23949237,-0.0002112337,9.613783e-05,-0.0008535039,0.0,0.0,0.0,0.0,-1.0
24050217,24050037,-0.00033022845,8.967779e-05,0.0007808496,0.0,0.0,0.0,0.0,-1.0
24154221,24154038,-0.00042478082,0.00013089654,0.0010685344,0.0,0.0,0.0,0.0,-1.0
24254231,24254036,-0.00011977097,6.189861e-05,-0.0008764969,0.0,0.0,0.0,0.0,-1.0
24354223,24354037,-8.073257e-06,0.0002679228,0.00011672174,0.0,0.0,0.0,0.0,-1.0
24458233,24458045,-0.00051828695,0.00015306851,0.00048642585,0.0,0.0,0.0,0.0,-1.0
24558229,24558038,-0.00065479457,0.0005595851,-0.00019983554,0.0,0.0,0.0,0.0,-1.0
24662215,24662037,-0.00031673143,0.00046180573,-3.6093632e-05,0.0,0.0,0.0,0.0,-1.0
24762210,24762035,-0.00025000554,0.00025554548,-0.0009837986,0.0,0.0,0.0,0.0,-1.0
24862217,24862037,0.00015702962,0.00012104737,0.0006050002,0.0,0.0,0.0,0.0,-1.0
24966215,24966036,-0.00056436245,0.00035512037,0.0011378776,0.0,0.0,0.0,0.0,-1.0
25066218,25066037,-0.00042057797,0.00017268282,-0.0013950475,0.0,0.0,0.0,0.0,-1.0
25166222,25166037,-0.00030425022,-1.5830912e-05,0.0008319617,0.0,0.0,0.0,0.0,-1.0
25271051,25270877,-0.00021266329,0.00033033354,-0.00011229688,0.0,0.0,0.0,0.0,-1.0
25371050,25370876,-0.00014593253,0.00033532543,0.0004874905,0.0,0.0,0.0,0.0,-1.0
25471049,25470868,-0.0005942194,0.00036850764,-0.0014503855,0.0,0.0,0.0,0.0,-1.0
25575021,25574860,-0.00026489113,0.00011075096,-0.0008749911,0.0,0.0,0.0,0.0,-1.0
25675040,25674862,-0.00039529623,0.00014102718,0.0012594343,0.0,0.0,0.0,0.0,-1.0
25775055,25774860,-0.0003917843,0.00024285821,-0.0009535521,0.0,0.0,0.0,0.0,-1.0
25879060,25878880,-0.000520793,-0.00030409425,-0.0010486107,0.0,0.0,0.0,0.0,-1.0
25979059,25978881,-0.00039222505,0.00022367644,0.00041291755,0.0,0.0,0.0,0.0,-1.0
26083049,26082876,3.081045e-05,0.00028469283,0.00024979853,0.0,0.0,0.0,0.0,-1.0
26183036,26182876,1.70954e-05,0.0002629975,1.6958887e-05,0.0,0.0,0.0,0.0,-1.0
26283048,26282866,-0.00018873544,9.595952e-05,-0.0009218341,0.0,0.0,0.0,0.0,-1.0
26387817,26387635,-0.00015421254,3.995031e-05,-0.0012066716,0.0,0.0,0.0,0.0,-1.0
26487815,26487635,-0.00011246119,7.7809345e-05,0.0010960235,0.0,0.0,0.0,0.0,-1.0
26587818,26587637,-0.0002216167,0.0005161511,-0.0008192524,0.0,0.0,0.0,0.0,-1.0
26691799,26691636,-0.00063754653,-0.000116624535,-0.0013879843,0.0,0.0,0.0,0.0,-1.0
26791843,26791638,-0.0003806384,-2.9269198e-05,-8.97146e-05,0.0,0.0,0.0,0.0,-1.0
26891819,26891636,-0.00029649975,0.0002485705,0.00026095068,0.0,0.0,0.0,0.0,-1.0
26995814,26995636,-0.000579624,1.0559917e-05,0.00021264238,0.0,0.0,0.0,0.0,-1.0
27095823,27095637,-4.085453e-05,-5.8666003e-05,-0.0014024187,0.0,0.0,0.0,0.0,-1.0
27199820,27199637,-0.0005277954,0.00026477932,-0.0012599458,0.0,0.0,0.0,0.0,-1.0
27300567,27300435,-8.562689e-05,0.0003534102,0.0007961471,0.0,0.0,0.0,0.0,-1.0
27400613,27400437,-0.0004285237,0.00021219082,-0.00061543804,0.0,0.0,0.0,0.0,-1.0
27500564,27500435,-0.00060595025,0.00032506514,0.00019527187,0.0,0.0,0.0,0.0,-1.0
27604618,27604438,-0.00045632664,0.00037591855,7.607003e-05,0.0,0.0,0.0,0.0,-1.0
27704613,27704437,3.8771046e-05,0.0001116321,0.0003869525,0.0,0.0,0.0,0.0,-1.0
27808610,27808436,-3.7493097e-05,0.0002436662,0.00020038657,0.0,0.0,0.0,0.0,-1.0
27908614,27908438,-0.00038332367,0.00035930087,-0.0009238832,0.0,0.0,0.0,0.0,-1.0
28008568,28008437,-0.00040726666,-0.00033477438,0.0010620701,0.0,0.0,0.0,0.0,-1.0
28112564,28112436,-0.0003743158,9.7846474e-05,0.0011469298,0.0,0.0,0.0,0.0,-1.0
28212637,28212438,-4.0378625e-05,0.00033833008,-0.0013321852,0.0,0.0,0.0,0.0,-1.0
28312637,28312438,-0.00071629207,0.00049752847,0.001093346,0.0,0.0,0.0,0.0,-1.0
28416613,28416436,-7.931862e-05,-0.00019841899,0.0010694979,0.0,0.0,0.0,0.0,-1.0
28516608,28516437,-0.00020002773,0.0003071454,-0.00081946363,0.0,0.0,0.0,0.0,-1.0
28617424,28617237,-0.0007388281,0.00037354493,-0.00096827926,0.0,0.0,0.0,0.0,-1.0
28721419,28721238,-0.00045123638,0.00028285594,-0.0010431715,0.0,0.0,0.0,0.0,-1.0
28821368,28821235,-0.00055066997,0.00011416177,0.0010179221,0.0,0.0,0.0,0.0,-1.0
28925438,28925238,-0.00015659211,0.00044151474,0.0009804546,0.0,0.0,0.0,0.0,-1.0
29025367,29025237,-0.00022653307,0.0005442386,-0.0014549639,0.0,0.0,0.0,0.0,-1.0
29125421,29125238,-8.257742e-05,0.00020155129,0.0010280724,0.0,0.0,0.0,0.0,-1.0
29229410,29229238,-0.0006119439,0.00013533038,0.000998896,0.0,0.0,0.0,0.0,-1.0
29329412,29329237,-0.0005930794,5.548123e-05,-0.0009366615,0.0,0.0,0.0,0.0,-1.0
29429418,29429237,-0.00044243337,9.119457e-05,-0.00012547306,0.0,0.0,0.0,0.0,-1.0
29533415,29533238,-0.0007087107,-7.65607e-05,0.0004702862,0.0,0.0,0.0,0.0,-1.0
29633422,29633238,-0.00043385514,0.0002497161,0.00073990034,0.0,0.0,0.0,0.0,-1.0
29734218,29734037,5.6667777e-05,0.00014059432,-0.0011880824,0.0,0.0,0.0,0.0,-1.0
29838217,29838037,-0.00043035863,0.00039000707,-0.0015351367,0.0,0.0,0.0,0.0,-1.0
29938213,29938037,1.9504194e-05,0.00032044365,0.0014673816,0.0,0.0,0.0,0.0,-1.0
30038216,30038037,-0.00012053081,1.9808664e-05,-0.0013455773,0.0,0.0,0.0,0.0,-1.0
30142219,30142037,0.00017250341,0.0001392522,-0.0015684278,0.0,0.0,0.0,0.0,-1.0
30242200,30242037,-0.00047994516,0.00046797248,0.0010538847,0.0,0.0,0.0,0.0,-1.0
30346221,30346037,-0.0005200593,9.6272415e-05,0.00126209,0.0,0.0,0.0,0.0,-1.0
30446214,30446037,-0.00046630192,0.0002433,-0.0012570884,0.0,0.0,0.0,0.0,-1.0
30546215,30546037,-0.00083751406,0.00024285458,0.00071313523,0.0,0.0,0.0,0.0,-1.0
30650219,30650037,-6.89017e-05,3.2788666e-05,0.000931625,0.0,0.0,0.0,0.0,-1.0
30750220,30750038,-0.00028585346,-6.3120635e-05,-0.000828575,0.0,0.0,0.0,0.0,-1.0
30850167,30850035,-0.00041816384,0.00022212406,-0.00076073507,0.0,0.0,0.0,0.0,-1.0
30955050,30954867,-0.0002812764,0.00036738717,-0.00077907095,0.0,0.0,0.0,0.0,-1.0
31055038,31054863,-0.00036392457,0.00025555643,0.0014514045,0.0,0.0,0.0,0.0,-1.0
31155064,31154867,-0.00019849381,0.000302919,-0.0012189777,0.0,0.0,0.0,0.0,-1.0
31259019,31258839,-0.00031480822,9.560913e-05,-0.0016197561,0.0,0.0,0.0,0.0,-1.0
31359051,31358878,-0.00039954172,0.00032282842,0.0009141004,0.0,0.0,0.0,0.0,-1.0
31459054,31458877,-0.000368065,0.00022008514,-0.00093757344,0.0,0.0,0.0,0.0,-1.0
31563056,31562876,-0.0006172826,0.0001712446,-0.0014363423,0.0,0.0,0.0,0.0,-1.0
31663055,31662879,0.000189257,0.00018871597,0.00038997878,0.0,0.0,0.0,0.0,-1.0
31767053,31766875,-0.00051979267,0.00031518814,0.0008137563,0.0,0.0,0.0,0.0,-1.0
31867052,31866878,-7.780739e-05,0.00011623494,-0.00028412393,0.0,0.0,0.0,0.0,-1.0
31967033,31966869,-2.9763847e-05,0.00014634972,-0.0008791122,0.0,0.0,0.0,0.0,-1.0
32071824,32071635,-3.6994665e-05,0.00015284764,-0.0013310567,0.0,0.0,0.0,0.0,-1.0
32171820,32171635,-0.00054285786,0.00015581242,0.00094353064,0.0,0.0,0.0,0.0,-1.0
32271814,32271636,-0.00075545395,0.00015099639,-0.0013203751,0.0,0.0,0.0,0.0,-1.0
32375822,32375637,-0.00034326888,-6.567447e-05,-0.0016736059,0.0,0.0,0.0,0.0,-1.0
32475819,32475637,-0.00027489377,0.00048844906,0.00096259895,0.0,0.0,0.0,0.0,-1.0
32575829,32575636,-0.0003423313,-7.132972e-05,-0.00032231296,0.0,0.0,0.0,0.0,-1.0
32679833,32679648,-0.0004659602,0.00032520082,-0.0007949562,0.0,0.0,0.0,0.0,-1.0
32779821,32779637,-0.0005964559,0.00019567502,0.00041628376,0.0,0.0,0.0,0.0,-1.0
32883817,32883635,0.000120025536,-1.9222149e-05,0.00019547749,0.0,0.0,0.0,0.0,-1.0
32984567,32984435,-0.0007168755,0.00021712037,0.0007395913,0.0,0.0,0.0,0.0,-1.0
33084568,33084435,-0.0001989669,0.0005693549,-0.0016583642,0.0,0.0,0.0,0.0,-1.0
33184614,33184436,-0.0007737931,4.655533e-05,0.0013399082,0.0,0.0,0.0,0.0,-1.0
33288566,33288436,-0.00016483756,0.0004538693,0.0012895617,0.0,0.0,0.0,0.0,-1.0
33388611,33388437,-0.00048127744,-0.0003713529,-0.0011057887,0.0,0.0,0.0,0.0,-1.0
33492612,33492438,-0.00058215373,0.00010188077,-0.001352177,0.0,0.0,0.0,0.0,-1.0
33592612,33592437,-0.0001116074,3.8364247e-05,0.00067768793,0.0,0.0,0.0,0.0,-1.0
33692624,33692438,-0.0005227113,0.0004499465,-0.00036607674,0.0,0.0,0.0,0.0,-1.0
33796597,33796436,-0.00067685987,-4.041806e-05,-0.00039975546,0.0,0.0,0.0,0.0,-1.0
33896612,33896437,-0.00044131363,0.00026583028,-0.0005521978,0.0,0.0,0.0,0.0,-1.0
33996565,33996436,-0.00032303671,7.7238874e-05,0.00037504217,0.0,0.0,0.0,0.0,-1.0
34100566,34100435,-0.00037050902,-0.0002386416,0.0003565425,0.0,0.0,0.0,0.0,-1.0
34200613,34200438,-5.8745325e-05,0.00022060983,-0.0012223367,0.0,0.0,0.0,0.0,-1.0
34301428,34301237,-0.00022763554,0.00029983802,0.00055617,0.0,0.0,0.0,0.0,-1.0
34405421,34405237,-0.00025985087,0.00015647449,0.0011230947,0.0,0.0,0.0,0.0,-1.0
34505424,34505237,5.8385427e-05,2.9821676e-05,-0.0008090553,0.0,0.0,0.0,0.0,-1.0
34609416,34609237,-0.00019711841,0.00022083097,-0.0011172883,0.0,0.0,0.0,0.0,-1.0
34709416,34709236,-0.0004615882,3.415566e-05,-0.00013533085,0.0,0.0,0.0,0.0,-1.0
34809413,34809237,-0.0005923752,0.000108219916,-6.157374e-05,0.0,0.0,0.0,0.0,-1.0
34913414,34913237,-0.000113034315,0.00017291232,-0.00029584306,0.0,0.0,0.0,0.0,-1.0
35013416,35013237,-0.0002005664,0.0002330922,-0.0005481893,0.0,0.0,0.0,0.0,-1.0
35113439,35113238,-0.0003421899,0.00024319284,0.0006244516,0.0,0.0,0.0,0.0,-1.0
35217412,35217237,-0.00014610973,0.00037865288,0.000999951,0.0,0.0,0.0,0.0,-1.0
35317368,35317238,-0.0001086767,0.00026317526,-0.0015470254,0.0,0.0,0.0,0.0,-1.0
35421417,35421237,-0.0002429371,0.00049350446,-0.0012429481,0.0,0.0,0.0,0.0,-1.0
35522198,35522036,-0.00031215203,0.00023132368,0.0007163754,0.0,0.0,0.0,0.0,-1.0
35622214,35622037,-0.00015849603,0.0003077867,-6.192526e-05,0.0,0.0,0.0,0.0,-1.0
35722218,35722037,-0.00050648395,0.00024869738,-0.000194851,0.0,0.0,0.0,0.0,-1.0
35826214,35826037,-3.93276e-05,0.00016375196,6.737141e-05,0.0,0.0,0.0,0.0,-1.0
35926216,35926037,-0.00016967302,0.0002388488,0.0006116657,0.0,0.0,0.0,0.0,-1.0
36030169,36030036,-4.5923254e-05,0.0004816656,-3.1564683e-05,0.0,0.0,0.0,0.0,-1.0
36130204,36130037,-0.0006139707,3.0468487e-05,-0.0010469956,0.0,0.0,0.0,0.0,-1.0
36230215,36230037,-0.00033058596,0.00024218312,0.00087923673,0.0,0.0,0.0,0.0,-1.0
36334216,36334037,-0.00056923245,0.00035200999,0.0011369472,0.0,0.0,0.0,0.0,-1.0
36434216,36434038,-0.00017808739,-7.933974e-05,-0.0013962794,0.0,0.0,0.0,0.0,-1.0
36534241,36534035,-0.00064135436,0.00045387103,0.0005501204,0.0,0.0,0.0,0.0,-1.0
36639041,36638877,-0.00031677974,0.000113781985,-2.8703716e-05,0.0,0.0,0.0,0.0,-1.0
36739069,36738886,-0.00046639654,0.0003835534,0.000103679355,0.0,0.0,0.0,0.0,-1.0
36839038,36838868,-0.00013323523,-9.913149e-05,-0.00096600264,0.0,0.0,0.0,0.0,-1.0
36943063,36942881,-0.000553267,0.00021741781,-0.00073178933,0.0,0.0,0.0,0.0,-1.0
37043055,37042878,-0.00069701625,0.00027947588,0.0012465689,0.0,0.0,0.0,0.0,-1.0
37143000,37142842,-0.0003187682,0.00016967359,-0.0011326455,0.0,0.0,0.0,0.0,-1.0
37247033,37246877,-0.00073453726,-0.00018289211,-0.0013303099,0.0,0.0,0.0,0.0,-1.0
37347057,37346881,-0.00012835949,0.0004978911,0.0008163262,0.0,0.0,0.0,0.0,-1.0
37451049,37450875,-0.00023968171,-0.00031009674,0.0009759796,0.0,0.0,0.0,0.0,-1.0
37551054,37550879,-0.00020290157,0.00034846357,-0.000446558,0.0,0.0,0.0,0.0,-1.0
37651038,37650866,-0.0007144915,0.00040218973,-9.105829e-05,0.0,0.0,0.0,0.0,-1.0
37755807,37755636,-0.00050671643,0.00021389293,-0.00071627495,0.0,0.0,0.0,0.0,-1.0
37855816,37855637,-0.000271754,3.1465737e-05,0.0009353105,0.0,0.0,0.0,0.0,-1.0
37955824,37955637,-0.00012729765,0.00026429712,-0.0016756646,0.0,0.0,0.0,0.0,-1.0
38059814,38059635,-0.00027962952,-1.5757789e-05,-0.0017637694,0.0,0.0,0.0,0.0,-1.0
38159817,38159637,-0.00065583293,0.00017229292,0.0012415843,0.0,0.0,0.0,0.0,-1.0
38259804,38259636,-0.0005050053,0.00024600793,-0.0008477711,0.0,0.0,0.0,0.0,-1.0
38363812,38363637,1.914706e-05,0.00019291221,-0.0014647641,0.0,0.0,0.0,0.0,-1.0
38463818,38463635,-0.0005294839,5.751048e-05,0.0002754562,0.0,0.0,0.0,0.0,-1.0
38567821,38567635,-0.0007978508,-0.000349159,0.00078083965,0.0,0.0,0.0,0.0,-1.0
38668568,38668437,-0.0004682717,0.000118289754,0.000930684,0.0,0.0,0.0,0.0,-1.0
38768616,38768437,-0.00050418975,0.00031275468,-0.0017138912,0.0,0.0,0.0,0.0,-1.0
38868604,38868436,-0.00035268668,0.00017853787,0.0011682538,0.0,0.0,0.0,0.0,-1.0
38972568,38972435,-0.00050836103,0.0003148082,0.0014331181,0.0,0.0,0.0,0.0,-1.0
39072621,39072437,-0.00052227674,0.0002727718,-0.0012866149,0.0,0.0,0.0,0.0,-1.0
39176611,39176436,-0.00029575612,0.00035486853,-0.0016324089,0.0,0.0,0.0,0.0,-1.0
39276613,39276437,-0.00036477583,0.00025170867,0.00054881786,0.0,0.0,0.0,0.0,-1.0
39376611,39376437,-0.00021884186,9.326855e-05,-0.000375775,0.0,0.0,0.0,0.0,-1.0
39480611,39480437,-0.0006229636,0.00021203043,-0.0007849265,0.0,0.0,0.0,0.0,-1.0
39580599,39580437,-0.00022063656,4.00719e-05,-0.00043614532,0.0,0.0,0.0,0.0,-1.0
39680566,39680435,-0.00035426414,0.0003060765,0.00053600135,0.0,0.0,0.0,0.0,-1.0
39784567,39784435,0.00013011546,0.00034255965,0.00061379955,0.0,0.0,0.0,0.0,-1.0
39884612,39884437,-0.00077723427,-0.00019917908,-0.0016655838,0.0,0.0,0.0,0.0,-1.0
39988621,39988436,-0.00049156684,0.00021474334,-0.0008734357,0.0,0.0,0.0,0.0,-1.0
40089397,40089237,-0.000117401796,0.00014615462,0.0008646205,0.0,0.0,0.0,0.0,-1.0
40189418,40189237,-0.00035178105,0.0001475369,-0.0004978659,0.0,0.0,0.0,0.0,-1.0
40293440,40293238,-0.0001571617,0.00028929661,-0.0014377065,0.0,0.0,0.0,0.0,-1.0
40393371,40393236,-0.0002769307,0.00025614226,-7.976464e-06,0.0,0.0,0.0,0.0,-1.0
40493423,40493238,-4.653007e-05,-0.00016732002,0.00039504058,0.0,0.0,0.0,0.0,-1.0
40597420,40597237,-0.00034784473,7.962748e-05,-8.932659e-05,0.0,0.0,0.0,0.0,-1.0
40697397,40697237,0.00010767365,0.00018406694,-0.000874074,0.0,0.0,0.0,0.0,-1.0
40797419,40797236,-0.00014194123,0.000117693606,0.0011294379,0.0,0.0,0.0,0.0,-1.0
40901367,40901235,-0.00039594126,0.00056017534,0.00072945876,0.0,0.0,0.0,0.0,-1.0
41001412,41001237,-0.00014941682,9.1585265e-05,-0.0013696313,0.0,0.0,0.0,0.0,-1.0
41105416,41105237,-0.00014628368,0.00027083996,-0.0011223584,0.0,0.0,0.0,0.0,-1.0
41206215,41206038,-0.0002907078,0.00015906153,0.000980596,0.0,0.0,0.0,0.0,-1.0
41306199,41306035,-0.0003772059,0.0002804088,-0.0013264564,0.0,0.0,0.0,0.0,-1.0
41406214,41406037,-0.00025386622,0.00025772536,0.0004521402,0.0,0.0,0.0,0.0,-1.0
41510219,41510037,-0.0003028402,0.00022671104,0.0005390732,0.0,0.0,0.0,0.0,-1.0
41610216,41610038,-0.0005680318,0.00014877159,-0.00054720277,0.0,0.0,0.0,0.0,-1.0
41714241,41714037,-0.00026428656,0.0001365779,-0.0010619248,0.0,0.0,0.0,0.0,-1.0
41814237,41814036,-0.00023481142,0.0001169881,-2.5090865e-05,0.0,0.0,0.0,0.0,-1.0
41914223,41914038,-0.00016498542,-2.7689457e-05,0.0004082177,0.0,0.0,0.0,0.0,-1.0
42018196,42018037,-0.0006610801,0.0005268954,-0.00014224158,0.0,0.0,0.0,0.0,-1.0
42118218,42118038,-0.0002576875,0.00045296462,3.647248e-05,0.0,0.0,0.0,0.0,-1.0
42218220,42218037,3.0240626e-06,0.00027055328,0.0009496847,0.0,0.0,0.0,0.0,-1.0
42322252,42322045,-0.00024513577,0.00017291622,0.00050527474,0.0,0.0,0.0,0.0,-1.0
42423066,42422885,-0.00016095662,-0.00050766615,-0.0013811797,0.0,0.0,0.0,0.0,-1.0
42523049,42522868,-0.0005416873,0.00033945285,0.001181999,0.0,0.0,0.0,0.0,-1.0
42627055,42626876,-0.00037953927,-2.7781833e-05,0.001221678,0.0,0.0,0.0,0.0,-1.0
42727048,42726877,-0.00030829705,-0.00017742805,-0.0014472874,0.0,0.0,0.0,0.0,-1.0
42827055,42826877,-0.00022453355,0.00014496633,0.0007737894,0.0,0.0,0.0,0.0,-1.0
42931022,42930840,-0.00056131755,0.00024268436,0.0013953723,0.0,0.0,0.0,0.0,-1.0
43031051,43030878,-0.0003285153,-0.00011930942,-0.0013770347,0.0,0.0,0.0,0.0,-1.0
43135037,43134865,-0.00037186695,2.3372195e-05,-0.0017291417,0.0,0.0,0.0,0.0,-1.0
43235025,43234860,-0.0007050281,0.00047648302,0.00082768366,0.0,0.0,0.0,0.0,-1.0
43335088,43334881,-0.00070340885,0.00043623097,-0.0005478522,0.0,0.0,0.0,0.0,-1.0
43439050,43438877,-0.0003996537,0.000244402,-0.0009822431,0.0,0.0,0.0,0.0,-1.0
43539830,43539635,-0.00032911822,0.0005797609,-0.0005297507,0.0,0.0,0.0,0.0,-1.0
43639814,43639637,-0.00051239756,1.0206146e-05,0.0006468292,0.0,0.0,0.0,0.0,-1.0
43743806,43743637,2.9529328e-05,0.00017736152,0.00030572573,0.0,0.0,0.0,0.0,-1.0
43843819,43843636,-7.648858e-05,0.00021025653,-0.0007042998,0.0,0.0,0.0,0.0,-1.0
43943837,43943637,-8.570103e-05,0.00020548342,0.0012877097,0.0,0.0,0.0,0.0,-1.0
44047767,44047635,-0.0002751908,0.00010249316,0.0010871302,0.0,0.0,0.0,0.0,-1.0
44147818,44147636,-0.00063517794,-1.2955192e-05,-0.001388238,0.0,0.0,0.0,0.0,-1.0
44251818,44251636,-0.00021683326,3.3991564e-05,-0.00091180677,0.0,0.0,0.0,0.0,-1.0
44351817,44351635,-7.5326214e-05,0.00027422834,0.0012975626,0.0,0.0,0.0,0.0,-1.0
44452568,44452436,-0.0003077027,-0.00014037179,-0.00089725765,0.0,0.0,0.0,0.0,-1.0
44552567,44552435,-8.862684e-05,0.0003389024,0.00039986213,0.0,0.0,0.0,0.0,-1.0
44656610,44656435,-0.0002699084,-7.3471747e-06,0.00039169713,0.0,0.0,0.0,0.0,-1.0
44756620,44756438,-0.00031094928,0.00015744288,-0.0004816253,0.0,0.0,0.0,0.0,-1.0
44860565,44860435,-0.00027874383,0.00013050207,-0.0005291676,0.0,0.0,0.0,0.0,-1.0
44960596,44960436,-0.00023302378,6.3540647e-06,-0.0006284099,0.0,0.0,0.0,0.0,-1.0
45060567,45060436,-0.0004504587,0.00021008216,0.0007218198,0.0,0.0,0.0,0.0,-1.0
45164619,45164437,-0.00053635996,0.00010529422,-0.00011605528,0.0,0.0,0.0,0.0,-1.0
45264610,45264437,-0.0004076935,-0.00015682692,-0.00077110756,0.0,0.0,0.0,0.0,-1.0
45364612,45364435,-0.00047633162,-3.7305115e-05,0.0007226247,0.0,0.0,0.0,0.0,-1.0
45468568,45468437,-0.00048555556,0.00035653316,0.0003825718,0.0,0.0,0.0,0.0,-1.0
45568602,45568438,-0.0005408254,0.00010690148,-0.0012238827,0.0,0.0,0.0,0.0,-1.0
45672568,45672435,-0.0003025035,0.00074818573,-0.00070797594,0.0,0.0,0.0,0.0,-1.0
45772636,45772438,-0.00020054288,0.00024465064,0.0007629625,0.0,0.0,0.0,0.0,-1.0
45873367,45873236,-0.0007814106,0.0003766796,-0.0016110752,0.0,0.0,0.0,0.0,-1.0
45977424,45977238,-0.0003396761,0.00031930636,-0.0012527826,0.0,0.0,0.0,0.0,-1.0
46077398,46077237,-7.061091e-05,0.0003254324,0.0012435153,0.0,0.0,0.0,0.0,-1.0
46177420,46177238,-0.0007439458,0.00013397074,-0.0017475616,0.0,0.0,0.0,0.0,-1.0
46281368,46281237,-0.0003965632,-0.00031256722,-0.000995302,0.0,0.0,0.0,0.0,-1.0
46381411,46381237,-0.0005637272,5.0196424e-05,0.0011499425,0.0,0.0,0.0,0.0,-1.0
46481418,46481236,-0.00030323007,0.0003685754,-0.0013839036,0.0,0.0,0.0,0.0,-1.0
46585413,46585236,-0.00057430554,0.00010908965,-0.0018546375,0.0,0.0,0.0,0.0,-1.0
46685412,46685237,-0.00034476092,6.0053222e-05,0.0010808585,0.0,0.0,0.0,0.0,-1.0
46789368,46789235,-0.000356528,0.0005968723,0.0011560209,0.0,0.0,0.0,0.0,-1.0
46889417,46889237,-0.00033382652,2.87586e-05,-0.0016639145,0.0,0.0,0.0,0.0,-1.0
46990218,46990037,-0.00028077353,-0.0001126499,0.00027224107,0.0,0.0,0.0,0.0,-1.0
47090217,47090038,-0.00020570298,8.450831e-05,-0.00038054786,0.0,0.0,0.0,0.0,-1.0
47194219,47194037,-0.000259335,0.00037436583,-0.00069620396,0.0,0.0,0.0,0.0,-1.0
47294203,47294037,-0.00030507857,0.00022352277,0.00045311495,0.0,0.0,0.0,0.0,-1.0
47398202,47398037,-0.00046623082,-4.3815016e-05,0.0002914239,0.0,0.0,0.0,0.0,-1.0
47498219,47498038,-0.00017087991,0.00025542654,-0.0003558229,0.0,0.0,0.0,0.0,-1.0
47598222,47598038,-0.00019057922,0.0004960948,8.902792e-05,0.0,0.0,0.0,0.0,-1.0
47702211,47702035,-0.00027517742,0.00049708644,0.00032301314,0.0,0.0,0.0,0.0,-1.0
47802214,47802037,-0.0005528042,1.4567428e-05,-0.00042103717,0.0,0.0,0.0,0.0,-1.0
47902199,47902037,2.7316099e-05,0.0003237165,-0.0005086493,0.0,0.0,0.0,0.0,-1.0
48006206,48006038,-0.0006168091,8.330525e-05,0.0005424567,0.0,0.0,0.0,0.0,-1.0
48106216,48106036,-0.00034633622,0.0001423681,-0.00012465639,0.0,0.0,0.0,0.0,-1.0
48207044,48206868,-0.00031758286,0.00025804064,-0.0010428698,0.0,0.0,0.0,0.0,-1.0
48311049,48310877,-0.00033411404,0.00024812605,-0.00067775894,0.0,0.0,0.0,0.0,-1.0
48411062,48410878,-0.00060032227,0.0005036734,0.00029440658,0.0,0.0,0.0,0.0,-1.0
48511035,48510878,9.975833e-05,3.2091688e-05,-0.0011558499,0.0,0.0,0.0,0.0,-1.0
48615030,48614866,-0.00028917464,0.000299663,-0.0006569361,0.0,0.0,0.0,0.0,-1.0
48715063,48714863,-0.0002281809,0.00048369193,0.0011228949,0.0,0.0,0.0,0.0,-1.0
48819054,48818879,-2.865566e-05,-2.824873e-05,0.00033392065,0.0,0.0,0.0,0.0,-1.0
48919049,48918877,-0.00020463066,0.00037539224,-0.0011312233,0.0,0.0,0.0,0.0,-1.0
49019038,49018866,-0.0001610675,0.00047041132,0.001231649,0.0,0.0,0.0,0.0,-1.0
49123050,49122877,-4.5791385e-06,0.000549351,0.000748119,0.0,0.0,0.0,0.0,-1.0
49223039,49222876,-0.00053549604,1.7605991e-05,-0.0014266648,0.0,0.0,0.0,0.0,-1.0
49323827,49323637,-0.0007023441,0.00031909265,0.0012649266,0.0,0.0,0.0,0.0,-1.0
49427767,49427635,-1.0868302e-05,0.00022431873,0.0010503231,0.0,0.0,0.0,0.0,-1.0
49527823,49527635,-0.00038017106,0.00042288465,-0.0017894682,0.0,0.0,0.0,0.0,-1.0
49627820,49627635,-0.0004782764,-3.3990786e-05,0.0015157299,0.0,0.0,0.0,0.0,-1.0
49731839,49731637,-0.00045328794,-0.00017601004,0.001167934,0.0,0.0,0.0,0.0,-1.0
49831817,49831637,-0.00020118614,0.0003295044,-0.0010992074,0.0,0.0,0.0,0.0,-1.0
49935826,49935634,1.8070656e-05,0.00013736087,-0.0016914638,0.0,0.0,0.0,0.0,-1.0
50035817,50035637,2.5836052e-05,0.0004287801,0.0011263883,0.0,0.0,0.0,0.0,-1.0
50135831,50135637,-0.00052261533,0.00025067816,-0.0007332613,0.0,0.0,0.0,0.0,-1.0
50236566,50236436,4.0354556e-05,0.00013772871,-0.0004758263,0.0,0.0,0.0,0.0,-1.0
50340598,50340437,-0.00045700095,0.00028082938,0.0005857082,0.0,0.0,0.0,0.0,-1.0
50440615,50440438,0.00016899248,0.00040543708,3.209152e-05,0.0,0.0,0.0,0.0,-1.0
50544627,50544437,-0.00025102837,0.000107422675,-0.0008392881,0.0,0.0,0.0,0.0,-1.0
50644568,50644436,-0.00034260543,0.00043771014,-2.430854e-05,0.0,0.0,0.0,0.0,-1.0
50744613,50744437,-0.0004610896,0.00017164479,0.00058615813,0.0,0.0,0.0,0.0,-1.0
50848611,50848437,8.171104e-05,0.00017292639,0.0001939875,0.0,0.0,0.0,0.0,-1.0
50948613,50948436,-0.0003764503,0.0003609762,-0.00072408986,0.0,0.0,0.0,0.0,-1.0
51048566,51048436,-5.6075456e-05,0.0003798535,0.0011556112,0.0,0.0,0.0,0.0,-1.0
51152641,51152438,-0.00030645978,0.00026995337,0.0007156586,0.0,0.0,0.0,0.0,-1.0
51252638,51252438,-0.00010970418,8.245093e-05,-0.001791067,0.0,0.0,0.0,0.0,-1.0
51356616,51356437,-0.0005104125,-6.9503585e-05,-0.0015319701,0.0,0.0,0.0,0.0,-1.0
51456611,51456436,9.161135e-05,0.00013763044,0.0009985912,0.0,0.0,0.0,0.0,-1.0
51556600,51556437,-0.0005301755,0.00050816056,-0.001374197,0.0,0.0,0.0,0.0,-1.0
51661417,51661237,-0.00032296582,0.00023205229,-0.000487325,0.0,0.0,0.0,0.0,-1.0
51761434,51761238,-0.00045303832,-6.673182e-05,-0.00044408234,0.0,0.0,0.0,0.0,-1.0
51861413,51861238,-0.00032681547,0.00044532795,0.0007038559,0.0,0.0,0.0,0.0,-1.0
51965415,51965237,-0.00020561779,0.00062221877,0.00053299416,0.0,0.0,0.0,0.0,-1.0
52065403,52065238,-0.0005847678,-7.305105e-06,-0.0013805769,0.0,0.0,0.0,0.0,-1.0
52165418,52165237,-0.00035329704,0.00023572674,0.0009975743,0.0,0.0,0.0,0.0,-1.0
52269418,52269237,-0.0004042097,-9.7150594e-05,0.000824192,0.0,0.0,0.0,0.0,-1.0
52369419,52369239,-0.00039342133,0.00028240655,-0.00078587164,0.0,0.0,0.0,0.0,-1.0
52473419,52473238,-0.00027566214,0.00027547352,-0.0012804443,0.0,0.0,0.0,0.0,-1.0
52573413,52573238,-0.00059274526,-0.00014287411,0.0002480759,0.0,0.0,0.0,0.0,-1.0
52673368,52673236,-0.00035334093,0.00049621344,0.00039642397,0.0,0.0,0.0,0.0,-1.0
52774225,52774038,-0.00033114533,0.0005565074,-0.0016382592,0.0,0.0,0.0,0.0,-1.0
52878213,52878037,-0.0004241857,0.0003090995,-0.001331778,0.0,0.0,0.0,0.0,-1.0
52978228,52978038,-0.0003868954,0.00030100098,0.0006477996,0.0,0.0,0.0,0.0,-1.0
53082211,53082037,-0.00048538664,0.0006964477,0.00077269494,0.0,0.0,0.0,0.0,-1.0
53182219,53182037,0.0001440141,0.00037173196,-0.0006604898,0.0,0.0,0.0,0.0,-1.0
53282200,53282037,-0.0005019489,0.00017956895,-0.00088203925,0.0,0.0,0.0,0.0,-1.0
53386223,53386035,-0.00015928436,0.00032576703,-0.0008677763,0.0,0.0,0.0,0.0,-1.0
53486216,53486037,-0.00031174926,0.0002844818,0.00075803115,0.0,0.0,0.0,0.0,-1.0
53586218,53586037,-0.00064856786,-0.00014551758,-0.0015684355,0.0,0.0,0.0,0.0,-1.0
53690213,53690037,-0.00015702662,0.00012077848,-0.0013543869,0.0,0.0,0.0,0.0,-1.0
53791040,53790878,-0.00012601989,0.0001645519,3.443004e-05,0.0,0.0,0.0,0.0,-1.0
53891048,53890869,-0.0005793418,0.00028473427,0.00041646068,0.0,0.0,0.0,0.0,-1.0
53995056,53994861,-0.0005411499,0.00011715931,0.00037187367,0.0,0.0,0.0,0.0,-1.0
54095058,54094862,-6.118724e-05,0.00034327712,-0.0012573835,0.0,0.0,0.0,0.0,-1.0
54195045,54194863,-0.00024704117,0.00026395032,0.0011817337,0.0,0.0,0.0,0.0,-1.0
54299063,54298878,-0.0001420197,0.00021463704,0.0012127139,0.0,0.0,0.0,0.0,-1.0
54399051,54398884,-0.00038741142,0.00046700047,-0.0016316284,0.0,0.0,0.0,0.0,-1.0
54503041,54502877,-0.0003278436,0.00016711515,-0.0011555295,0.0,0.0,0.0,0.0,-1.0
54603063,54602876,-0.0005407053,0.0006076023,0.0006801654,0.0,0.0,0.0,0.0,-1.0
54703044,54702866,-0.0002556297,0.0003724767,-7.553215e-05,0.0,0.0,0.0,0.0,-1.0
54807052,54806876,-1.5846308e-06,0.00027428314,1.9979792e-05,0.0,0.0,0.0,0.0,-1.0
54907056,54906877,-0.000315456,5.1792507e-05,-0.0011420123,0.0,0.0,0.0,0.0,-1.0
55007060,55006877,-0.00023859843,0.00030592206,0.0010752846,0.0,0.0,0.0,0.0,-1.0
55111818,55111634,1.4277495e-05,0.00077207945,0.0012568755,0.0,0.0,0.0,0.0,-1.0
55211840,55211637,-0.00022251254,-7.8128214e-05,-0.0007128277,0.0,0.0,0.0,0.0,-1.0
55311822,55311636,-0.00011340706,0.00046788104,-0.00035371725,0.0,0.0,0.0,0.0,-1.0
55415822,55415636,-0.00048428823,0.00021998891,-0.0007644081,0.0,0.0,0.0,0.0,-1.0
55515814,55515636,-0.00019655078,0.00020665619,0.0009671754,0.0,0.0,0.0,0.0,-1.0
55619831,55619636,-0.00053800095,-0.00010423602,0.00072296587,0.0,0.0,0.0,0.0,-1.0
55719821,55719637,3.247855e-05,0.00021418968,-0.0012598732,0.0,0.0,0.0,0.0,-1.0
55819822,55819636,-7.534842e-05,-3.8091035e-05,0.0009232784,0.0,0.0,0.0,0.0,-1.0
55923835,55923638,-0.0004184002,1.7893122e-05,0.0008633461,0.0,0.0,0.0,0.0,-1.0
56024610,56024435,-0.00010890914,0.0002019888,0.00012870747,0.0,0.0,0.0,0.0,-1.0
56124636,56124440,-0.00010230385,8.8077635e-05,-0.0013628574,0.0,0.0,0.0,0.0,-1.0
56228605,56228437,-0.00028517112,0.00024944835,-0.0013654856,0.0,0.0,0.0,0.0,-1.0
56328620,56328436,8.21866e-06,0.0003310393,0.0012082692,0.0,0.0,0.0,0.0,-1.0
56428617,56428437,-9.44209e-05,0.0001371549,-0.0011949593,0.0,0.0,0.0,0.0,-1.0
56532632,56532438,-0.0004756624,0.0002921928,-0.0011357347,0.0,0.0,0.0,0.0,-1.0
56632565,56632437,-0.000115663686,0.00026643317,0.00011831108,0.0,0.0,0.0,0.0,-1.0
56732633,56732438,-0.00035729603,-0.00014084,-0.0002492621,0.0,0.0,0.0,0.0,-1.0
56836660,56836487,-0.00015253345,0.0004250696,0.00033518783,0.0,0.0,0.0,0.0,-1.0
56936567,56936437,3.392526e-05,5.7307458e-05,-0.0015979005,0.0,0.0,0.0,0.0,-1.0
57040600,57040437,-0.0004431368,0.00011518557,-0.0013126105,0.0,0.0,0.0,0.0,-1.0
57140619,57140435,-0.00013532046,0.00010660324,0.0008223022,0.0,0.0,0.0,0.0,-1.0
57240614,57240437,-0.00038905308,-5.058071e-06,-0.00039030364,0.0,0.0,0.0,0.0,-1.0
57344566,57344436,-0.0005108459,0.0003753574,-0.0012767033,0.0,0.0,0.0,0.0,-1.0
57445376,57445237,-7.7306715e-05,3.5648678e-05,-0.0009326602,0.0,0.0,0.0,0.0,-1.0
57545421,57545238,-0.0003089831,0.0001990108,0.0015242614,0.0,0.0,0.0,0.0,-1.0
57649424,57649237,-0.004090486,0.0010724512,-0.0008784302,0.0,0.0,0.0,0.0,-1.0
57749427,57749238,-0.0038796384,0.00080622337,-0.0031141478,0.0,0.0,0.0,0.0,-1.0
57849420,57849235,-0.004286623,0.000973376,-0.0011146939,0.0,0.0,0.0,0.0,-1.0
57953422,57953237,-0.0036141383,0.0007842227,-0.0012658706,0.0,0.0,0.0,0.0,-1.0
58053442,58053239,-0.003202808,-0.00014345816,-0.0012418837,0.0,0.0,0.0,0.0,-1.0
58157454,58157237,-0.0029574058,-0.0019151402,-0.0015862916,0.0,0.0,0.0,0.0,-1.0
58257430,58257238,-0.0035190745,-0.0028759493,-0.0029416943,0.0,0.0,0.0,0.0,-1.0
58358231,58358037,-0.0036443968,-0.0036594549,-0.0008721237,0.0,0.0,0.0,0.0,-1.0
58458227,58458037,-0.0036314076,-0.004087753,-0.0013507572,0.0,0.0,0.0,0.0,-1.0
58562226,58562037,-0.0033909625,-0.0044736187,-0.0014422,0.0,0.0,0.0,0.0,-1.0
58662228,58662038,-0.0033603394,-0.004216971,-0.14230889,0.0,0.0,0.0,0.0,-1.0
58766233,58766035,-0.0033842307,-0.0037257331,-0.14093195,0.0,0.0,0.0,0.0,-1.0
58870213,58870037,-0.0037279865,-0.0035935591,-0.14010781,0.0,0.0,0.0,0.0,-1.0
58970238,58970038,-0.0036491998,-0.0027014173,-0.13668862,0.0,0.0,0.0,0.0,-1.0
59074219,59074036,-0.0039480766,-0.0026777964,-0.1350592,0.0,0.0,0.0,0.0,-1.0
59174232,59174037,-0.004084692,-0.0020882927,-0.13682836,0.0,0.0,0.0,0.0,-1.0
59274249,59274038,-0.0041160425,-0.0019717468,-0.13456075,0.0,0.0,0.0,0.0,-1.0
59378234,59378036,-0.003142891,-0.0010636551,-0.13366279,0.0,0.0,0.0,0.0,-1.0
59478211,59478037,-0.00317586,-0.0010191221,-0.13255022,0.0,0.0,0.0,0.0,-1.0
59578229,59578036,-0.002805428,-0.00146257,-0.13342385,0.0,0.0,0.0,0.0,-1.0
59683067,59682883,-0.0026398364,-0.0010983362,-0.13260555,0.0,0.0,0.0,0.0,-1.0
59783072,59782879,-0.002485299,-0.001164158,-0.12967746,0.0,0.0,0.0,0.0,-1.0
59883059,59882867,-0.0029245722,-0.00063758314,-0.13043675,0.0,0.0,0.0,0.0,-1.0
59987069,59986877,-0.0024568264,-0.0005226,-0.13034368,0.0,0.0,0.0,0.0,-1.0
60087067,60086877,-0.0027775385,-5.0229646e-05,-0.13081908,0.0,0.0,0.0,0.0,-1.0
60187083,60186878,-0.0031456216,-3.872484e-05,-0.12934095,0.0,0.0,0.0,0.0,-1.0
60291062,60290878,-0.003043582,0.00045871802,-0.1296473,0.0,0.0,0.0,0.0,-1.0
60391091,60390879,-0.0028515337,0.0008075172,-0.13228369,0.0,0.0,0.0,0.0,-1.0
60495051,60494861,-0.003551462,0.0008692441,-0.13269705,0.0,0.0,0.0,0.0,-1.0
60595048,60594863,-0.00399701,0.00088960305,-0.13081115,0.0,0.0,0.0,0.0,-1.0
60695064,60694872,-0.0037802844,0.0010100243,-0.13145126,0.0,0.0,0.0,0.0,-1.0
60799075,60798881,-0.0036373895,0.0014578546,-0.13230889,0.0,0.0,0.0,0.0,-1.0
60899832,60899635,-0.003340975,0.0011570322,-0.1335309,0.0,0.0,0.0,0.0,-1.0
60999828,60999636,-0.0031849726,0.0012444629,-0.13085209,0.0,0.0,0.0,0.0,-1.0
61103825,61103636,-0.0032256593,0.0014595716,-0.13045257,0.0,0.0,0.0,0.0,-1.0
61203820,61203635,-0.0030789527,0.0014052519,-0.1328378,0.0,0.0,0.0,0.0,-1.0
61303827,61303636,-0.0028414235,0.0014451455,-0.13228467,0.0,0.0,0.0,0.0,-1.0
61407828,61407637,-0.0030493264,0.0017237241,-0.13158812,0.0,0.0,0.0,0.0,-1.0
61507821,61507636,-0.0031514803,0.0018750209,-0.13118947,0.0,0.0,0.0,0.0,-1.0
61611832,61611635,-0.0031276585,0.0020379757,-0.13203512,0.0,0.0,0.0,0.0,-1.0
61711824,61711635,-0.0033644664,0.001646767,-0.13399355,0.0,0.0,0.0,0.0,-1.0
61812606,61812437,-0.0031280927,0.0016060884,-0.13201714,0.0,0.0,0.0,0.0,-1.0
61912617,61912435,-0.0037579702,0.0012695959,-0.13385457,0.0,0.0,0.0,0.0,-1.0
62016619,62016437,-0.0035230191,0.0009331566,-0.13394047,0.0,0.0,0.0,0.0,-1.0
62116645,62116439,-0.0034022725,0.0011736713,-0.13421288,0.0,0.0,0.0,0.0,-1.0
62220620,62220437,-0.0034666962,0.0007335383,-0.13364731,0.0,0.0,0.0,0.0,-1.0
62320622,62320438,-0.00366463,0.0012859706,-0.13269007,0.0,0.0,0.0,0.0,-1.0
62420604,62420437,-0.0033246141,0.0010384137,-0.13509803,0.0,0.0,0.0,0.0,-1.0
62524632,62524438,-0.0028651066,0.00084213604,-0.13503286,0.0,0.0,0.0,0.0,-1.0
62624620,62624437,-0.003565588,0.0009699968,-0.13242911,0.0,0.0,0.0,0.0,-1.0
62724617,62724436,-0.0030431189,0.00086331496,-0.13367838,0.0,0.0,0.0,0.0,-1.0
62828616,62828435,-0.0032469088,0.00073059695,-0.13335696,0.0,0.0,0.0,0.0,-1.0
62928626,62928438,-0.0030119421,0.0008901722,-0.13411443,0.0,0.0,0.0,0.0,-1.0
63032639,63032437,-0.003249178,0.0012064015,-0.13367909,0.0,0.0,0.0,0.0,-1.0
63133434,63133247,-0.0031143667,0.0011118572,-0.13235283,0.0,0.0,0.0,0.0,-1.0
63233473,63233258,-0.0033983956,0.0011362046,-0.13439114,0.0,0.0,0.0,0.0,-1.0
63337430,63337237,-0.0031282965,0.00089819287,-0.13498104,0.0,0.0,0.0,0.0,-1.0
63437419,63437237,-0.0031837446,0.0011595364,-0.1334537,0.0,0.0,0.0,0.0,-1.0
63537425,63537238,-0.0026530658,0.0009902959,-0.13362612,0.0,0.0,0.0,0.0,-1.0
63641407,63641237,-0.002974205,0.001066401,-0.13362521,0.0,0.0,0.0,0.0,-1.0
63741429,63741238,-0.0029273436,0.0010407207,-0.13509366,0.0,0.0,0.0,0.0,-1.0
63841424,63841238,-0.0029292551,0.0008180712,-0.13296871,0.0,0.0,0.0,0.0,-1.0
63945429,63945237,-0.0028034532,0.00086470123,-0.13273269,0.0,0.0,0.0,0.0,-1.0
64045441,64045238,-0.0027566305,0.0009403778,-0.1355008,0.0,0.0,0.0,0.0,-1.0
64149428,64149237,-0.00275865,0.0010392803,-0.1354706,0.0,0.0,0.0,0.0,-1.0
64250182,64250036,-0.0025727944,0.0010931462,-0.13406695,0.0,0.0,0.0,0.0,-1.0
64350246,64350038,-0.0029992985,0.0010221673,-0.13369444,0.0,0.0,0.0,0.0,-1.0
64450217,64450035,-0.0029719155,0.0006405613,-0.13512404,0.0,0.0,0.0,0.0,-1.0
64554247,64554039,-0.0029810285,0.00084651756,-0.13544497,0.0,0.0,0.0,0.0,-1.0
64654248,64654038,-0.003176654,0.0010265026,-0.13271984,0.0,0.0,0.0,0.0,-1.0
64758238,64758038,-0.0034974283,0.00076111243,-0.1330571,0.0,0.0,0.0,0.0,-1.0
64858209,64858037,-0.0034900773,0.0005500546,-0.13578553,0.0,0.0,0.0,0.0,-1.0
64958240,64958038,-0.0030120423,0.000909794,-0.13370074,0.0,0.0,0.0,0.0,-1.0
65062232,65062038,-0.0034395987,0.0011081198,-0.13378115,0.0,0.0,0.0,0.0,-1.0
65162225,65162038,-0.003195971,0.000789082,-0.13419823,0.0,0.0,0.0,0.0,-1.0
65262230,65262038,-0.0034715543,0.0007884783,-0.13533348,0.0,0.0,0.0,0.0,-1.0
65367053,65366877,-0.0036572572,0.00085746153,-0.13585648,0.0,0.0,0.0,0.0,-1.0
65467092,65466881,-0.0032250378,0.0011144835,-0.132797,0.0,0.0,0.0,0.0,-1.0
65567061,65566870,-0.0036461747,0.00055751007,-0.13488927,0.0,0.0,0.0,0.0,-1.0
65671060,65670876,-0.0033560884,0.0011409393,-0.13553125,0.0,0.0,0.0,0.0,-1.0
65771087,65770879,-0.0034717466,0.00093691057,-0.13382716,0.0,0.0,0.0,0.0,-1.0
65871086,65870879,-0.0037799967,0.0008526657,-0.13425702,0.0,0.0,0.0,0.0,-1.0
65975058,65974863,-0.0034079982,0.0010077442,-0.13397484,0.0,0.0,0.0,0.0,-1.0
66075060,66074864,-0.003209902,0.0011931269,-0.13500018,0.0,0.0,0.0,0.0,-1.0
66179028,66178837,-0.0036756517,0.0010888395,-0.13469249,0.0,0.0,0.0,0.0,-1.0
66279081,66278877,-0.0034879046,0.0011859097,-0.133281,0.0,0.0,0.0,0.0,-1.0
66379058,66378864,-0.0034314266,0.0011408543,-0.13552523,0.0,0.0,0.0,0.0,-1.0
66483065,66482878,-0.003470391,0.0012053443,-0.1355807,0.0,0.0,0.0,0.0,-1.0
66583831,66583649,-0.0030277579,0.00096073083,-0.13376114,0.0,0.0,0.0,0.0,-1.0
66683849,66683656,-0.003234046,0.001147341,-0.13330863,0.0,0.0,0.0,0.0,-1.0
66787825,66787636,-0.0033640258,0.001111434,-0.13394538,0.0,0.0,0.0,0.0,-1.0
66887838,66887635,-0.003697305,0.0010512687,-0.13523516,0.0,0.0,0.0,0.0,-1.0
66987828,66987636,-0.0032255184,0.0014192217,-0.13286063,0.0,0.0,0.0,0.0,-1.0
67091843,67091638,-0.0034310904,0.00080082833,-0.1329541,0.0,0.0,0.0,0.0,-1.0
67191813,67191636,-0.0033005793,0.0013710349,-0.13458514,0.0,0.0,0.0,0.0,-1.0
67295832,67295635,-0.0036226069,0.0010359121,-0.13474543,0.0,0.0,0.0,0.0,-1.0
67395833,67395637,-0.0037951618,0.0013705231,-0.13364133,0.0,0.0,0.0,0.0,-1.0
67496619,67496436,-0.0037714972,0.0012727757,-0.13259283,0.0,0.0,0.0,0.0,-1.0
67596617,67596436,-0.0038690516,0.0010205202,-0.13500619,0.0,0.0,0.0,0.0,-1.0
67700612,67700438,-0.003594518,0.0009680284,-0.13498247,0.0,0.0,0.0,0.0,-1.0
67800635,67800439,-0.0033056193,0.0009368061,-0.13249919,0.0,0.0,0.0,0.0,-1.0
67904622,67904435,-0.003188327,0.001324893,-0.1325573,0.0,0.0,0.0,0.0,-1.0
68004625,68004436,-0.0032499596,0.0010763122,-0.13338535,0.0,0.0,0.0,0.0,-1.0
68104619,68104436,-0.0033672322,0.0011600488,-0.1342252,0.0,0.0,0.0,0.0,-1.0
68208622,68208437,-0.0033258833,0.00094496185,-0.13386662,0.0,0.0,0.0,0.0,-1.0
68308606,68308437,-0.0035479649,0.00094617525,-0.13214587,0.0,0.0,0.0,0.0,-1.0
68408622,68408436,-0.0033425693,0.001027205,-0.1346672,0.0,0.0,0.0,0.0,-1.0
68512621,68512436,-0.0038360534,0.001321686,-0.134234,0.0,0.0,0.0,0.0,-1.0
68612620,68612438,-0.003558148,0.0009296175,-0.13228959,0.0,0.0,0.0,0.0,-1.0
68713447,68713237,-0.003399843,0.000919595,-0.13250518,0.0,0.0,0.0,0.0,-1.0
68817424,68817237,-0.0032938006,0.0009992517,-0.13277131,0.0,0.0,0.0,0.0,-1.0
68917425,68917237,-0.0031708484,0.0004904998,-0.13474266,0.0,0.0,0.0,0.0,-1.0
69021430,69021238,-0.003252769,0.00079215015,-0.13414514,0.0,0.0,0.0,0.0,-1.0
69121496,69121238,-0.003227446,0.0008042104,-0.13183917,0.0,0.0,0.0,0.0,-1.0
69221452,69221248,-0.0034351693,0.0011145313,-0.13380611,0.0,0.0,0.0,0.0,-1.0
69325429,69325238,-0.0036850448,0.00085075916,-0.1340999,0.0,0.0,0.0,0.0,-1.0
69425421,69425238,-0.003262295,0.0006538239,-0.1332133,0.0,0.0,0.0,0.0,-1.0
69525428,69525237,-0.0035298644,0.0008614191,-0.1321562,0.0,0.0,0.0,0.0,-1.0
69629425,69629238,-0.0032717062,0.0011252243,-0.13227528,0.0,0.0,0.0,0.0,-1.0
69729427,69729238,-0.0036786702,0.0011685548,-0.134371,0.0,0.0,0.0,0.0,-1.0
69833433,69833238,-0.0034055794,0.00087852206,-0.13364932,0.0,0.0,0.0,0.0,-1.0
69933428,69933238,-0.0036521375,0.0007982446,-0.13151895,0.0,0.0,0.0,0.0,-1.0
70034243,70034063,-0.0035164142,0.00094203104,-0.13328964,0.0,0.0,0.0,0.0,-1.0
70134259,70134070,-0.0035127744,0.0010816907,-0.13357681,0.0,0.0,0.0,0.0,-1.0
70238221,70238036,-0.0036005303,0.0010812422,-0.13362017,0.0,0.0,0.0,0.0,-1.0
70338226,70338037,-0.0036406978,0.001095609,-0.13208576,0.0,0.0,0.0,0.0,-1.0
70442223,70442038,-0.0033927548,0.0010244973,-0.13191602,0.0,0.0,0.0,0.0,-1.0
70542227,70542037,-0.0036972943,0.00080502033,-0.13423288,0.0,0.0,0.0,0.0,-1.0
70642215,70642037,-0.0036472983,0.0016960683,-0.13211285,0.0,0.0,0.0,0.0,-1.0
70746214,70746037,-0.0035951657,0.0012901746,-0.1316138,0.0,0.0,0.0,0.0,-1.0
70846229,70846037,-0.0033098103,0.0012862766,-0.13322146,0.0,0.0,0.0,0.0,-1.0
70946222,70946036,-0.0035346413,0.0013250075,-0.1328567,0.0,0.0,0.0,0.0,-1.0
71050244,71050037,-0.0034366432,0.0013520757,-0.13241918,0.0,0.0,0.0,0.0,-1.0
71151072,71150879,-0.0030644322,0.00087301567,-0.13126618,0.0,0.0,0.0,0.0,-1.0
71251051,71250866,-0.0030810123,0.0013446283,-0.13371441,0.0,0.0,0.0,0.0,-1.0
71355079,71354870,-0.0035062572,0.00079279713,-0.13402113,0.0,0.0,0.0,0.0,-1.0
71455045,71454862,-0.0032460962,0.0008309026,-0.13190696,0.0,0.0,0.0,0.0,-1.0
71555075,71554871,-0.0032449584,0.00070036633,-0.1322132,0.0,0.0,0.0,0.0,-1.0
71659083,71658881,-0.0031293982,0.000705314,-0.13236623,0.0,0.0,0.0,0.0,-1.0
71759060,71758879,-0.0032888148,0.0005421703,-0.13307574,0.0,0.0,0.0,0.0,-1.0
71863049,71862877,-0.0032580781,0.00059241685,-0.13260047,0.0,0.0,0.0,0.0,-1.0
71963029,71962839,-0.0034061791,0.0010972783,-0.13068181,0.0,0.0,0.0,0.0,-1.0
72063058,72062868,-0.0032548136,0.00080805627,-0.13317986,0.0,0.0,0.0,0.0,-1.0
72167067,72166877,-0.003461937,0.00073038245,-0.13328831,0.0,0.0,0.0,0.0,-1.0
72267089,72266878,-0.003389356,0.0008512406,-0.13086909,0.0,0.0,0.0,0.0,-1.0
72367830,72367637,-0.0033482816,0.001050995,-0.13114245,0.0,0.0,0.0,0.0,-1.0
72471825,72471635,-0.0036314926,0.0008479427,-0.13108067,0.0,0.0,0.0,0.0,-1.0
72571827,72571636,-0.004027092,0.00075684255,-0.13227506,0.0,0.0,0.0,0.0,-1.0
72671833,72671635,-0.0034067861,0.0009684959,-0.13055643,0.0,0.0,0.0,0.0,-1.0
72775827,72775635,-0.0032973795,0.0007874477,-0.1301617,0.0,0.0,0.0,0.0,-1.0
72875809,72875637,-0.0033303353,0.00064071873,-0.13274454,0.0,0.0,0.0,0.0,-1.0
72979819,72979635,-0.0033005963,0.00088603457,-0.13228564,0.0,0.0,0.0,0.0,-1.0
73079826,73079636,-0.0030171736,0.0006822071,-0.13157742,0.0,0.0,0.0,0.0,-1.0
73179831,73179637,-0.003505905,0.00065720006,-0.13051656,0.0,0.0,0.0,0.0,-1.0
73280620,73280438,-0.0032727174,0.001256156,-0.1328191,0.0,0.0,0.0,0.0,-1.0
73384615,73384437,-0.003538148,0.00087613467,-0.13223188,0.0,0.0,0.0,0.0,-1.0
73484653,73484439,-0.0033021872,0.0010199673,-0.1306777,0.0,0.0,0.0,0.0,-1.0
73588628,73588436,-0.003591071,0.00095750426,-0.13094695,0.0,0.0,0.0,0.0,-1.0
73688655,73688438,-0.002985777,0.00074520765,-0.13194603,0.0,0.0,0.0,0.0,-1.0
73788627,73788438,-0.00351043,0.0009875218,-0.132175,0.0,0.0,0.0,0.0,-1.0
73892622,73892436,-0.0036844374,0.0011042982,-0.13228154,0.0,0.0,0.0,0.0,-1.0
73992629,73992437,-0.0032443746,0.00083706656,-0.13082992,0.0,0.0,0.0,0.0,-1.0
74092627,74092436,-0.0030082692,0.0007753628,-0.1332204,0.0,0.0,0.0,0.0,-1.0
74196616,74196436,-0.003667207,0.00049224286,-0.13297883,0.0,0.0,0.0,0.0,-1.0
74296620,74296438,-0.0034113775,0.0006079384,-0.13062954,0.0,0.0,0.0,0.0,-1.0
74400644,74400438,-0.00320793,0.000967376,-0.13045901,0.0,0.0,0.0,0.0,-1.0
74500620,74500436,-0.0034143284,0.0006798898,-0.1325431,0.0,0.0,0.0,0.0,-1.0
74601446,74601238,-0.0040566884,0.00088604767,-0.13324209,0.0,0.0,0.0,0.0,-1.0
74705449,74705238,-0.0034662762,0.0007209709,-0.1325089,0.0,0.0,0.0,0.0,-1.0
74805439,74805238,-0.0035436514,0.0007594436,-0.13064612,0.0,0.0,0.0,0.0,-1.0
74905447,74905238,-0.0035954555,0.0009418153,-0.13317055,0.0,0.0,0.0,0.0,-1.0
75009427,75009238,-0.0035865896,0.00084626366,-0.13326198,0.0,0.0,0.0,0.0,-1.0
75109407,75109238,-0.003665721,0.0010379176,-0.13112323,0.0,0.0,0.0,0.0,-1.0
75209429,75209237,-0.003743196,0.00099401,-0.13244642,0.0,0.0,0.0,0.0,-1.0
75313444,75313237,-0.004013679,0.0010163931,-0.13270131,0.0,0.0,0.0,0.0,-1.0
75413443,75413238,-0.0036247435,0.001374256,-0.13208295,0.0,0.0,0.0,0.0,-1.0
75517428,75517236,-0.0036814355,0.0015407315,-0.13198338,0.0,0.0,0.0,0.0,-1.0
75617421,75617236,-0.0035842312,0.0010566192,-0.13228083,0.0,0.0,0.0,0.0,-1.0
75718251,75718036,-0.0034901833,0.0011651691,-0.13350843,0.0,0.0,0.0,0.0,-1.0
75818224,75818038,-0.0033744627,0.0016383837,-0.13105287,0.0,0.0,0.0,0.0,-1.0
75922259,75922039,-0.0035436058,0.0011426567,-0.13144939,0.0,0.0,0.0,0.0,-1.0
76022249,76022038,-0.003554338,0.0010383313,-0.13356444,0.0,0.0,0.0,0.0,-1.0
76126242,76126038,-0.0036243394,0.0011867912,-0.13353568,0.0,0.0,0.0,0.0,-1.0
76226232,76226037,-0.0036930887,0.0012142056,-0.13151796,0.0,0.0,0.0,0.0,-1.0
76326229,76326037,-0.0035184242,0.0009550106,-0.13295019,0.0,0.0,0.0,0.0,-1.0
76430228,76430035,-0.0031773308,0.00027084583,-0.1330557,0.0,0.0,0.0,0.0,-1.0
76530218,76530036,-0.003293507,0.0010902749,-0.13287637,0.0,0.0,0.0,0.0,-1.0
76630220,76630036,-0.0034009598,0.00078034063,-0.13185452,0.0,0.0,0.0,0.0,-1.0
76735069,76734884,-0.0032804722,0.0007768593,-0.13146043,0.0,0.0,0.0,0.0,-1.0
76835040,76834871,-0.0034605325,0.00070437416,-0.13388821,0.0,0.0,0.0,0.0,-1.0
76935078,76934887,-0.0034729603,0.00067548634,-0.1312112,0.0,0.0,0.0,0.0,-1.0
77039065,77038878,-0.0033704236,0.00092145184,-0.13118151,0.0,0.0,0.0,0.0,-1.0
77139104,77138889,-0.003158859,0.0010198262,-0.1334919,0.0,0.0,0.0,0.0,-1.0
77239086,77238878,-0.003077149,0.0007661213,-0.13195159,0.0,0.0,0.0,0.0,-1.0
77343036,77342838,-0.0037275162,0.001016702,-0.13175583,0.0,0.0,0.0,0.0,-1.0
77443052,77442879,-0.003352879,0.0007998965,-0.13324739,0.0,0.0,0.0,0.0,-1.0
77547049,77546877,-0.0035544592,0.0011483256,-0.13317668,0.0,0.0,0.0,0.0,-1.0
77647089,77646879,-0.0034338564,0.0010001163,-0.13210446,0.0,0.0,0.0,0.0,-1.0
77747093,77746880,-0.0036134238,0.0009980146,-0.13172963,0.0,0.0,0.0,0.0,-1.0
77851058,77850877,-0.0034902717,0.00093386334,-0.13244401,0.0,0.0,0.0,0.0,-1.0
77951823,77951635,-0.0029875399,0.0007311037,-0.13442032,0.0,0.0,0.0,0.0,-1.0
78051828,78051638,-0.003220019,0.0010730915,-0.13135947,0.0,0.0,0.0,0.0,-1.0
78155838,78155635,-0.0036247033,0.000973584,-0.13157693,0.0,0.0,0.0,0.0,-1.0
78255832,78255637,-0.003434482,0.0014321457,-0.13343774,0.0,0.0,0.0,0.0,-1.0
78355839,78355636,-0.0031086542,0.0010756089,-0.13220926,0.0,0.0,0.0,0.0,-1.0
78459820,78459635,-0.003524392,0.0008566949,-0.1321476,0.0,0.0,0.0,0.0,-1.0
78559824,78559636,-0.003335398,0.0011503662,-0.13311872,0.0,0.0,0.0,0.0,-1.0
78663828,78663635,-0.0035175793,0.0008999108,-0.13333729,0.0,0.0,0.0,0.0,-1.0
78763812,78763636,-0.003378489,0.0011433254,-0.13285534,0.0,0.0,0.0,0.0,-1.0
78863825,78863636,-0.0031673387,0.0008259857,-0.13187899,0.0,0.0,0.0,0.0,-1.0
78964624,78964436,-0.0032521412,0.00081407296,-0.13399914,0.0,0.0,0.0,0.0,-1.0
79068625,79068438,-0.0035299256,0.0008293436,-0.13383585,0.0,0.0,0.0,0.0,-1.0
79168623,79168437,-0.00331528,0.0009237039,-0.13199274,0.0,0.0,0.0,0.0,-1.0
79272601,79272435,-0.003074484,0.0014615101,-0.13168015,0.0,0.0,0.0,0.0,-1.0
79372656,79372438,-0.0035608774,0.0013419875,-0.13362502,0.0,0.0,0.0,0.0,-1.0
79472626,79472438,-0.0035081015,0.0009775187,-0.13292168,0.0,0.0,0.0,0.0,-1.0
79576632,79576437,-0.0037858072,0.0011192149,-0.13270713,0.0,0.0,0.0,0.0,-1.0
79676614,79676436,-0.003551106,0.0011378624,-0.13249825,0.0,0.0,0.0,0.0,-1.0
79776626,79776435,-0.00341354,0.00044807087,-0.1339862,0.0,0.0,0.0,0.0,-1.0
79880618,79880437,-0.0032643545,0.00027533804,-0.1337526,0.0,0.0,0.0,0.0,-1.0
79980608,79980437,-0.0032069443,0.0008318506,-0.13166915,0.0,0.0,0.0,0.0,-1.0
80084622,80084438,-0.003193744,0.00095197605,-0.13212788,0.0,0.0,0.0,0.0,-1.0
80184620,80184436,-0.0035709476,0.0008081048,-0.13420902,0.0,0.0,0.0,0.0,-1.0
80285430,80285237,-0.003593006,0.0012079463,-0.133095,0.0,0.0,0.0,0.0,-1.0
80389451,80389249,-0.0034288964,0.0010868122,-0.13264073,0.0,0.0,0.0,0.0,-1.0
80489409,80489236,-0.0036848914,0.0012402373,-0.13233925,0.0,0.0,0.0,0.0,-1.0
80589425,80589238,-0.0035178978,0.0012603357,-0.13401899,0.0,0.0,0.0,0.0,-1.0
80693445,80693238,-0.0035020553,0.00087543344,-0.13384233,0.0,0.0,0.0,0.0,-1.0
80793449,80793238,-0.0034614438,0.0006888083,-0.13170594,0.0,0.0,0.0,0.0,-1.0
80893418,80893235,-0.0039296807,0.0005736194,-0.13346963,0.0,0.0,0.0,0.0,-1.0
80997428,80997238,-0.0029139284,0.00047970985,-0.13401201,0.0,0.0,0.0,0.0,-1.0
81097425,81097238,-0.0035431182,0.0010029571,-0.13242052,0.0,0.0,0.0,0.0,-1.0
81201429,81201237,-0.0034110418,0.0011039178,-0.1329201,0.0,0.0,0.0,0.0,-1.0
81301432,81301238,-0.0033219238,0.000546298,-0.13241807,0.0,0.0,0.0,0.0,-1.0
81401431,81401239,-0.003197845,0.0009264104,-0.13467714,0.0,0.0,0.0,0.0,-1.0
81502228,81502039,-0.003634479,0.0012052567,-0.13214813,0.0,0.0,0.0,0.0,-1.0
81606249,81606037,-0.0034127736,0.0012722098,-0.13227688,0.0,0.0,0.0,0.0,-1.0
81706248,81706037,-0.0033245299,0.0009244268,-0.13332114,0.0,0.0,0.0,0.0,-1.0
81810212,81810039,-0.003362482,0.0008435315,-0.13326257,0.0,0.0,0.0,0.0,-1.0
81910225,81910037,-0.003539027,0.0010773977,-0.1337056,0.0,0.0,0.0,0.0,-1.0
82010247,82010039,-0.0037120364,0.00092778413,-0.1320654,0.0,0.0,0.0,0.0,-1.0
82114244,82114037,-0.0032982917,0.0012852151,-0.13187675,0.0,0.0,0.0,0.0,-1.0
82214231,82214038,-0.0031924974,0.001032277,-0.1339424,0.0,0.0,0.0,0.0,-1.0
82314247,82314038,-0.0037074685,0.0009808355,-0.13265982,0.0,0.0,0.0,0.0,-1.0
