timestamp,ref_timestamp,ref_lat,ref_lon,x,y,z
52490681,0,0,0,0.00061873,0.00029745,8.63E-05
52522803,0,0,0,0.000679375,0.000292117,6.39E-05
52556688,0,0,0,0.000563654,0.000193462,0.000143525
52590686,0,0,0,0.000700257,0.000303678,-8.89E-05
52624795,0,0,0,0.00071073,0.000293366,9.70E-05
52655798,0,0,0,0.000629153,0.000301988,1.59E-05
52690732,0,0,0,0.000706035,0.00028026,-0.000108355
52723837,0,0,0,0.000692817,0.000252006,0.000128469
52756887,0,0,0,0.000703446,0.000302902,0.000105562
52793741,0,0,0,0.000725371,0.000318252,-0.000120081
52822779,0,0,0,0.000688038,0.000324428,2.52E-05
52855106,0,0,0,0.00068437,0.000316572,8.85E-05
52890778,0,0,0,0.000779781,0.000327081,-0.000113434
52922798,0,0,0,0.000755702,0.000319881,9.79E-05
52956751,0,0,0,0.000733213,0.000337618,1.59E-05
52989814,0,0,0,0.000740894,0.000364006,2.58E-05
53024695,0,0,0,0.000740022,0.000353152,1.35E-05
53055762,0,0,0,0.000787313,0.000334544,3.36E-05
53089822,0,0,0,0.000803523,0.000353201,-0.000111131
53122801,0,0,0,0.000791726,0.000342713,7.76E-05
53160738,0,0,0,0.000814923,0.000356021,-0.000160772
53189788,0,0,0,0.000776178,0.000356623,1.68E-05
53222801,0,0,0,0.000906929,0.00033323,6.59E-05
53255829,0,0,0,0.000842382,0.000377559,-0.000178968
53289732,0,0,0,0.000822888,0.000383429,-9.31E-05
53323204,0,0,0,0.000762855,0.000396812,-3.89E-05
53357739,0,0,0,0.000861828,0.000370411,-0.00016359
53389759,0,0,0,0.000844754,0.000362527,3.14E-05
53422740,0,0,0,0.000874399,0.000296598,-3.04E-05
53455827,0,0,0,0.000753092,0.000405088,1.78E-05
53489764,0,0,0,0.000876154,0.000400924,-4.75E-05
53521875,0,0,0,0.000815402,0.000406843,-3.85E-05
53556773,0,0,0,0.000820972,0.000373883,-0.000279933
53589759,0,0,0,0.000806252,0.000359613,-0.000113942
53622773,0,0,0,0.000660991,0.000372071,-1.55E-05
53657685,0,0,0,0.000885695,0.000426279,-0.000173164
53688757,0,0,0,0.000874544,0.000435293,-1.00E-05
53723430,0,0,0,0.00086146,0.000373285,-3.20E-05
53755925,0,0,0,0.000827884,0.000354091,-3.93E-05
53793743,0,0,0,0.000814102,0.000367795,-2.94E-05
53822734,0,0,0,0.000830552,0.000413986,-3.74E-05
53855910,0,0,0,0.000915916,0.000431501,-0.000208844
53890737,0,0,0,0.000956412,0.000431193,-5.11E-05
53924238,0,0,0,0.000880607,0.000421757,2.48E-05
53959723,0,0,0,0.000959348,0.000426788,-2.20E-05
53989796,0,0,0,0.000913551,0.000426183,-2.94E-05
54023964,0,0,0,0.000951552,0.00042364,-2.10E-05
54055925,0,0,0,0.00091103,0.000440122,-0.000188554
54091814,0,0,0,0.000903111,0.000428039,-1.71E-05
54122791,0,0,0,0.000838629,0.000431244,9.56E-06
54161691,0,0,0,0.00093539,0.000439158,-0.000183836
54192686,0,0,0,0.000953933,0.000438055,-1.03E-05
54222731,0,0,0,0.00095757,0.000457767,-0.000201191
54255909,0,0,0,0.000933122,0.000450515,-0.00018708
54291728,0,0,0,0.000926558,0.000437324,-2.11E-05
54322777,0,0,0,0.000962165,0.000418368,-0.000190923
54357769,0,0,0,0.000991236,0.000404441,-5.31E-06
54391874,0,0,0,0.000898291,0.000488853,-5.50E-05
54422742,0,0,0,0.000891281,0.000478844,2.45E-05
54455868,0,0,0,0.000843382,0.000398241,2.37E-05
54489755,0,0,0,0.000922518,0.00038854,-2.67E-05
54522797,0,0,0,0.000916913,0.000421199,-0.000108126
54565710,0,0,0,0.000985478,0.000442618,-7.39E-05
54589045,0,0,0,0.00098321,0.000426346,-6.19E-05
54622751,0,0,0,0.00096039,0.000407079,-0.000196079
54655861,0,0,0,0.00096669,0.00040866,-0.000194929
54688741,0,0,0,0.000933373,0.000395239,-3.24E-05
54722772,0,0,0,0.000928673,0.000422952,-0.000320243
54759870,0,0,0,0.000892261,0.000423207,-0.000181816
54790789,0,0,0,0.000926052,0.000434465,-0.000205386
54822741,0,0,0,0.000903316,0.000449895,-0.000274434
54855878,0,0,0,0.000770963,0.000465896,-0.000123268
54888740,0,0,0,0.000918851,0.000436908,-0.00012255
54922743,0,0,0,0.000951611,0.000432966,-6.08E-05
54955926,0,0,0,0.000968132,0.000430869,-7.61E-05
54990717,0,0,0,0.000943955,0.000397575,-0.000308407
55022801,0,0,0,0.000938747,0.000443577,-0.000313855
55058738,0,0,0,0.000928617,0.00045231,-0.000234169
55088849,0,0,0,0.001034807,0.000475813,9.34E-06
55122954,0,0,0,0.000980252,0.000458921,-0.000235994
55156857,0,0,0,0.000982537,0.00047094,-0.000100848
55190690,0,0,0,0.000992618,0.000475031,-0.000226453
55222766,0,0,0,0.000991843,0.000484745,-0.000235189
55256292,0,0,0,0.001006255,0.000506217,-0.000113652
55290745,0,0,0,0.000971722,0.000471526,-5.89E-05
55324526,0,0,0,0.000942895,0.000453973,2.27E-06
55356351,0,0,0,0.000870979,0.000468279,-7.88E-05
55388996,0,0,0,0.000888389,0.000465281,-8.93E-05
55422750,0,0,0,0.000950734,0.000455963,-0.000298548
55456742,0,0,0,0.000949332,0.000444741,-0.000185018
55490709,0,0,0,0.000956241,0.000455346,-0.000302105
55522766,0,0,0,0.000960634,0.000459,-0.000307068
55556363,0,0,0,0.000930644,0.000457684,-0.00016442
55590732,0,0,0,0.000971657,0.000447174,-0.00018151
55622754,0,0,0,0.000952554,0.000444588,-0.000299629
55656234,0,0,0,0.000945091,0.00044027,-0.0001228
55690690,0,0,0,0.000970473,0.000449048,-0.000317141
55726682,0,0,0,0.00099888,0.000444403,-0.000178528
55756933,0,0,0,0.000952096,0.000444816,-4.18E-05
55790696,0,0,0,0.000966822,0.000450833,-0.000314005
55822732,0,0,0,0.000942862,0.000430881,-0.000159697
55856216,0,0,0,0.000960969,0.000430674,-0.0001744
55894943,0,0,0,0.000982888,0.000437411,-0.000235896
55922790,0,0,0,0.000980286,0.000434979,-0.00029108
55959750,0,0,0,0.00096444,0.000423137,-0.000117546
55990722,0,0,0,0.000959015,0.000434714,-0.00032145
56022793,0,0,0,0.000910888,0.000414102,-0.000167138
56057740,0,0,0,0.000994993,0.000429557,-0.00031636
56089119,0,0,0,0.000975357,0.000442663,-0.000313995
56125592,0,0,0,0.00095234,0.000447706,-0.000156718
56157147,0,0,0,0.000967079,0.000454703,-0.000154346
56189734,0,0,0,0.001006655,0.000446363,-0.000170536
56223812,0,0,0,0.000871171,0.000448196,-0.00012175
56255816,0,0,0,0.000957706,0.000458029,-0.000300038
56291907,0,0,0,0.0009239,0.000439307,-0.000156218
56322740,0,0,0,0.000968138,0.000444269,-0.000160016
56355766,0,0,0,0.000945132,0.000440654,-0.000158232
56393024,0,0,0,0.000947674,0.000470594,-0.000188883
56423849,0,0,0,0.001005312,0.000457809,-0.000150414
56458694,0,0,0,0.001003224,0.000459534,-0.00030285
56489763,0,0,0,0.001060583,0.000470463,-0.000185467
56522971,0,0,0,0.001081903,0.000467441,5.52E-05
56555832,0,0,0,0.001028243,0.000484045,-0.000236102
56589734,0,0,0,0.001014379,0.000471924,-0.00020459
56623698,0,0,0,0.000963832,0.00045372,1.04E-06
56655935,0,0,0,0.001032028,0.000459969,-0.00024099
56689822,0,0,0,0.000973883,0.00044702,-0.00035243
56723754,0,0,0,0.000953936,0.000445499,-0.000282131
56757692,0,0,0,0.000996524,0.000451763,-0.000293277
56789798,0,0,0,0.001000908,0.000453178,-4.63E-05
56822751,0,0,0,0.001043209,0.000465621,8.83E-05
56856989,0,0,0,0.00095202,0.000453796,-0.000174279
56888997,0,0,0,0.000995385,0.000453648,-0.000323205
56922753,0,0,0,0.00098325,0.0004401,-0.000304294
56957849,0,0,0,0.000985548,0.000442515,-0.000159366
56991750,0,0,0,0.001004486,0.000456394,-0.00019734
57023855,0,0,0,0.001008721,0.000412578,-0.000148348
57055753,0,0,0,0.000997884,0.000463151,-0.000320384
57089004,0,0,0,0.001014485,0.000454077,-0.000310793
57122802,0,0,0,0.001025147,0.000443035,-0.000111893
57155762,0,0,0,0.00099204,0.0004503,-6.23E-05
57191696,0,0,0,0.00100164,0.000455389,-0.000184885
57223769,0,0,0,0.000937307,0.000469935,-0.000242364
57256974,0,0,0,0.001012545,0.000467372,-0.000157702
57291757,0,0,0,0.000989371,0.000436312,-0.000117422
57323694,0,0,0,0.001046117,0.000506244,4.10E-05
57357589,0,0,0,0.001019978,0.000456615,-0.000218114
57398601,0,0,0,0.001025268,0.000450904,-5.86E-05
57424712,0,0,0,0.001038532,0.000482348,-0.000123517
57456731,0,0,0,0.001034081,0.000454056,-0.000217967
57489804,0,0,0,0.001058985,0.000444718,-5.38E-05
57522827,0,0,0,0.001046925,0.000467624,-0.00026594
57558302,0,0,0,0.00105774,0.000472084,-0.000177547
57590223,0,0,0,0.001041877,0.000474808,-0.000108166
57623914,0,0,0,0.001049635,0.00048151,-0.000137112
57655865,0,0,0,0.00101941,0.000460292,-0.000244779
57689921,0,0,0,0.000942803,0.000457914,-0.000151433
57722255,0,0,0,0.000914663,0.0004398,-0.000291331
57755829,0,0,0,0.001005188,0.000452758,-0.000185821
57790457,0,0,0,0.000922032,0.00042825,-0.000152989
57824697,0,0,0,0.001012605,0.000420618,-0.000213091
57855873,0,0,0,0.001006743,0.000429314,-0.000303309
57889956,0,0,0,0.001037757,0.000422701,-0.000184568
57922971,0,0,0,0.000993822,0.000435304,-0.000304116
57955836,0,0,0,0.00098521,0.000425576,-0.000294095
57995830,0,0,0,0.000968554,0.000421934,-0.000132858
58023045,0,0,0,0.001022444,0.000445174,-0.00032527
58055934,0,0,0,0.001008565,0.000447714,-0.000317094
58091726,0,0,0,0.00101074,0.000453306,-0.000186991
58123731,0,0,0,0.001011084,0.000429901,-0.000314066
58155833,0,0,0,0.00100301,0.000429242,-0.000208949
58190239,0,0,0,0.000964495,0.000438918,-0.000181175
58223909,0,0,0,0.00099511,0.00045027,-0.000209595
58256830,0,0,0,0.001014083,0.000456037,-0.000169325
58289938,0,0,0,0.001046494,0.000473816,-0.00016232
58322808,0,0,0,0.000981272,0.000434479,-0.000286136
58355256,0,0,0,0.001008129,0.000424382,-0.000309948
58393777,0,0,0,0.000998133,0.000430669,-0.0003083
58423257,0,0,0,0.001001229,0.000422444,-0.000304926
58455889,0,0,0,0.000987271,0.000404055,-0.000182774
58488829,0,0,0,0.000997973,0.000429354,-0.000320271
58523724,0,0,0,0.000999364,0.000422702,-0.000317298
58556765,0,0,0,0.001016336,0.000422523,-0.000223197
58589796,0,0,0,0.001008263,0.000428613,-0.000297453
58623265,0,0,0,0.001001969,0.000417954,-0.000170097
58657846,0,0,0,0.000944182,0.000397395,-0.000147634
58688742,0,0,0,0.001013035,0.000412289,-0.000231177
58723018,0,0,0,0.000982087,0.000400071,-0.00018994
58755268,0,0,0,0.001024298,0.0004449,-0.000142602
58791235,0,0,0,0.000994945,0.000426209,-0.000161751
58825700,0,0,0,0.001006401,0.000444385,-0.000236243
58859716,0,0,0,0.001002015,0.000445668,-0.000222081
58890776,0,0,0,0.001012957,0.000426627,-0.000321778
58922791,0,0,0,0.000998335,0.00042853,-0.000309995
58957696,0,0,0,0.000964612,0.000436306,-0.000154372
58996741,0,0,0,0.000981984,0.000452556,-0.000206027
59023269,0,0,0,0.000997658,0.000423179,-0.000197855
59058740,0,0,0,0.00102286,0.000430769,-0.000159147
59090774,0,0,0,0.000995833,0.000425738,-0.000323246
59123049,0,0,0,0.00099509,0.000438741,-0.000329822
59156073,0,0,0,0.000979213,0.000450921,-0.000298617
59189740,0,0,0,0.000980856,0.000436419,-0.000287529
59223205,0,0,0,0.001039131,0.000433303,-0.000277746
59257730,0,0,0,0.000920359,0.000449302,-0.00018139
59289740,0,0,0,0.000988231,0.000428612,-0.000300283
59323108,0,0,0,0.000992235,0.000420999,-0.000323689
59359074,0,0,0,0.000992176,0.000420698,-0.000230121
59389802,0,0,0,0.001009858,0.000442058,-0.000324435
59427106,0,0,0,0.001014212,0.000451812,-0.000191634
59457678,0,0,0,0.000933573,0.000443948,-0.000402608
59489801,0,0,0,0.000954124,0.000414133,-0.000399681
59523317,0,0,0,0.000915769,0.000407553,-0.000252624
59555153,0,0,0,0.000959631,0.000394766,-0.000387882
59589735,0,0,0,0.000956789,0.000361006,-0.000258619
59629678,0,0,0,0.000956555,0.000408612,-0.000278985
59656539,0,0,0,0.000918582,0.000484001,-0.000207854
59690687,0,0,0,0.000995994,0.000447651,-0.000282753
59728950,0,0,0,0.000966354,0.000403313,-0.000279897
59756678,0,0,0,0.000945731,0.000404682,-0.000273793
59792618,0,0,0,0.000941699,0.000498448,-0.000386877
59824113,0,0,0,0.000917411,0.000547729,-0.000239183
59856143,0,0,0,0.000978284,0.000422099,-0.000403537
59890712,0,0,0,0.000984128,0.000429209,-0.000414333
59922740,0,0,0,0.000974711,0.000440981,-0.000322443
59957794,0,0,0,0.000982751,0.000400828,-0.00043411
59992533,0,0,0,0.000990203,0.000384977,-0.000342975
60027990,0,0,0,0.001083379,0.000411299,-0.000124429
60056761,0,0,0,0.001031806,0.000445335,-0.000297656
60090686,0,0,0,0.001018854,0.000464413,-0.000289552
60124071,0,0,0,0.001028829,0.000484196,-0.000123792
60156013,0,0,0,0.000991404,0.000467042,-0.00028475
60190757,0,0,0,0.001042398,0.000454762,-0.000349251
60222777,0,0,0,0.001028832,0.000444936,-0.000265653
60256394,0,0,0,0.001016413,0.000415118,-0.000333037
60288268,0,0,0,0.001035941,0.000470262,-0.000318755
60323756,0,0,0,0.001060368,0.000484466,-0.000151004
60355942,0,0,0,0.00107407,0.000462976,-0.000252164
60392270,0,0,0,0.001032421,0.000455105,-0.000256091
60424029,0,0,0,0.001011612,0.000486903,-0.00024894
60456282,0,0,0,0.001043281,0.000471719,-0.000341809
60490707,0,0,0,0.001040088,0.000449087,-0.000363083
60522736,0,0,0,0.001056316,0.000436256,-0.000257332
60562799,0,0,0,0.001046231,0.000435321,-0.000231479
60592256,0,0,0,0.001022151,0.000466557,-0.000329485
60627937,0,0,0,0.00102272,0.000451095,-0.000205707
60656172,0,0,0,0.001005381,0.000455325,-0.000261589
60690715,0,0,0,0.0010206,0.000448072,-0.000222963
60724699,0,0,0,0.001057576,0.000469462,-0.000182345
60756652,0,0,0,0.001053297,0.000443724,-0.000334131
60789740,0,0,0,0.001041281,0.000415168,-0.000185378
60823234,0,0,0,0.00103932,0.000467507,-0.000310165
60857541,0,0,0,0.001043988,0.000477681,-0.000317644
60888887,0,0,0,0.00104589,0.000497199,-0.000193701
60922732,0,0,0,0.001043659,0.000473968,-0.000359354
60957536,0,0,0,0.001024388,0.00047825,-0.000255976
60993001,0,0,0,0.001094792,0.000476238,-0.00017807
61024903,0,0,0,0.001033502,0.000443692,-0.000355645
61056910,0,0,0,0.001051969,0.000438829,-0.000327708
61088788,0,0,0,0.001008941,0.000421737,-0.000125437
61121985,0,0,0,0.000996343,0.000484272,-0.000171809
61158730,0,0,0,0.00100876,0.00046858,-0.00026785
61192856,0,0,0,0.001049119,0.000473679,-0.000317385
61224998,0,0,0,0.001045307,0.000486751,-0.000171054
61256696,0,0,0,0.001037242,0.000453229,-0.000310161
61288880,0,0,0,0.00100032,0.000423894,-0.00015238
61322741,0,0,0,0.001012344,0.000401696,-0.000226668
61357074,0,0,0,0.001046622,0.000487776,-0.000371267
61390792,0,0,0,0.001049173,0.000499064,-0.000267957
61424948,0,0,0,0.001077447,0.000494607,-0.000230184
61456994,0,0,0,0.001048842,0.000484187,-0.000366701
61489173,0,0,0,0.001088597,0.000466925,-0.000293171
61524815,0,0,0,0.00104985,0.000541363,-0.000362109
61561317,0,0,0,0.001041819,0.000553882,-0.000247809
61591048,0,0,0,0.001038715,0.00043221,-0.000279416
61625167,0,0,0,0.001071879,0.000408171,-0.000251972
61657012,0,0,0,0.001076234,0.000526445,-0.000290421
61689348,0,0,0,0.001035251,0.000502924,-0.000289634
61724557,0,0,0,0.001037961,0.000503833,-0.000359959
61757967,0,0,0,0.001021125,0.000498031,-0.000277631
61793734,0,0,0,0.001037151,0.000495477,-0.000354742
61822733,0,0,0,0.001031966,0.000496796,-0.000240988
61858284,0,0,0,0.001149397,0.000456605,-0.000310379
61889734,0,0,0,0.001055235,0.000522541,-0.000368672
61923697,0,0,0,0.001059219,0.000512385,-0.000357407
61958455,0,0,0,0.001099251,0.000505965,-0.000229772
61991856,0,0,0,0.00104841,0.000506714,-0.000366053
62023743,0,0,0,0.001058029,0.000499482,-0.000334099
62056202,0,0,0,0.00106209,0.00049882,-0.000186874
62090273,0,0,0,0.001054564,0.000509952,-0.000278741
62121703,0,0,0,0.001104582,0.000404753,-0.000224776
62159853,0,0,0,0.001051282,0.000530053,-0.000349906
62189747,0,0,0,0.001059869,0.000502139,-0.000371244
62225815,0,0,0,0.001054884,0.000533513,-0.000338232
62257688,0,0,0,0.001078707,0.000556312,-0.000217848
62289829,0,0,0,0.001057546,0.000507289,-0.000348155
62323747,0,0,0,0.001059355,0.000495815,-0.000215257
62358142,0,0,0,0.000973576,0.000510404,-0.000312833
62389745,0,0,0,0.001121049,0.000434904,-0.000280129
62426534,0,0,0,0.001082245,0.00048342,-0.000368083
62455882,0,0,0,0.001090746,0.000482618,-0.000246976
62489740,0,0,0,0.00103244,0.000508305,-0.000322418
62523746,0,0,0,0.000941445,0.000511914,-0.000133437
62556216,0,0,0,0.001063684,0.000507565,-0.000195011
62589805,0,0,0,0.000992223,0.000507483,-0.000243016
62625607,0,0,0,0.001095307,0.00044474,-0.000296991
62655887,0,0,0,0.001071764,0.000437851,-0.000290342
62689571,0,0,0,0.001062825,0.000477533,-0.000408623
62722119,0,0,0,0.001056573,0.000509306,-0.000357945
62757415,0,0,0,0.001095081,0.000527142,-0.000248821
62793574,0,0,0,0.001091412,0.000463225,-0.000388134
62823829,0,0,0,0.001123085,0.000440303,-0.000300639
62855831,0,0,0,0.001051748,0.00050686,-0.000366956
62889762,0,0,0,0.001065596,0.000457385,-0.000379424
62923704,0,0,0,0.001055991,0.00043424,-0.000275706
62956136,0,0,0,0.001055986,0.000550188,-0.00035004
62989747,0,0,0,0.001034442,0.000594485,-0.000206385
63025652,0,0,0,0.001010789,0.00056282,-0.000204738
63055816,0,0,0,0.001166775,0.000447198,-0.000274427
63089813,0,0,0,0.001086918,0.000435928,-0.000417299
63122550,0,0,0,0.001046627,0.00054786,-0.000340985
63158740,0,0,0,0.001062451,0.000448345,-0.00033333
63192819,0,0,0,0.001020221,0.000419088,-0.000464167
63224799,0,0,0,0.001026542,0.000396142,-0.000442094
63255873,0,0,0,0.001065838,0.000539166,-0.000340836
63290350,0,0,0,0.001057652,0.000538975,-0.00035299
63322733,0,0,0,0.001061139,0.000556628,-0.000221042
63360722,0,0,0,0.001088109,0.000454881,-0.000380923
63390143,0,0,0,0.001094957,0.000425896,-0.000288377
63424688,0,0,0,0.001025011,0.000562064,-0.000248369
63455827,0,0,0,0.001128833,0.000452336,-0.000265743
63490326,0,0,0,0.001162565,0.000474812,-0.000260213
63522564,0,0,0,0.001201374,0.000468889,-0.000166821
63560825,0,0,0,0.001138267,0.000502276,-0.000184898
63590767,0,0,0,0.001124187,0.000491276,-0.000188965
63624827,0,0,0,0.001029558,0.000575344,-0.000163064
63656039,0,0,0,0.001081437,0.000450786,-0.00041829
63690710,0,0,0,0.001128267,0.000444244,-0.000275677
63722987,0,0,0,0.001129878,0.00046752,-0.000300827
63756748,0,0,0,0.001154434,0.000467751,-0.000209253
63794388,0,0,0,0.001109468,0.000566528,-0.000256627
63823957,0,0,0,0.001140701,0.000465789,-0.000303481
63855762,0,0,0,0.001122248,0.000467205,-0.000287418
63890552,0,0,0,0.001094622,0.00048579,-0.000288922
63924694,0,0,0,0.001092064,0.000490146,-0.000285193
63959858,0,0,0,0.001116466,0.00045866,-0.000294739
63990152,0,0,0,0.001155493,0.000433721,-0.000165214
64026543,0,0,0,0.001096323,0.000462989,-0.000194133
64055857,0,0,0,0.001103598,0.00052538,-0.000173372
64090412,0,0,0,0.001156361,0.000483722,-0.000162549
64123101,0,0,0,0.001080209,0.000587777,-0.00020602
64156804,0,0,0,0.001116367,0.000464827,-0.000266118
64192704,0,0,0,0.001104131,0.000444243,-0.000196308
64224819,0,0,0,0.001124981,0.00047189,-0.000309495
64255230,0,0,0,0.001124693,0.000474871,-0.000287865
64289800,0,0,0,0.001150038,0.000474834,-0.000135161
64323384,0,0,0,0.001128786,0.000487846,-0.00027818
64356801,0,0,0,0.001148393,0.000487658,-0.000184048
64391196,0,0,0,0.001093954,0.000492267,-0.000219809
64423941,0,0,0,0.001111542,0.000493208,-0.000287671
64455132,0,0,0,0.001118223,0.000472413,-0.00027685
64489742,0,0,0,0.001101542,0.00046272,-0.000153976
64523501,0,0,0,0.001113573,0.000433366,-0.000145774
64559224,0,0,0,0.001087424,0.000448673,-0.000154733
64591751,0,0,0,0.001119309,0.000491265,-0.000149305
64625772,0,0,0,0.001073138,0.000541517,-0.000176876
64655121,0,0,0,0.001123313,0.000501889,-0.00027661
64689782,0,0,0,0.001110188,0.000503541,-0.000163981
64723890,0,0,0,0.001120961,0.000527868,-0.000294523
64755846,0,0,0,0.001158145,0.000465407,-0.000310043
64790795,0,0,0,0.001268996,0.000449083,-0.000209789
64823084,0,0,0,0.001094055,0.000488426,-0.000366128
64857752,0,0,0,0.001136686,0.000495012,-0.000252407
64889743,0,0,0,0.001058737,0.000490679,-0.000235889
64923546,0,0,0,0.001061076,0.000467594,-0.000346969
64955316,0,0,0,0.001002021,0.00046006,-0.000248787
64991055,0,0,0,0.001063557,0.000480102,-0.000230999
65023843,0,0,0,0.001087273,0.000494222,-0.000283915
65057715,0,0,0,0.001080648,0.000447989,-0.000191951
65089766,0,0,0,0.001029843,0.000448425,-0.000228891
65123421,0,0,0,0.001096727,0.00048145,-0.000360672
65157689,0,0,0,0.001119984,0.000495714,-0.000286254
65190760,0,0,0,0.001087372,0.000477733,-0.000357488
65223948,0,0,0,0.001067253,0.000476639,-0.000258107
65256829,0,0,0,0.001122697,0.000493824,-0.000274047
65291742,0,0,0,0.001073144,0.000465996,-0.000356422
65323432,0,0,0,0.001088137,0.000464146,-0.000322933
65355322,0,0,0,0.001101335,0.000454096,-0.000144352
65390693,0,0,0,0.001055534,0.000489598,-0.000370424
65424032,0,0,0,0.001019288,0.000491468,-0.000264849
65456013,0,0,0,0.001062718,0.000446593,-0.00032776
65488002,0,0,0,0.001096811,0.000486414,-0.000280622
65522740,0,0,0,0.001080418,0.000485864,-0.000350833
65556112,0,0,0,0.001088884,0.000503191,-0.000196096
65591971,0,0,0,0.001041964,0.000479643,-0.000176973
65623962,0,0,0,0.001074047,0.000448955,-0.000250603
65657694,0,0,0,0.001057678,0.000442527,-0.000299629
65691899,0,0,0,0.001072472,0.00046653,-0.000370984
65722743,0,0,0,0.001089959,0.000461854,-0.000361254
65757003,0,0,0,0.001080945,0.000465168,-0.000260491
65794773,0,0,0,0.001092957,0.000464557,-0.000363518
65825734,0,0,0,0.001122735,0.00047703,-0.000251236
65857747,0,0,0,0.001127667,0.000456005,-0.000270942
65889733,0,0,0,0.001099993,0.000470466,-0.000339091
65922748,0,0,0,0.001122657,0.000490517,-0.000149286
65956114,0,0,0,0.001059336,0.000500705,-0.000246774
65990700,0,0,0,0.001103838,0.000466315,-0.000305732
66024778,0,0,0,0.001086335,0.000461493,-0.000309953
66057732,0,0,0,0.001076545,0.000467661,-0.000246878
66089780,0,0,0,0.001090987,0.000452077,-0.000374921
66122750,0,0,0,0.00107706,0.000442074,-0.000280445
66160736,0,0,0,0.001084419,0.000485929,-0.000395974
66191926,0,0,0,0.001111047,0.000489304,-0.000381616
66222764,0,0,0,0.001136457,0.000498958,-0.000277579
66255889,0,0,0,0.001085906,0.00046584,-0.000362132
66290733,0,0,0,0.001080014,0.000468392,-0.00036498
66322739,0,0,0,0.001044396,0.000474897,-0.000259807
66356244,0,0,0,0.001100448,0.000466128,-0.000392031
66389759,0,0,0,0.001107012,0.000460912,-0.000372564
66423901,0,0,0,0.001119276,0.000456065,-0.000232111
66456000,0,0,0,0.001123308,0.000514429,-0.00022167
66489746,0,0,0,0.001084142,0.000486883,-0.000392746
66522744,0,0,0,0.001053048,0.000497653,-0.000305196
66558767,0,0,0,0.001122134,0.000504039,-0.000288409
66592862,0,0,0,0.001166976,0.000503805,-0.000258452
66624810,0,0,0,0.001190682,0.000498845,-0.000291327
66656827,0,0,0,0.001106911,0.000466202,-0.000402559
66690681,0,0,0,0.001121275,0.000504216,-0.000373254
66724777,0,0,0,0.001197177,0.000537224,-0.000237794
66756909,0,0,0,0.001154765,0.000515736,-0.000287767
66790792,0,0,0,0.00112416,0.000495745,-0.000246296
66824562,0,0,0,0.001044839,0.00051279,-0.000297718
66857688,0,0,0,0.001083288,0.000491246,-0.000399522
66890691,0,0,0,0.001032625,0.000508667,-0.000332815
66922764,0,0,0,0.001078397,0.000454276,-0.000256594
66956904,0,0,0,0.001075929,0.000483173,-0.000177306
66996806,0,0,0,0.00109496,0.000540836,-0.000262019
67024556,0,0,0,0.001137438,0.000539598,-0.000352891
67056727,0,0,0,0.001080854,0.000487887,-0.000370243
67090745,0,0,0,0.001072958,0.000522288,-0.000367916
67122773,0,0,0,0.001074608,0.000535313,-0.000242626
67160777,0,0,0,0.001084704,0.000504164,-0.000254507
67192386,0,0,0,0.001121266,0.000458744,-0.000395468
67230683,0,0,0,0.001082528,0.000521741,-0.00037716
67256742,0,0,0,0.001097599,0.000522222,-0.000369371
67290736,0,0,0,0.001073294,0.000523781,-0.000391826
67325049,0,0,0,0.00107403,0.00052041,-0.000383673
67356709,0,0,0,0.001041543,0.000528997,-0.000312179
67392382,0,0,0,0.001117317,0.000520809,-0.000311583
67426778,0,0,0,0.001194745,0.000563035,-7.43E-05
67456928,0,0,0,0.001098892,0.000507994,-0.00039083
67489773,0,0,0,0.001106195,0.000518749,-0.000326422
67523852,0,0,0,0.001123366,0.000501144,-0.000268688
67557648,0,0,0,0.001083941,0.000512793,-0.000368238
67589902,0,0,0,0.001049497,0.000527222,-0.000278153
67623724,0,0,0,0.001104455,0.000514613,-0.000373475
67657172,0,0,0,0.001098535,0.000532225,-0.000359455
67689818,0,0,0,0.001100515,0.000548096,-0.000286485
67723753,0,0,0,0.001102875,0.000463461,-0.000395115
67754978,0,0,0,0.001107607,0.000456465,-0.000303188
67791713,0,0,0,0.00111591,0.000521378,-0.000332074
67831708,0,0,0,0.00110782,0.000485239,-0.000405736
67855924,0,0,0,0.001174623,0.000489702,-0.000355822
67889777,0,0,0,0.001152115,0.00048244,-0.000265291
67925760,0,0,0,0.001113839,0.000555513,-0.000240818
67956006,0,0,0,0.001094393,0.000472495,-0.0003983
67997995,0,0,0,0.001120192,0.000473906,-0.000375343
68025310,0,0,0,0.001099339,0.000522639,-0.000394276
68057189,0,0,0,0.001082389,0.000516714,-0.000375713
68089756,0,0,0,0.001051213,0.000533497,-0.000283874
68122748,0,0,0,0.00108582,0.000508632,-0.000391428
68157708,0,0,0,0.001110618,0.000486336,-0.000383694
68199835,0,0,0,0.00111569,0.000495005,-0.000399321
68223703,0,0,0,0.001107745,0.000481044,-0.000400391
68257345,0,0,0,0.001093606,0.000481994,-0.000399772
68291836,0,0,0,0.001082019,0.000522925,-0.000378439
68323697,0,0,0,0.001094298,0.000515971,-0.000403551
68361750,0,0,0,0.001086337,0.00052893,-0.000373252
68397689,0,0,0,0.001121606,0.000538193,-0.000360079
68423828,0,0,0,0.001102446,0.000520406,-0.000358501
68457348,0,0,0,0.001125536,0.000527059,-0.000250585
68489741,0,0,0,0.001111291,0.000468453,-0.000412141
68522750,0,0,0,0.001110314,0.000483488,-0.000375178
68555982,0,0,0,0.001113065,0.000488446,-0.000270777
68595711,0,0,0,0.001101118,0.000531456,-0.000383326
68621867,0,0,0,0.00108306,0.000522559,-0.000383476
68657499,0,0,0,0.001070407,0.000535186,-0.000350697
68690141,0,0,0,0.001111315,0.000496105,-0.000397979
68724693,0,0,0,0.001104608,0.000519827,-0.000382469
68756855,0,0,0,0.001117109,0.00052901,-0.000275731
68792821,0,0,0,0.001118956,0.000467488,-0.00040672
68824805,0,0,0,0.001124864,0.000459559,-0.000330578
68856897,0,0,0,0.001127657,0.000533001,-0.000322333
68890127,0,0,0,0.001151351,0.000535676,-0.000289622
68922776,0,0,0,0.001121125,0.000492574,-0.000368989
68958832,0,0,0,0.001145082,0.0004896,-0.000239294
68990614,0,0,0,0.001105099,0.000492377,-0.000372277
69024683,0,0,0,0.001106566,0.000483658,-0.00027824
69056757,0,0,0,0.001228409,0.000461092,-0.000287196
69090686,0,0,0,0.001103898,0.000504148,-0.000378965
69122497,0,0,0,0.00110632,0.000498484,-0.000385819
69158530,0,0,0,0.001100647,0.000506086,-0.00029428
69190605,0,0,0,0.001103747,0.000492189,-0.000400307
69224935,0,0,0,0.001110204,0.000502124,-0.000331953
69256752,0,0,0,0.001089205,0.000507936,-0.000287594
69291830,0,0,0,0.00110087,0.000517745,-0.000352823
69324812,0,0,0,0.001109699,0.000511605,-0.000230981
69356751,0,0,0,0.001054714,0.000509655,-0.000291987
69390529,0,0,0,0.001103333,0.00053088,-0.000276891
69424695,0,0,0,0.001157215,0.000488359,-0.00035442
69457956,0,0,0,0.001147101,0.000488863,-0.000274417
69490739,0,0,0,0.001150252,0.000497554,-0.000279643
69522298,0,0,0,0.001117367,0.000565175,-0.000293505
69558568,0,0,0,0.001109432,0.000488838,-0.000391141
69590412,0,0,0,0.001090395,0.000477684,-0.000384215
69626685,0,0,0,0.00112079,0.000467429,-0.000269046
69655114,0,0,0,0.001099314,0.000531955,-0.000380888
69690261,0,0,0,0.001116042,0.000532753,-0.000400999
69722741,0,0,0,0.00116735,0.000546837,-0.000339056
69759957,0,0,0,0.001103716,0.000522266,-0.000387006
69794130,0,0,0,0.001108832,0.000532294,-0.000292531
69824685,0,0,0,0.001135695,0.000509073,-0.000275373
69858712,0,0,0,0.001090615,0.000480821,-0.000331168
69890168,0,0,0,0.00109145,0.000518717,-0.0004115
69922128,0,0,0,0.001076103,0.000533715,-0.000338901
69956800,0,0,0,0.001094826,0.000522255,-0.000387343
69999175,0,0,0,0.001114276,0.000500303,-0.000380752
70023516,0,0,0,0.001170374,0.000482458,-0.000293983
70055364,0,0,0,0.001090969,0.000527293,-0.00036188
70091731,0,0,0,0.001092043,0.000484136,-0.000402774
70124806,0,0,0,0.00109932,0.000465699,-0.000337349
70156733,0,0,0,0.001094497,0.000502099,-0.000393152
70189751,0,0,0,0.001095169,0.000513029,-0.000333003
70223367,0,0,0,0.001122161,0.000548302,-0.000388111
70255537,0,0,0,0.001095014,0.00052567,-0.000386762
70291106,0,0,0,0.001080421,0.000526312,-0.000268057
70329766,0,0,0,0.00110088,0.000519939,-0.000318678
70355222,0,0,0,0.001114514,0.000456193,-0.000273346
70389734,0,0,0,0.001112043,0.000459217,-0.000423562
70424937,0,0,0,0.001091842,0.000491908,-0.000397935
70456765,0,0,0,0.001093483,0.000491291,-0.000374362
70491843,0,0,0,0.00112075,0.000494617,-0.000203752
70523869,0,0,0,0.001097912,0.000491612,-0.000394409
70555136,0,0,0,0.001119234,0.000498446,-0.000419546
70589740,0,0,0,0.001202032,0.000509564,-0.000400948
70623305,0,0,0,0.001080127,0.000501416,-0.000390538
70659741,0,0,0,0.001083434,0.000501398,-0.000386792
70691085,0,0,0,0.001109005,0.000506804,-0.000312293
70723166,0,0,0,0.001090967,0.00052822,-0.000403802
70755091,0,0,0,0.001126057,0.0005396,-0.000303193
70789792,0,0,0,0.001125763,0.000511337,-0.00033871
70823971,0,0,0,0.001122069,0.000508742,-0.000255475
70857708,0,0,0,0.001076718,0.000500915,-0.0003658
70890959,0,0,0,0.001050111,0.0004998,-0.000295281
70922978,0,0,0,0.001093537,0.000484275,-0.000418925
70957742,0,0,0,0.001096434,0.000516974,-0.000378166
70991736,0,0,0,0.001126775,0.000517724,-0.00023914
71025751,0,0,0,0.001146329,0.000428115,-0.00029593
71063198,0,0,0,0.001098124,0.00045963,-0.000279118
71089732,0,0,0,0.00107795,0.000488039,-0.000326567
71122774,0,0,0,0.001080814,0.000509308,-0.000391123
71155950,0,0,0,0.001071023,0.000483544,-0.000402278
71189741,0,0,0,0.001048312,0.000481973,-0.000363796
71224526,0,0,0,0.001073691,0.000520382,-0.000402968
71255976,0,0,0,0.001038036,0.000549335,-0.000316625
71289732,0,0,0,0.001089883,0.000486906,-0.000281568
71324792,0,0,0,0.001132222,0.000463846,-0.000311562
71356082,0,0,0,0.001101611,0.000482468,-0.000362328
71389735,0,0,0,0.001100885,0.000491527,-0.00024173
71424144,0,0,0,0.001115728,0.000506183,-0.000377085
71457797,0,0,0,0.001159308,0.000490532,-0.000297764
71489764,0,0,0,0.001116321,0.000485616,-0.000323587
71523534,0,0,0,0.001065796,0.000487027,-0.000379938
71555994,0,0,0,0.001077446,0.000500307,-0.000406673
71589762,0,0,0,0.00109342,0.000510556,-0.000328214
71629740,0,0,0,0.001098287,0.000482966,-0.000372579
71655963,0,0,0,0.001097351,0.000488727,-0.000292539
71689739,0,0,0,0.001075013,0.000456275,-0.000420132
71722742,0,0,0,0.001021873,0.000427429,-0.000392185
71756241,0,0,0,0.001109701,0.000435405,-0.000357416
71792135,0,0,0,0.001078469,0.000511605,-0.000327433
71832005,0,0,0,0.001099558,0.000454542,-0.000383304
71861824,0,0,0,0.001123843,0.000446635,-0.000293001
71889735,0,0,0,0.001072906,0.000496015,-0.000380533
71923904,0,0,0,0.001076018,0.000484486,-0.000364616
71955863,0,0,0,0.001126961,0.000485735,-0.000268665
71991877,0,0,0,0.001104173,0.000437454,-0.000345837
72024904,0,0,0,0.0010366,0.000435573,-0.000268375
72056045,0,0,0,0.001059547,0.000476934,-0.000346456
72091845,0,0,0,0.00105382,0.00050592,-0.000299248
72122740,0,0,0,0.001068401,0.000487052,-0.000400561
72156806,0,0,0,0.001065517,0.000495524,-0.000330059
72189815,0,0,0,0.001104284,0.000423571,-0.000280141
72231987,0,0,0,0.001149006,0.000416395,-0.000306653
72258716,0,0,0,0.001045094,0.000453448,-0.000351716
72290761,0,0,0,0.00110803,0.000441647,-0.000321296
72322732,0,0,0,0.001058026,0.000469228,-0.000364886
72356663,0,0,0,0.001038869,0.000473676,-0.000259743
72390731,0,0,0,0.001045779,0.000428737,-0.000383237
72425052,0,0,0,0.001049951,0.000418688,-0.000306094
72458691,0,0,0,0.001022687,0.000459687,-0.000374652
72490689,0,0,0,0.001055921,0.000441248,-0.000386459
72522740,0,0,0,0.001063348,0.000437432,-0.000377335
72556886,0,0,0,0.001066417,0.00043251,-0.000303052
72590805,0,0,0,0.00102525,0.000465406,-0.000153727
72626748,0,0,0,0.001136768,0.000465079,-0.0002475
72662732,0,0,0,0.001100454,0.000509776,-0.000222973
72692540,0,0,0,0.001101751,0.000445112,-0.000195455
72722950,0,0,0,0.001093917,0.000427685,-0.000178617
72756763,0,0,0,0.001035815,0.000456962,-0.000149818
72790693,0,0,0,0.000978919,0.000473641,-0.000266611
72824996,0,0,0,0.001057924,0.00044221,-0.000293575
72858694,0,0,0,0.001084245,0.000468703,-0.000318147
72889023,0,0,0,0.001098581,0.000456909,-0.000288265
72922743,0,0,0,0.001091775,0.000458778,-0.000201612
72956847,0,0,0,0.001105312,0.000462618,-0.000303539
72992738,0,0,0,0.001150611,0.000470963,-0.000196375
73033734,0,0,0,0.001111907,0.000448521,-0.000197813
73056927,0,0,0,0.001120914,0.000445476,-0.00030554
73088888,0,0,0,0.001096863,0.000468605,-0.00032203
73124687,0,0,0,0.001121991,0.00048504,-0.000319673
73157690,0,0,0,0.00111187,0.000452093,-0.000210956
73190723,0,0,0,0.001091511,0.000414559,-0.000214476
73227738,0,0,0,0.001107344,0.000453537,-0.000200846
73257565,0,0,0,0.001145323,0.000463199,-0.000239178
73289800,0,0,0,0.001076073,0.000460651,-0.000303034
73321577,0,0,0,0.001057531,0.00047162,-0.000243603
73355859,0,0,0,0.001097678,0.000474056,-0.000312328
73389759,0,0,0,0.00105708,0.00044468,-0.000296761
73427701,0,0,0,0.000980869,0.00043187,-0.000208285
73459706,0,0,0,0.001098451,0.000464581,-0.000308668
73489740,0,0,0,0.001092694,0.000451566,-0.00028459
73525328,0,0,0,0.001113773,0.000449265,-0.000163256
73555802,0,0,0,0.001102473,0.000445097,-0.000298223
73595961,0,0,0,0.001088668,0.000439139,-0.000316707
73622751,0,0,0,0.001092078,0.000435046,-0.000241663
73657820,0,0,0,0.001023787,0.000475117,-0.00021611
73689741,0,0,0,0.001083723,0.000453739,-0.000267355
73723720,0,0,0,0.001098467,0.000462274,-0.000176096
73755897,0,0,0,0.001080395,0.000436702,-0.000307493
73789744,0,0,0,0.001085904,0.000456342,-0.000308311
73825592,0,0,0,0.001089015,0.000423441,-0.000327735
73859700,0,0,0,0.001109462,0.000413674,-0.000298848
73891719,0,0,0,0.001059696,0.000415547,-0.000239426
73922219,0,0,0,0.001085072,0.000450612,-0.000291272
73957687,0,0,0,0.001080541,0.000446875,-0.000316534
73989839,0,0,0,0.001119808,0.000458054,-0.000272097
74025707,0,0,0,0.001075731,0.000431349,-0.000302911
74057626,0,0,0,0.001067313,0.000428719,-0.000312516
74089789,0,0,0,0.001101975,0.000441668,-0.000282783
74123700,0,0,0,0.001039538,0.000419292,-0.00020556
74157441,0,0,0,0.001023362,0.000426955,-0.000218124
74190733,0,0,0,0.000989721,0.000484155,-0.000220048
74225507,0,0,0,0.001057247,0.000401703,-0.000199823
74262689,0,0,0,0.001017243,0.000412852,-0.000211209
74289918,0,0,0,0.001033217,0.000452352,-0.000287819
74322950,0,0,0,0.001002973,0.000419917,-0.000296183
74355818,0,0,0,0.00102053,0.000420149,-0.000285599
74393626,0,0,0,0.001035541,0.000424932,-0.000221719
74423850,0,0,0,0.000942327,0.000380194,-0.000355672
74457746,0,0,0,0.000909684,0.000367349,-0.000245555
74489822,0,0,0,0.001013873,0.000419008,-0.000300423
74525318,0,0,0,0.000999963,0.000394336,-0.000371238
74555801,0,0,0,0.000992311,0.000379491,-0.000353258
74592733,0,0,0,0.000996932,0.000374927,-0.000263277
74630140,0,0,0,0.000944684,0.000415122,-0.000301825
74659715,0,0,0,0.00098796,0.00041027,-0.000367827
74690263,0,0,0,0.001013674,0.000425771,-0.0002699
74722639,0,0,0,0.000984644,0.000408733,-0.000331129
74758439,0,0,0,0.00098294,0.000410769,-0.000365253
74790277,0,0,0,0.001002449,0.00042248,-0.000307296
74826334,0,0,0,0.000984777,0.000396655,-0.000359671
74856753,0,0,0,0.001004728,0.000411336,-0.00028914
74890440,0,0,0,0.000965206,0.000436878,-0.000333598
74922929,0,0,0,0.000985018,0.000381902,-0.00038344
74955081,0,0,0,0.000975156,0.000381877,-0.000322684
74990107,0,0,0,0.000970863,0.000391595,-0.000354443
75023954,0,0,0,0.000984751,0.000401641,-0.000376
75056750,0,0,0,0.001000548,0.000419254,-0.00033554
75090538,0,0,0,0.000953471,0.000437526,-0.000285791
75124685,0,0,0,0.000931514,0.000415232,-0.000199898
75155967,0,0,0,0.000986307,0.000396451,-0.000252583
75192764,0,0,0,0.000920833,0.000388882,-0.000249053
75223944,0,0,0,0.000973428,0.000394998,-0.000339509
75260759,0,0,0,0.000973386,0.000414079,-0.000260586
75290611,0,0,0,0.000965901,0.000404154,-0.000356918
75322770,0,0,0,0.000970273,0.000398424,-0.000361963
75356701,0,0,0,0.000963959,0.000402029,-0.000306096
75390799,0,0,0,0.000965371,0.000392858,-0.000359835
75426724,0,0,0,0.000954636,0.000389097,-0.000358458
75458465,0,0,0,0.00093685,0.000388708,-0.000288687
75490627,0,0,0,0.000962803,0.000402457,-0.000357174
75522807,0,0,0,0.000951864,0.00039592,-0.000346704
75555109,0,0,0,0.000907902,0.000409448,-0.000274628
75590230,0,0,0,0.001019772,0.00041128,-0.000302445
75630299,0,0,0,0.000960804,0.000390918,-0.000337572
75656766,0,0,0,0.000939909,0.00039527,-0.000275707
75690465,0,0,0,0.000953526,0.000393931,-0.000326061
75723265,0,0,0,0.000951046,0.000394815,-0.000336924
75755928,0,0,0,0.000908356,0.000395847,-0.000205105
75791866,0,0,0,0.000964406,0.000371608,-0.000361879
75824834,0,0,0,0.00097262,0.000373037,-0.000309073
75855304,0,0,0,0.000906107,0.000395675,-0.000259206
75889748,0,0,0,0.000968631,0.000382943,-0.000350605
75923516,0,0,0,0.000953576,0.000377498,-0.000336233
75955918,0,0,0,0.000952152,0.000391954,-0.000356954
75989741,0,0,0,0.000929281,0.000407318,-0.000292204
76023722,0,0,0,0.000874045,0.000407375,-0.000174985
76059088,0,0,0,0.000930397,0.000413034,-0.000264842
76092796,0,0,0,0.00101131,0.000408091,-0.000275851
76123843,0,0,0,0.000917369,0.000399603,-0.000304723
76156865,0,0,0,0.000929314,0.000416333,-0.000319023
76191851,0,0,0,0.000956738,0.000388631,-0.000350649
76227287,0,0,0,0.000953748,0.000385119,-0.00024925
76256742,0,0,0,0.00095177,0.000345436,-0.000290841
76291848,0,0,0,0.000965433,0.000403397,-0.00036781
76323355,0,0,0,0.00096183,0.000432404,-0.000284454
76355721,0,0,0,0.000989875,0.000396369,-0.000342611
76389743,0,0,0,0.000957839,0.00038975,-0.000361009
76424835,0,0,0,0.000953603,0.000399932,-0.000311643
76455198,0,0,0,0.00095213,0.000401058,-0.000362138
76489799,0,0,0,0.000963728,0.000381048,-0.000383308
76523367,0,0,0,0.000982252,0.000381347,-0.000322055
76556125,0,0,0,0.00095632,0.000379268,-0.000316179
76589732,0,0,0,0.00097735,0.000394543,-0.000358729
76622838,0,0,0,0.001031447,0.000379065,-0.00028399
76656760,0,0,0,0.000941535,0.000375784,-0.000330755
76689732,0,0,0,0.000977867,0.000399659,-0.000348534
76722749,0,0,0,0.001006579,0.000417068,-0.000256486
76756206,0,0,0,0.000959597,0.000396284,-0.000333297
76790679,0,0,0,0.000953782,0.000378027,-0.000375107
76826692,0,0,0,0.000937372,0.000371444,-0.00034708
76858713,0,0,0,0.000938521,0.000436003,-0.000303367
76889804,0,0,0,0.000978435,0.000404129,-0.000353142
76922748,0,0,0,0.000987908,0.000410756,-0.000267783
76956068,0,0,0,0.000955979,0.000397672,-0.000366444
76990716,0,0,0,0.000954103,0.000392371,-0.000350608
77026808,0,0,0,0.000914222,0.000387238,-0.000283227
77057730,0,0,0,0.0009596,0.000412669,-0.000268978
77090792,0,0,0,0.000960935,0.000388744,-0.000331543
77122764,0,0,0,0.000982931,0.000428417,-0.000272891
77156187,0,0,0,0.000939478,0.000402898,-0.000356164
77190689,0,0,0,0.000905973,0.000389884,-0.000269875
77228687,0,0,0,0.000954562,0.000379646,-0.000326295
77257720,0,0,0,0.000954958,0.000406471,-0.000369575
77292071,0,0,0,0.000934586,0.000410278,-0.000317282
77322794,0,0,0,0.000946211,0.000408809,-0.000356762
77356168,0,0,0,0.000963597,0.00040252,-0.000349414
77389875,0,0,0,0.00097229,0.000401738,-0.000274423
77424683,0,0,0,0.000973929,0.000404034,-0.000364406
77460210,0,0,0,0.000998211,0.000404412,-0.000345559
77493741,0,0,0,0.001076339,0.000420116,-0.000226652
77522739,0,0,0,0.000963527,0.000437461,-0.000316118
77556080,0,0,0,0.000951437,0.000380523,-0.00037764
77589715,0,0,0,0.000954621,0.000386472,-0.000352378
77625742,0,0,0,0.000951666,0.000402463,-0.000374964
77657768,0,0,0,0.00096402,0.000399878,-0.000352156
77691975,0,0,0,0.000971775,0.000414721,-0.000250529
77722755,0,0,0,0.000959847,0.000395817,-0.000356149
77756074,0,0,0,0.000938133,0.000455003,-0.000336586
77790689,0,0,0,0.000961636,0.000484959,-0.000218635
77828062,0,0,0,0.000967528,0.000379039,-0.000375412
77855922,0,0,0,0.001018637,0.000356265,-0.000259249
77894696,0,0,0,0.000975686,0.000366649,-0.000346879
77922933,0,0,0,0.0009713,0.000408694,-0.000378004
77956715,0,0,0,0.000957354,0.000392911,-0.00037441
77989064,0,0,0,0.000976909,0.000398215,-0.000338805
78024389,0,0,0,0.001068412,0.000416732,-0.000274302
78060829,0,0,0,0.000908293,0.000407341,-0.000268099
78092725,0,0,0,0.000932718,0.000384523,-0.000286125
78124933,0,0,0,0.000933862,0.000397789,-0.000372945
78158155,0,0,0,0.0009619,0.000393429,-0.000371981
78189355,0,0,0,0.000952097,0.000401082,-0.000317699
78224825,0,0,0,0.000960032,0.000392081,-0.000348162
78256777,0,0,0,0.000947552,0.000390562,-0.000354076
78292735,0,0,0,0.000945703,0.000395615,-0.00037154
78322782,0,0,0,0.000953378,0.000393097,-0.000386709
78357333,0,0,0,0.000935668,0.000386118,-0.00037888
78388822,0,0,0,0.000943938,0.000390823,-0.000362251
78433688,0,0,0,0.000953742,0.000388584,-0.000356075
78456743,0,0,0,0.000950054,0.000398589,-0.000302416
78492903,0,0,0,0.000902591,0.000386776,-0.000240212
78522907,0,0,0,0.001050896,0.000420559,-0.000268494
78556761,0,0,0,0.001149635,0.000436527,-0.000136968
78589367,0,0,0,0.001081585,0.000415155,-0.000188817
78625761,0,0,0,0.001011486,0.00039841,-0.00030746
78656969,0,0,0,0.001070022,0.000406655,-0.00020521
78690732,0,0,0,0.001003227,0.000429805,-0.000289166
78722772,0,0,0,0.001007556,0.000400778,-0.000254431
78758687,0,0,0,0.001068536,0.000401252,-0.000123245
78788905,0,0,0,0.000982889,0.000387925,-0.000267193
78828933,0,0,0,0.00099344,0.000381826,-0.000181145
78858738,0,0,0,0.000963621,0.000397637,-0.000143532
78890707,0,0,0,0.000985978,0.000396377,-0.000314416
78922748,0,0,0,0.001008375,0.000411037,-0.000276121
78957606,0,0,0,0.000991251,0.000423718,-0.000193602
78989766,0,0,0,0.00100467,0.000419723,-0.000200477
79023820,0,0,0,0.000974187,0.000418816,-0.000181669
79057771,0,0,0,0.001032767,0.000403952,-0.000281476
79089746,0,0,0,0.000953903,0.000384871,-0.000268691
79122747,0,0,0,0.00099771,0.000412569,-0.000281579
79158828,0,0,0,0.001007464,0.000429822,-0.000250848
79190120,0,0,0,0.001011315,0.000395781,-0.000282732
79225411,0,0,0,0.001047842,0.000400947,-0.000208051
79257171,0,0,0,0.000977595,0.000440367,-0.000241554
79289764,0,0,0,0.001008595,0.000406594,-0.000261241
79322739,0,0,0,0.000940282,0.000396903,-0.000375788
79357970,0,0,0,0.000952134,0.000394286,-0.000361806
79389866,0,0,0,0.000923669,0.000376847,-0.00033611
79423867,0,0,0,0.00085457,0.000373884,-0.000312684
79455179,0,0,0,0.000950117,0.000395647,-0.00040637
79489351,0,0,0,0.000971798,0.000408149,-0.000316029
79522698,0,0,0,0.00091894,0.000414149,-0.000327278
79555763,0,0,0,0.000908877,0.000440645,-0.000274445
79589741,0,0,0,0.000946149,0.000388288,-0.000318466
79625361,0,0,0,0.000992128,0.00043655,-0.00040593
79657928,0,0,0,0.00096106,0.000397452,-0.000358251
79690734,0,0,0,0.000940579,0.000398818,-0.000348156
79722751,0,0,0,0.000947138,0.000406746,-0.000268849
79757614,0,0,0,0.000928247,0.000384893,-0.000349486
79789736,0,0,0,0.000925503,0.000378581,-0.00033085
79823755,0,0,0,0.000966475,0.000411505,-0.000329309
79857172,0,0,0,0.000942615,0.000395096,-0.000364305
79889469,0,0,0,0.000894261,0.000381971,-0.000337443
79925754,0,0,0,0.000830262,0.000374365,-0.000260803
79955884,0,0,0,0.000917462,0.000372862,-0.00034172
79989745,0,0,0,0.000902266,0.000401658,-0.000329243
80023701,0,0,0,0.000977349,0.000395386,-0.000252009
80057751,0,0,0,0.000936708,0.000399521,-0.000368825
80091750,0,0,0,0.000960903,0.000374338,-0.000395086
80122751,0,0,0,0.000968651,0.000373038,-0.000338879
80158792,0,0,0,0.000964148,0.000415844,-0.000367663
80190130,0,0,0,0.000951915,0.000438872,-0.000320202
80225781,0,0,0,0.000954795,0.000386397,-0.000261492
80256733,0,0,0,0.00096792,0.000410794,-0.000381571
80289982,0,0,0,0.000948485,0.000405253,-0.000351643
80324689,0,0,0,0.000962608,0.000412518,-0.000250708
80358432,0,0,0,0.000944777,0.000436623,-0.000388783
80390742,0,0,0,0.000895503,0.0004607,-0.000351987
80424808,0,0,0,0.000946894,0.000382285,-0.000267361
80456751,0,0,0,0.000955635,0.000446761,-0.000321746
80490128,0,0,0,0.000968765,0.000371124,-0.000387158
80522121,0,0,0,0.000983102,0.000360059,-0.000312995
80556735,0,0,0,0.000963079,0.000406121,-0.000354954
80590436,0,0,0,0.00096613,0.000421185,-0.000235238
80624701,0,0,0,0.000909313,0.000430502,-0.00022675
80658136,0,0,0,0.000991192,0.00039405,-0.000379289
80690126,0,0,0,0.001057809,0.000383201,-0.000309761
80722953,0,0,0,0.000987251,0.000385941,-0.000361753
80758466,0,0,0,0.001008253,0.00039032,-0.000262809
80794375,0,0,0,0.000960121,0.000415078,-0.000372759
80824697,0,0,0,0.00095413,0.000417005,-0.000370344
80855835,0,0,0,0.000955153,0.000404153,-0.000363454
80891721,0,0,0,0.000943221,0.000405335,-0.000294101
80922322,0,0,0,0.000965425,0.000361939,-0.000289654
80956865,0,0,0,0.000967586,0.000411153,-0.00035782
80990443,0,0,0,0.000940026,0.000429805,-0.000327671
81023072,0,0,0,0.000951882,0.000416161,-0.000359012
81056749,0,0,0,0.000974008,0.00041991,-0.000367233
81090257,0,0,0,0.000973455,0.000435314,-0.000316397
81124894,0,0,0,0.000972852,0.000410224,-0.00039153
81159550,0,0,0,0.000978037,0.000418791,-0.000382153
81190710,0,0,0,0.000979473,0.000434789,-0.000356024
81223137,0,0,0,0.000959641,0.00042284,-0.000346505
81256750,0,0,0,0.00096077,0.000429202,-0.000340456
81289983,0,0,0,0.000962824,0.000442554,-0.000311782
81322402,0,0,0,0.000937703,0.000384902,-0.000338693
81362234,0,0,0,0.00097914,0.000433443,-0.000296234
81390733,0,0,0,0.000983853,0.000452376,-0.000272924
81424774,0,0,0,0.000989542,0.000440807,-0.00029584
81457718,0,0,0,0.000944899,0.000439499,-0.000368471
81489779,0,0,0,0.000990403,0.00038557,-0.00038416
81525775,0,0,0,0.000971226,0.000433166,-0.000349745
81556796,0,0,0,0.001020946,0.000442343,-0.000286029
81595048,0,0,0,0.001011673,0.000370882,-0.000273246
81623812,0,0,0,0.000990011,0.000396291,-0.00037196
81655194,0,0,0,0.000988089,0.000449189,-0.000375648
81691718,0,0,0,0.000956647,0.000410459,-0.000357248
81725724,0,0,0,0.000947167,0.000412727,-0.000307444
81756797,0,0,0,0.000984178,0.00039318,-0.000320963
81791120,0,0,0,0.000967878,0.000409064,-0.000363227
81823869,0,0,0,0.000970198,0.000424,-0.000371657
81857688,0,0,0,0.000972209,0.000427656,-0.00034028
81889791,0,0,0,0.000957176,0.000397153,-0.000242794
81923172,0,0,0,0.001006425,0.000398333,-0.000275218
81960741,0,0,0,0.000969003,0.000409187,-0.000323243
81991341,0,0,0,0.000952132,0.000414369,-0.00035676
82023273,0,0,0,0.000970375,0.000430449,-0.000363372
82055966,0,0,0,0.000917164,0.000445764,-0.000302395
82089800,0,0,0,0.001022774,0.000428569,-0.000226613
82122962,0,0,0,0.000940216,0.000424727,-0.000329712
82156748,0,0,0,0.000854691,0.000440811,-0.000235383
82189796,0,0,0,0.000961588,0.000436589,-0.000349351
82223168,0,0,0,0.000980607,0.000407426,-0.00036069
82255861,0,0,0,0.000976102,0.000408032,-0.000277719
82291712,0,0,0,0.000965927,0.000407435,-0.000331392
82323803,0,0,0,0.000913199,0.000419602,-0.00036426
82359727,0,0,0,0.001014925,0.000390187,-0.000356792
82389731,0,0,0,0.001048072,0.00040824,-0.000232556
82423304,0,0,0,0.000977702,0.00040874,-0.000336299
82457731,0,0,0,0.000987466,0.000417002,-0.000246247
82489763,0,0,0,0.000981838,0.00044191,-0.000360094
82523088,0,0,0,0.000986179,0.000397508,-0.000377489
82557681,0,0,0,0.000972491,0.000400933,-0.000304687
82592141,0,0,0,0.001004873,0.000409487,-0.000260774
82622742,0,0,0,0.000948899,0.000391197,-0.00034169
82655918,0,0,0,0.000939786,0.000383538,-0.000284135
82690682,0,0,0,0.0009692,0.000398597,-0.000367547
82723923,0,0,0,0.000964942,0.000395165,-0.00037218
82760136,0,0,0,0.000899777,0.000402064,-0.000299084
82793760,0,0,0,0.00099575,0.000433962,-0.000315147
82822743,0,0,0,0.000962116,0.00040727,-0.000375044
82856896,0,0,0,0.000955548,0.000412079,-0.000340117
82890686,0,0,0,0.000991483,0.000418235,-0.000395546
82931841,0,0,0,0.000974807,0.000404652,-0.000366738
82957792,0,0,0,0.000960585,0.000393705,-0.000342985
82990789,0,0,0,0.000958215,0.000401953,-0.000338674
83025001,0,0,0,0.000944986,0.000401217,-0.000286755
83056060,0,0,0,0.000971233,0.00042215,-0.000347535
83088845,0,0,0,0.000965916,0.000403358,-0.000337319
83124025,0,0,0,0.000975598,0.000401666,-0.000354124
83157891,0,0,0,0.001007675,0.000399537,-0.000318479
83189764,0,0,0,0.000963046,0.000419201,-0.000358211
83222775,0,0,0,0.00095502,0.000431537,-0.000238156
83256142,0,0,0,0.000991331,0.000411319,-0.000348451
83290686,0,0,0,0.000998754,0.000417147,-0.000284126
83328054,0,0,0,0.000933287,0.000368941,-0.000382816
83357698,0,0,0,0.001027587,0.000362103,-0.000380884
83389752,0,0,0,0.001001277,0.000431035,-0.000346514
83424801,0,0,0,0.001062588,0.000442668,-0.000271906
83456055,0,0,0,0.000979725,0.000430687,-0.000351028
83490688,0,0,0,0.000971154,0.000413461,-0.000367316
83523970,0,0,0,0.000983141,0.000418019,-0.000354028
83555888,0,0,0,0.0009947,0.000431774,-0.000315801
83589733,0,0,0,0.000985703,0.00041342,-0.000331477
83622746,0,0,0,0.000977946,0.000405544,-0.000236218
83656132,0,0,0,0.000998317,0.000408564,-0.000374697
83688943,0,0,0,0.001054699,0.000399349,-0.000354591
83728944,0,0,0,0.00097163,0.000408686,-0.000332833
83756915,0,0,0,0.000932416,0.000417633,-0.000270958
83788853,0,0,0,0.000964402,0.000430906,-0.000335089
83823027,0,0,0,0.000920167,0.000452117,-0.000261824
83856752,0,0,0,0.001013292,0.00041872,-0.000341008
83892515,0,0,0,0.001005953,0.000420786,-0.000278402
83924869,0,0,0,0.000974938,0.000434638,-0.000350944
83956713,0,0,0,0.000960046,0.000424303,-0.000346661
83988628,0,0,0,0.000963004,0.000437865,-0.000281256
84024955,0,0,0,0.000974617,0.000436445,-0.000363153
84061734,0,0,0,0.000984114,0.000428962,-0.000362821
84092718,0,0,0,0.001030398,0.000438112,-0.00027548
84122739,0,0,0,0.001000839,0.000374858,-0.000381309
84156374,0,0,0,0.000988862,0.000438194,-0.000357475
84190792,0,0,0,0.000998355,0.000477123,-0.000297792
84226686,0,0,0,0.000975324,0.000431403,-0.000337605
84257143,0,0,0,0.000958055,0.000437463,-0.000267849
84290742,0,0,0,0.000970827,0.000434244,-0.000370616
84322740,0,0,0,0.000994502,0.000376531,-0.000390797
84356813,0,0,0,0.000998219,0.000446051,-0.000363696
84392961,0,0,0,0.000996916,0.000468167,-0.000304437
84426687,0,0,0,0.001017435,0.000438112,-0.000382538
84457052,0,0,0,0.000987359,0.000425606,-0.000404619
84488862,0,0,0,0.001003662,0.000424014,-0.000378627
84526734,0,0,0,0.000971032,0.000414739,-0.000360493
84556793,0,0,0,0.000937698,0.000418562,-0.000269958
84590827,0,0,0,0.000928795,0.000457782,-0.000323784
84622738,0,0,0,0.000985681,0.000429104,-0.000357882
84655971,0,0,0,0.001013128,0.000415555,-0.000343062
84689790,0,0,0,0.00098918,0.000402142,-0.000350216
84725692,0,0,0,0.001041816,0.000388732,-0.00025697
84757765,0,0,0,0.001001617,0.000388449,-0.000397538
84789755,0,0,0,0.000933457,0.000497623,-0.000334094
84825526,0,0,0,0.000974227,0.000420644,-0.000351828
84855876,0,0,0,0.001002914,0.000415638,-0.000349063
84889782,0,0,0,0.001017901,0.000425312,-0.000296043
84923835,0,0,0,0.000959761,0.000422575,-0.000375972
84961825,0,0,0,0.000987919,0.000425646,-0.000395438
84989833,0,0,0,0.000979575,0.000460954,-0.000369006
85025586,0,0,0,0.000978414,0.000427469,-0.000344313
85057516,0,0,0,0.000972143,0.000429389,-0.000221863
85089733,0,0,0,0.00095126,0.000433112,-0.000312228
85123764,0,0,0,0.000995237,0.000416675,-0.000350683
85157751,0,0,0,0.001069398,0.000427882,-0.000315399
85189760,0,0,0,0.000969709,0.000450302,-0.000362772
85223072,0,0,0,0.00087186,0.000471139,-0.000343746
85255892,0,0,0,0.000997039,0.000473488,-0.000353797
85289827,0,0,0,0.001011521,0.000429818,-0.000385975
85325731,0,0,0,0.000962598,0.000430008,-0.000320327
85357356,0,0,0,0.00096874,0.000397965,-0.000324706
85389752,0,0,0,0.000984582,0.000427686,-0.000340387
85422818,0,0,0,0.001001462,0.000409024,-0.000359317
85459750,0,0,0,0.001020586,0.000411514,-0.000355211
85491730,0,0,0,0.000992819,0.000400327,-0.000359827
85523699,0,0,0,0.000978463,0.00040156,-0.000341361
85557333,0,0,0,0.001001167,0.000391936,-0.00028009
85589741,0,0,0,0.000992105,0.000419388,-0.000340048
85622743,0,0,0,0.001021911,0.000413559,-0.000343438
85657826,0,0,0,0.001087648,0.00041217,-0.000264222
85689763,0,0,0,0.000917595,0.000403652,-0.00026948
85723719,0,0,0,0.000986241,0.000388191,-0.00037898
85759941,0,0,0,0.000973782,0.000415054,-0.000366216
85791754,0,0,0,0.001001723,0.000405481,-0.000372826
85825895,0,0,0,0.000991167,0.000415725,-0.000347259
85857655,0,0,0,0.000972533,0.000418495,-0.000340712
85889741,0,0,0,0.000969448,0.000396608,-0.00036659
85925299,0,0,0,0.000944724,0.000400545,-0.000354112
85957342,0,0,0,0.000976876,0.000394934,-0.000356594
85991747,0,0,0,0.000968039,0.000416222,-0.000316639
86022752,0,0,0,0.000969511,0.000406903,-0.000338471
86056742,0,0,0,0.000961571,0.000398779,-0.000336207
86094107,0,0,0,0.00099686,0.000384202,-0.000401187
86126313,0,0,0,0.00103125,0.000386403,-0.000392117
86158556,0,0,0,0.000985909,0.000431445,-0.000333815
86190130,0,0,0,0.001027317,0.000457078,-0.000233941
86227726,0,0,0,0.001033608,0.000413335,-0.000287275
86258318,0,0,0,0.000903152,0.000527411,-0.000314174
86290579,0,0,0,0.001000785,0.000366654,-0.000366674
86322745,0,0,0,0.001029416,0.000323997,-0.000305104
86358694,0,0,0,0.000974378,0.000397345,-0.000359819
86390793,0,0,0,0.000954739,0.000403182,-0.000329182
86423832,0,0,0,0.00096244,0.000412338,-0.000344362
86455936,0,0,0,0.000958241,0.000408274,-0.000350593
86490972,0,0,0,0.000989857,0.000405632,-0.000345171
86528753,0,0,0,0.000976732,0.000411386,-0.000299768
86558688,0,0,0,0.000987715,0.000408074,-0.000361125
86590021,0,0,0,0.000996705,0.000418586,-0.000371818
86623830,0,0,0,0.001020682,0.00043187,-0.000358964
86656740,0,0,0,0.000922086,0.000406961,-0.00020669
86690952,0,0,0,0.000954981,0.000412816,-0.0002853
86722929,0,0,0,0.000997263,0.000361092,-0.000415494
86757975,0,0,0,0.000977245,0.000416385,-0.000334735
86790746,0,0,0,0.000964632,0.000432903,-0.000238517
86824773,0,0,0,0.000893157,0.000406919,-0.000241573
86855904,0,0,0,0.000961981,0.00041171,-0.000363331
86890469,0,0,0,0.000954042,0.000424812,-0.000310412
86928736,0,0,0,0.000968121,0.000382751,-0.000403868
86956740,0,0,0,0.000966786,0.0004,-0.000343551
86989990,0,0,0,0.000962554,0.000407159,-0.000326061
87024693,0,0,0,0.000980757,0.00041439,-0.000363855
87057693,0,0,0,0.000997901,0.000410573,-0.000356604
87089740,0,0,0,0.000958255,0.000394981,-0.000323888
87123185,0,0,0,0.000997964,0.000394154,-0.000361395
87159840,0,0,0,0.001021386,0.000400687,-0.000334062
87191842,0,0,0,0.001034152,0.000434663,-0.000317302
87223825,0,0,0,0.001021804,0.000448227,-0.000341926
87255161,0,0,0,0.001011983,0.000421752,-0.000352715
87289792,0,0,0,0.001023631,0.000390266,-0.000378554
87323818,0,0,0,0.000973125,0.000464848,-0.000356154
87361687,0,0,0,0.000941647,0.000504539,-0.000293244
87391715,0,0,0,0.000903043,0.000500113,-0.000331661
87422991,0,0,0,0.000983675,0.000409299,-0.000369236
87455331,0,0,0,0.000974288,0.000426847,-0.000368792
87489797,0,0,0,0.000929292,0.00044247,-0.000312587
87523580,0,0,0,0.000995933,0.000397777,-0.000389049
87557770,0,0,0,0.001019663,0.00039231,-0.000347601
87589791,0,0,0,0.001029487,0.000432228,-0.000255496
87622943,0,0,0,0.000974917,0.000431824,-0.00024015
87657769,0,0,0,0.00096853,0.000441723,-0.000353924
87689766,0,0,0,0.000927154,0.000382271,-0.000473117
87728715,0,0,0,0.000988886,0.000411955,-0.000370288
87757807,0,0,0,0.001009182,0.000416546,-0.000336729
87790984,0,0,0,0.000930637,0.000372615,-0.000402051
87823066,0,0,0,0.000940913,0.000406152,-0.000447229
87857685,0,0,0,0.000907937,0.00039654,-0.000423883
87889851,0,0,0,0.000895378,0.000399695,-0.000392974
87927084,0,0,0,0.000985735,0.000381879,-0.000470954
87956789,0,0,0,0.001046884,0.000396284,-0.000442003
87992743,0,0,0,0.000917326,0.000400061,-0.000455822
88023091,0,0,0,0.00094375,0.000402562,-0.000489693
88055409,0,0,0,0.000921241,0.000398153,-0.000423755
88089739,0,0,0,0.000920794,0.000401172,-0.000344484
88127724,0,0,0,0.000917752,0.000374142,-0.000380892
88157659,0,0,0,0.000915458,0.000401189,-0.000437884
88189733,0,0,0,0.000933461,0.000413726,-0.000373399
88223063,0,0,0,0.000936091,0.000403101,-0.000451028
88260696,0,0,0,0.000899986,0.000410433,-0.000383443
88289740,0,0,0,0.000933978,0.000373615,-0.000473572
88322739,0,0,0,0.000962508,0.000392795,-0.000480231
88356883,0,0,0,0.000993429,0.000405375,-0.000434244
88398690,0,0,0,0.001000383,0.000421823,-0.000396664
88431879,0,0,0,0.000930807,0.00042167,-0.000454111
88455878,0,0,0,0.000940615,0.00043815,-0.000408814
88489733,0,0,0,0.000933364,0.000376449,-0.000484408
88522749,0,0,0,0.000931465,0.000411159,-0.000467032
88558696,0,0,0,0.000927038,0.000426901,-0.000468005
88592871,0,0,0,0.000968412,0.000433125,-0.000336653
88624988,0,0,0,0.000989382,0.000409751,-0.000421331
88655879,0,0,0,0.000962329,0.000410177,-0.00039492
88689693,0,0,0,0.000957831,0.000417312,-0.00044227
88725694,0,0,0,0.000948398,0.00042154,-0.000455053
88756108,0,0,0,0.000957421,0.000443089,-0.000376328
88789734,0,0,0,0.000883351,0.000413069,-0.000431036
88822748,0,0,0,0.00095032,0.000410594,-0.000461951
88862757,0,0,0,0.001025551,0.00041609,-0.000470167
88889740,0,0,0,0.000926561,0.000377913,-0.000469302
88922748,0,0,0,0.000895859,0.000413173,-0.000427127
88956142,0,0,0,0.000874404,0.000425038,-0.000360283
88989870,0,0,0,0.000917024,0.000426811,-0.000471704
89024058,0,0,0,0.000885789,0.000432918,-0.000416761
89060226,0,0,0,0.000904733,0.000396433,-0.00044325
89089733,0,0,0,0.000898345,0.000385965,-0.000369197
89122749,0,0,0,0.000911554,0.00039541,-0.000450606
89156086,0,0,0,0.000943125,0.000389991,-0.000427587
89190695,0,0,0,0.000898507,0.000410338,-0.000443127
89223953,0,0,0,0.000893232,0.000409463,-0.000389997
89258726,0,0,0,0.000920052,0.00040037,-0.000446104
89289744,0,0,0,0.000912062,0.000398808,-0.000450167
89322700,0,0,0,0.000967865,0.000414266,-0.000467786
89356750,0,0,0,0.000936278,0.000425497,-0.000433006
89389766,0,0,0,0.000915214,0.000397183,-0.000434522
89428696,0,0,0,0.000907809,0.000390414,-0.000361099
89460687,0,0,0,0.000918729,0.000403425,-0.000464177
89493031,0,0,0,0.00095565,0.000400548,-0.000495865
89522802,0,0,0,0.000937738,0.000377273,-0.000461631
89556967,0,0,0,0.000943117,0.000365374,-0.000377427
89589336,0,0,0,0.001010832,0.000455514,-0.000346147
89626740,0,0,0,0.00093558,0.000432976,-0.000445029
89658749,0,0,0,0.00099063,0.000449231,-0.000418115
89689798,0,0,0,0.000952519,0.000406018,-0.000447761
89724800,0,0,0,0.000958979,0.000403084,-0.000415546
89757010,0,0,0,0.000931343,0.00042777,-0.000438599
89790686,0,0,0,0.00093102,0.000414488,-0.000438886
89824863,0,0,0,0.000869471,0.000411763,-0.000371067
89858799,0,0,0,0.000934421,0.000406358,-0.000446963
89890733,0,0,0,0.000933863,0.000398609,-0.000435079
89922739,0,0,0,0.000902391,0.000393729,-0.000402596
89956746,0,0,0,0.000955378,0.000415426,-0.000445969
89988865,0,0,0,0.00092904,0.000394451,-0.000408689
90026740,0,0,0,0.000909289,0.000381378,-0.000316516
90058764,0,0,0,0.000900974,0.000427424,-0.000331017
90096392,0,0,0,0.000933383,0.00044657,-0.000387469
90124954,0,0,0,0.001016472,0.000381873,-0.000375988
90156776,0,0,0,0.000971261,0.000429509,-0.000416286
90189153,0,0,0,0.00097927,0.000452989,-0.00030844
90224797,0,0,0,0.001000753,0.000445561,-0.000360945
90256652,0,0,0,0.000992842,0.000447021,-0.000361415
90290735,0,0,0,0.001020394,0.000414999,-0.000379836
90322941,0,0,0,0.001026151,0.000399228,-0.000366755
90358276,0,0,0,0.000990243,0.000422994,-0.000320908
90389859,0,0,0,0.000976184,0.000424331,-0.000349195
90425452,0,0,0,0.000966409,0.000435461,-0.000320201
90458747,0,0,0,0.000969487,0.000421057,-0.000341671
90489750,0,0,0,0.000941365,0.000419411,-0.000314934
